Time,header.seq,header.stamp.secs,header.stamp.nsecs,header.frame_id,pose.position.x,pose.position.y,pose.position.z,pose.orientation.x,pose.orientation.y,pose.orientation.z,pose.orientation.w
1752766484.6066535,4248,1752780885,402725720,ukd_base,-0.42214855551719666,0.7386239171028137,0.0,0.0,0.0,0.9999999999999971,7.549789954891874e-08
1752766484.6243215,4249,1752780885,432748181,ukd_base,-0.41220787167549133,0.7307193279266357,0.0,0.0,0.0,0.9999999999999971,7.549789954891874e-08
1752766484.6584995,4250,1752780885,452680489,ukd_base,-0.3931090533733368,0.741519570350647,0.0,0.0,0.0,0.9999999999999971,7.549789954891874e-08
1752766484.6743145,4251,1752780885,484541211,ukd_base,-0.40769749879837036,0.7309315800666809,0.0,0.0,0.0,0.9999999999999971,7.549789954891874e-08
1752766484.7743945,4252,1752780885,514528691,ukd_base,-0.39889705181121826,0.7259253859519958,0.0,0.0,0.0,0.9999999999999971,7.549789954891874e-08
1752766484.7764108,4254,1752780885,564720717,ukd_base,-0.45314323902130127,0.7047344446182251,0.0,0.0,0.0,0.9999999999999971,7.549789954891874e-08
1752766484.8543441,4255,1752780885,610728742,ukd_base,-0.4310932457447052,0.7328853011131287,0.0,0.0,0.0,0.9999999999999971,7.549789954891874e-08
1752766484.8743935,4256,1752780885,644703576,ukd_base,-0.417425274848938,0.7319746613502502,0.0,0.0,0.0,0.9999999999999971,7.549789954891874e-08
1752766484.926559,4257,1752780885,688575898,ukd_base,-0.41894039511680603,0.7276603579521179,0.0,0.0,0.0,0.9999999999999971,7.549789954891874e-08
1752766484.9405458,4260,1752780885,778470856,ukd_base,-0.3951117992401123,0.7319871783256531,0.0,0.0,0.0,0.9999999999999971,7.549789954891874e-08
1752766484.9963868,4261,1752780885,808545428,ukd_base,-0.4087221324443817,0.7323573231697083,0.0,0.0,0.0,0.9999999999999971,7.549789954891874e-08
1752766485.0045488,4262,1752780885,834757570,ukd_base,-0.45984509587287903,0.7021855115890503,0.0,0.0,0.0,0.9999999999999971,7.549789954891874e-08
1752766485.0544403,4263,1752780885,862522162,ukd_base,-0.4857218265533447,0.7067301273345947,0.0,0.0,0.0,0.9999999999999971,7.549789954891874e-08
1752766485.0582664,4264,1752780885,892723880,ukd_base,-0.44700947403907776,0.7107111811637878,0.0,0.0,0.0,0.9999999999999971,7.549789954891874e-08
1752766485.1004126,4265,1752780885,922727212,ukd_base,-0.42545461654663086,0.7323946952819824,0.0,0.0,0.0,0.9999999999999971,7.549789954891874e-08
1752766485.108417,4266,1752780885,952473675,ukd_base,-0.4324285686016083,0.7083380222320557,0.0,0.0,0.0,0.9999999999999971,7.549789954891874e-08
1752766485.174426,4267,1752780885,964722105,ukd_base,-0.4286932647228241,0.7281010150909424,0.0,0.0,0.0,0.9999999999999971,7.549789954891874e-08
1752766485.180325,4268,1752780885,994748918,ukd_base,-0.42021533846855164,0.7231952548027039,0.0,0.0,0.0,0.9999999999999971,7.549789954891874e-08
1752766485.2309468,4269,1752780886,28580475,ukd_base,-0.4406162202358246,0.7204942107200623,0.0,0.0,0.0,0.9999999999999971,7.549789954891874e-08
1752766485.236389,4270,1752780886,64715365,ukd_base,-0.4145975112915039,0.7462756037712097,0.0,0.0,0.0,0.9999999999999971,7.549789954891874e-08
1752766485.316446,4271,1752780886,92661881,ukd_base,-0.41515645384788513,0.7427685856819153,0.0,0.0,0.0,0.9999999951564407,9.84231616200373e-05
1752766485.324317,4272,1752780886,126732880,ukd_base,-0.40917500853538513,0.7452045679092407,0.0,0.0,0.0,0.9999999259325065,0.00038488307506702896
1752766485.3848472,4273,1752780886,154752544,ukd_base,-0.40658456087112427,0.7547227144241333,0.0,0.0,0.0,0.9999998970391104,0.0004537860383557503
1752766485.390483,4275,1752780886,208721870,ukd_base,-0.4076748788356781,0.7442198991775513,0.0,0.0,0.0,0.9999999409978776,0.00034351745433926326
1752766485.4504087,4276,1752780886,244569521,ukd_base,-0.43378669023513794,0.7276478409767151,0.0,0.0,0.0,0.9999999470581854,0.0003253976433412503
1752766485.456315,4277,1752780886,280482431,ukd_base,-0.38529086112976074,0.7321011424064636,0.0,0.0,0.0,0.9999999751096078,0.00022311607679791174
1752766485.514345,4278,1752780886,312548152,ukd_base,-0.4311591684818268,0.7241358757019043,0.0,0.0,0.0,-0.9999999949309494,0.00010068813811027721
1752766485.5154598,4279,1752780886,344751668,ukd_base,-0.41368943452835083,0.7361566424369812,0.0,0.0,0.0,-0.9999998976333012,0.0004524747363053148
1752766485.5585685,4280,1752780886,376753148,ukd_base,-0.4300224781036377,0.7293378114700317,0.0,0.0,0.0,0.9999999999999971,7.549789954891874e-08
1752766485.5725236,4281,1752780886,392706084,ukd_base,-0.44253331422805786,0.7300117015838623,0.0,0.0,0.0,0.9999999999999971,7.549789954891874e-08
1752766485.6282494,4282,1752780886,414747947,ukd_base,-0.427632212638855,0.7236623167991638,0.0,0.0,0.0,0.9999999999999971,7.549789954891874e-08
1752766485.6362624,4284,1752780886,468435962,ukd_base,-0.44523534178733826,0.723502516746521,0.0,0.0,0.0,0.9999999999999971,7.549789954891874e-08
1752766485.7223082,4285,1752780886,492488215,ukd_base,-0.43060579895973206,0.6974467039108276,0.0,0.0,0.0,0.9999999999999971,7.549789954891874e-08
1752766485.740687,4287,1752780886,542648945,ukd_base,-0.4261738359928131,0.7394907474517822,0.0,0.0,0.0,0.9999999999999971,7.549789954891874e-08
1752766485.7864199,4288,1752780886,556746915,ukd_base,-0.42797714471817017,0.7268075942993164,0.0,0.0,0.0,0.9999999999999971,7.549789954891874e-08
1752766485.7985702,4290,1752780886,630718641,ukd_base,-0.38237646222114563,0.7544625997543335,0.0,0.0,0.0,0.9999998836469152,0.0004823962647125778
1752766485.8300486,4291,1752780886,660694973,ukd_base,-0.3833760917186737,0.7536494731903076,0.0,0.0,0.0,0.999999329155624,0.0011583126961590175
1752766485.831117,4292,1752780886,696590735,ukd_base,-0.3875047564506531,0.7571184635162354,0.0,0.0,0.0,0.9999985080137189,0.0017274172443955797
1752766485.8348145,4293,1752780886,718743227,ukd_base,-0.37580999732017517,0.7527702450752258,0.0,0.0,0.0,0.9999977515915582,0.002120568751125856
1752766485.8359272,4294,1752780886,728837528,ukd_base,-0.39229124784469604,0.7540110945701599,0.0,0.0,0.0,0.9999966084458551,0.0026044379023474184
1752766485.8424637,4295,1752780886,738884626,ukd_base,-0.4506675601005554,0.7277238368988037,0.0,0.0,0.0,0.9999950745435942,0.0031386125201493175
1752766485.862632,4296,1752780886,758845674,ukd_base,-0.4462248682975769,0.7388913035392761,0.0,0.0,0.0,0.9999930963151672,0.003715820502222573
1752766485.872668,4297,1752780886,768862754,ukd_base,-0.39855626225471497,0.7476248741149902,0.0,0.0,0.0,0.9999902497297926,0.004415930858500134
1752766485.8825507,4298,1752780886,778823519,ukd_base,-0.3961983621120453,0.7328107357025146,0.0,0.0,0.0,0.9999869300576353,0.005112701233800187
1752766485.9026463,4299,1752780886,798828382,ukd_base,-0.37639546394348145,0.7455102801322937,0.0,0.0,0.0,0.9999831034161958,0.005813164552458551
1752766485.9220827,4300,1752780886,818864874,ukd_base,-0.3746940791606903,0.7580505013465881,0.0,0.0,0.0,0.9999786539118165,0.0065338901667823445
1752766485.9322097,4301,1752780886,828856158,ukd_base,-0.37671172618865967,0.7551735043525696,0.0,0.0,0.0,0.9999755173057825,0.006997484478924014
1752766485.942086,4302,1752780886,838853330,ukd_base,-0.3903033137321472,0.7299465537071228,0.0,0.0,0.0,0.999971247549079,0.0075831441459746724
1752766485.9623013,4303,1752780886,858863859,ukd_base,-0.39123019576072693,0.7404130101203918,0.0,0.0,0.0,0.9999691748132249,0.007851714676309856
1752766485.98219,4304,1752780886,878822389,ukd_base,-0.38123369216918945,0.7329785823822021,0.0,0.0,0.0,0.9999661618045858,0.008226496569320627
1752766485.9920542,4305,1752780886,888832135,ukd_base,-0.36554017663002014,0.7555561661720276,0.0,0.0,0.0,0.9999648739204146,0.008381582507458015
1752766486.0120869,4306,1752780886,908821258,ukd_base,-0.3922896981239319,0.7422452569007874,0.0,0.0,0.0,0.9999642920159856,0.008450721446642277
1752766486.0226827,4307,1752780886,918833374,ukd_base,-0.38582944869995117,0.7390189170837402,0.0,0.0,0.0,0.9999634244715186,0.008552760910567567
1752766486.0324135,4308,1752780886,928823232,ukd_base,-0.3644348680973053,0.7418954372406006,0.0,0.0,0.0,0.9999635304297986,0.008540363597252153
1752766486.0530384,4309,1752780886,948899168,ukd_base,-0.3404823839664459,0.7674639225006104,0.0,0.0,0.0,0.9999635039546378,0.008543462925704145
1752766486.062508,4310,1752780886,958855470,ukd_base,-0.36871299147605896,0.7544408440589905,0.0,0.0,0.0,0.9999635080283648,0.008542986105947642
1752766486.0828352,4311,1752780886,978856204,ukd_base,-0.37341398000717163,0.7387976050376892,0.0,0.0,0.0,0.9999645353917671,0.00842187382518552
1752766486.0928211,4312,1752780886,988852524,ukd_base,-0.357134073972702,0.7508568167686462,0.0,0.0,0.0,0.9999655935896972,0.008295277982358254
1752766486.1126392,4313,1752780887,8827332,ukd_base,-0.3683468699455261,0.7549576163291931,0.0,0.0,0.0,0.9999672975396954,0.008087264751342724
1752766486.1326482,4314,1752780887,28946397,ukd_base,-0.3515535593032837,0.7695158123970032,0.0,0.0,0.0,0.9999697811362905,0.007774111797442674
1752766486.143,4315,1752780887,38830533,ukd_base,-0.36862319707870483,0.7761197686195374,0.0,0.0,0.0,0.9999722324427482,0.0074521368389426365
1752766486.162822,4316,1752780887,58836526,ukd_base,-0.4204014837741852,0.7496091723442078,0.0,0.0,0.0,0.9999752546773748,0.007034915274502734
1752766486.1716464,4317,1752780887,68833532,ukd_base,-0.4184364974498749,0.7508972883224487,0.0,0.0,0.0,0.9999772513898576,0.006745124371394874
1752766486.191824,4318,1752780887,88827209,ukd_base,-0.39624300599098206,0.7392286062240601,0.0,0.0,0.0,0.9999799635457337,0.006330284912464904
1752766486.2034204,4319,1752780887,99025232,ukd_base,-0.3982791304588318,0.7317426204681396,0.0,0.0,0.0,0.9999818567300388,0.006023803677426916
1752766486.2119918,4320,1752780887,108820461,ukd_base,-0.41425853967666626,0.7148140668869019,0.0,0.0,0.0,0.9999829979185858,0.005831284057352045
1752766486.2326484,4321,1752780887,128820491,ukd_base,-0.42288729548454285,0.7145661115646362,0.0,0.0,0.0,0.9999836505287988,0.005718275535273891
1752766486.252128,4322,1752780887,148822206,ukd_base,-0.4234100878238678,0.7071591019630432,0.0,0.0,0.0,0.9999842268247535,0.005616591644403525
1752766486.2621288,4323,1752780887,158843544,ukd_base,-0.41181159019470215,0.7194331288337708,0.0,0.0,0.0,0.9999848420480753,0.005505967134484431
1752766486.2827473,4324,1752780887,178832907,ukd_base,-0.4059271514415741,0.7265662550926208,0.0,0.0,0.0,0.9999848977875458,0.005495834498182467
1752766486.292616,4325,1752780887,188830913,ukd_base,-0.46028825640678406,0.7069501876831055,0.0,0.0,0.0,0.9999853580753086,0.005411435576335634
1752766486.3027344,4326,1752780887,199217119,ukd_base,-0.4816279113292694,0.6912760138511658,0.0,0.0,0.0,0.9999852443187774,0.0054324161029041815
1752766486.322731,4327,1752780887,218822930,ukd_base,-0.43738049268722534,0.7015901803970337,0.0,0.0,0.0,0.9999858347262518,0.005322625934758837
1752766486.3429608,4328,1752780887,238825830,ukd_base,-0.41486579179763794,0.7300925254821777,0.0,0.0,0.0,0.9999861119052403,0.005270293790690858
1752766486.3527474,4329,1752780887,248964556,ukd_base,-0.3994424045085907,0.7387353181838989,0.0,0.0,0.0,0.9999870850133887,0.005082303259912125
1752766486.3726768,4330,1752780887,268822494,ukd_base,-0.4085787832736969,0.7440704703330994,0.0,0.0,0.0,0.9999885289991579,0.004789767228201718
1752766486.382729,4331,1752780887,278832926,ukd_base,-0.4170517325401306,0.7466245889663696,0.0,0.0,0.0,0.9999900092705937,0.004470051341767907
1752766486.4029753,4332,1752780887,299049120,ukd_base,-0.4235427677631378,0.737705409526825,0.0,0.0,0.0,0.9999915056553791,0.004121725013627258
1752766486.412108,4333,1752780887,308874572,ukd_base,-0.4159347414970398,0.7452371120452881,0.0,0.0,0.0,0.999992827981038,0.00378734557259714
1752766486.4326494,4334,1752780887,328825398,ukd_base,-0.38896092772483826,0.7618703246116638,0.0,0.0,0.0,0.9999937194443156,0.0035441602564603536
1752766486.4426436,4335,1752780887,338832237,ukd_base,-0.3862399160861969,0.7681536078453064,0.0,0.0,0.0,0.9999940902481587,0.0034379454267704146
1752766486.4523642,4336,1752780887,348855779,ukd_base,-0.39065685868263245,0.765986979007721,0.0,0.0,0.0,0.9999942974159141,0.00337714904207686
1752766486.4721148,4337,1752780887,368828679,ukd_base,-0.3900103271007538,0.759627103805542,0.0,0.0,0.0,0.9999944422214845,0.003333995522216289
1752766486.4926403,4338,1752780887,388826987,ukd_base,-0.3882931172847748,0.7558220028877258,0.0,0.0,0.0,0.9999942372726243,0.003394911124395907
1752766486.502985,4339,1752780887,399036731,ukd_base,-0.4300934672355652,0.7398852705955505,0.0,0.0,0.0,0.9999946827954652,0.0032610398336769464
1752766486.522765,4340,1752780887,418828318,ukd_base,-0.48178166151046753,0.7124616503715515,0.0,0.0,0.0,0.9999951412890968,0.003117274161708463
1752766486.5326385,4341,1752780887,428891657,ukd_base,-0.45478689670562744,0.7228865027427673,0.0,0.0,0.0,0.999995586554783,0.0029710050412870737
1752766486.55266,4342,1752780887,448902334,ukd_base,-0.4405657649040222,0.7267169952392578,0.0,0.0,0.0,0.9999964941765227,0.002647949142983072
1752766486.5627818,4343,1752780887,458855507,ukd_base,-0.3884604871273041,0.7592810988426208,0.0,0.0,0.0,0.9999973029728256,0.002322508788969178
1752766486.572126,4344,1752780887,468818809,ukd_base,-0.37082481384277344,0.7637543082237244,0.0,0.0,0.0,0.9999977455204696,0.0021234297676336437
1752766486.5927918,4345,1752780887,488828468,ukd_base,-0.38212719559669495,0.755131721496582,0.0,0.0,0.0,0.9999983679319447,0.001806691298159946
1752766486.6126628,4346,1752780887,508820035,ukd_base,-0.4053111672401428,0.7510303258895874,0.0,0.0,0.0,0.999998743757454,0.001585081548017443
1752766486.6216438,4347,1752780887,518818763,ukd_base,-0.38569316267967224,0.7668635249137878,0.0,0.0,0.0,0.9999990497150101,0.0013786112855734135
1752766486.6427665,4348,1752780887,538817663,ukd_base,-0.35492372512817383,0.7854031324386597,0.0,0.0,0.0,0.9999990577507704,0.0013727700359127963
1752766486.6526535,4349,1752780887,548908686,ukd_base,-0.3517143428325653,0.7927977442741394,0.0,0.0,0.0,0.9999991141567856,0.0013310468227009503
1752766486.6730325,4350,1752780887,569057862,ukd_base,-0.3970292806625366,0.7720091342926025,0.0,0.0,0.0,0.9999990199030055,0.0014000689369826256
1752766486.6829915,4351,1752780887,578830426,ukd_base,-0.4482880234718323,0.7440755367279053,0.0,0.0,0.0,0.9999986088017899,0.0016680511037637463
1752766486.6924398,4352,1752780887,589238335,ukd_base,-0.461698055267334,0.7185294032096863,0.0,0.0,0.0,0.9999977262413546,0.002132489653126859
1752766486.7144592,4353,1752780887,608830035,ukd_base,-0.4372641444206238,0.7426935434341431,0.0,0.0,0.0,0.9999966360216873,0.0025938283114141382
1752766486.732642,4354,1752780887,628819805,ukd_base,-0.4027952253818512,0.7545139193534851,0.0,0.0,0.0,0.9999943560422362,0.0033597445845427697
1752766486.7430253,4355,1752780887,638823718,ukd_base,-0.37578877806663513,0.7565155625343323,0.0,0.0,0.0,0.9999911231047164,0.004213515369382739
1752766486.7631216,4356,1752780887,659216559,ukd_base,-0.3544626235961914,0.7750903367996216,0.0,0.0,0.0,0.9999860238084589,0.00528698285871063
1752766486.7756376,4357,1752780887,668832531,ukd_base,-0.3471285104751587,0.7842143177986145,0.0,0.0,0.0,0.9999804570151294,0.006251846752200187
1752766486.7921288,4358,1752780887,688866227,ukd_base,-0.3454960584640503,0.7889952063560486,0.0,0.0,0.0,0.9999726827791624,0.007391460981746766
1752766486.80366,4359,1752780887,699017805,ukd_base,-0.32525959610939026,0.7906373143196106,0.0,0.0,0.0,0.99996704446377,0.00811849655986492
1752766486.8222733,4360,1752780887,718872540,ukd_base,-0.38278716802597046,0.7694979310035706,0.0,0.0,0.0,0.9999597379275806,0.008973434337207363
1752766486.8326707,4361,1752780887,728860083,ukd_base,-0.43533986806869507,0.7447032928466797,0.0,0.0,0.0,0.999953680869681,0.009624765720594178
1752766486.8426406,4362,1752780887,738822644,ukd_base,-0.42892900109291077,0.7127140760421753,0.0,0.0,0.0,0.9999468314209949,0.010311853912484138
1752766486.8627186,4363,1752780887,758826007,ukd_base,-0.39260753989219666,0.7361279129981995,0.0,0.0,0.0,0.9999424662420492,0.010726798486426745
1752766486.8721302,4364,1752780887,768821790,ukd_base,-0.37132906913757324,0.7288576364517212,0.0,0.0,0.0,0.9999404150927614,0.01091633015788179
1752766486.8921266,4365,1752780887,788831023,ukd_base,-0.34166255593299866,0.7570728659629822,0.0,0.0,0.0,0.9999401493261753,0.010940647400692609
1752766486.9126682,4366,1752780887,808827183,ukd_base,-0.3548818826675415,0.7540856003761292,0.0,0.0,0.0,0.9999434276361998,0.010636800607702567
1752766486.9229233,4367,1752780887,818824688,ukd_base,-0.37790781259536743,0.7349223494529724,0.0,0.0,0.0,0.9999474907110835,0.010247722703487613
1752766486.941996,4368,1752780887,838829644,ukd_base,-0.3823365569114685,0.723685085773468,0.0,0.0,0.0,0.9999527306196287,0.009722989578735615
1752766486.9519796,4369,1752780887,848852964,ukd_base,-0.37264296412467957,0.7191160917282104,0.0,0.0,0.0,0.9999576447140517,0.009203737171738611
1752766486.9722478,4370,1752780887,868864142,ukd_base,-0.34122151136398315,0.7576611042022705,0.0,0.0,0.0,0.9999623574696186,0.008676614766302231
1752766486.9831033,4371,1752780887,878854555,ukd_base,-0.3684230148792267,0.7411457300186157,0.0,0.0,0.0,0.9999652346861472,0.008338430252672243
1752766486.9923248,4372,1752780887,888828690,ukd_base,-0.3698327839374542,0.7445767521858215,0.0,0.0,0.0,0.9999680156474099,0.007997979881280115
1752766487.0123093,4373,1752780887,908819331,ukd_base,-0.3765222430229187,0.72726970911026,0.0,0.0,0.0,0.999968875507044,0.007889741261777258
1752766487.0323424,4374,1752780887,928821620,ukd_base,-0.3793087601661682,0.7430551052093506,0.0,0.0,0.0,0.999967258000591,0.008092152172281772
1752766487.0428789,4375,1752780887,938827644,ukd_base,-0.3609062135219574,0.7640371918678284,0.0,0.0,0.0,0.9999656874686214,0.008283953488967778
1752766487.051972,4376,1752780887,948898186,ukd_base,-0.3512013256549835,0.773495078086853,0.0,0.0,0.0,0.9999604991427175,0.008888203094409335
1752766487.0728064,4377,1752780887,968877364,ukd_base,-0.3742246925830841,0.7694696187973022,0.0,0.0,0.0,0.9999538596851627,0.009606169931141653
1752766487.0927572,4378,1752780887,988858356,ukd_base,-0.4105832576751709,0.7556040287017822,0.0,0.0,0.0,0.9999426668281597,0.010708083702883326
1752766487.1035252,4379,1752780887,999269692,ukd_base,-0.4026218056678772,0.7632861137390137,0.0,0.0,0.0,0.9999286739860751,0.011943489458681636
1752766487.1126516,4380,1752780888,8822275,ukd_base,-0.3796076774597168,0.7673097252845764,0.0,0.0,0.0,0.9999092326100686,0.013473178583534872
1752766487.1328754,4381,1752780888,28827194,ukd_base,-0.4094887673854828,0.7531282305717468,0.0,0.0,0.0,0.9998912758101627,0.01474573018623295
1752766487.1425638,4382,1752780888,38826199,ukd_base,-0.421710729598999,0.7404024004936218,0.0,0.0,0.0,0.9998698001597064,0.016136379042054207
1752766487.1628788,4383,1752780888,58863858,ukd_base,-0.41466888785362244,0.7505179643630981,0.0,0.0,0.0,0.9998469164684739,0.017496960549896926
1752766487.1828756,4384,1752780888,78833332,ukd_base,-0.40361836552619934,0.7403435707092285,0.0,0.0,0.0,0.999817813995988,0.019087661362356914
1752766487.191745,4385,1752780888,88828320,ukd_base,-0.3776986300945282,0.7595235705375671,0.0,0.0,0.0,0.9997883617162612,0.02057259771430334
1752766487.2119114,4386,1752780888,108859793,ukd_base,-0.35572636127471924,0.7772400379180908,0.0,0.0,0.0,0.9997515601745149,0.022289412926839818
1752766487.2321923,4387,1752780888,128856138,ukd_base,-0.3730742335319519,0.7507568597793579,0.0,0.0,0.0,0.9997193076158594,0.023691896928419366
1752766487.2418756,4388,1752780888,138865458,ukd_base,-0.37761133909225464,0.7423160672187805,0.0,0.0,0.0,0.9996794505969702,0.025317899876170565
1752766487.2527475,4389,1752780888,148902500,ukd_base,-0.37682247161865234,0.7316520810127258,0.0,0.0,0.0,0.9996398531533487,0.02683587128362767
1752766487.272234,4390,1752780888,168853956,ukd_base,-0.3836095929145813,0.7440205216407776,0.0,0.0,0.0,0.9995975889900418,0.02836653107617276
1752766487.2818592,4391,1752780888,178861202,ukd_base,-0.41352054476737976,0.7219178676605225,0.0,0.0,0.0,0.999565786215005,0.029465896021992635
1752766487.3031137,4392,1752780888,198929139,ukd_base,-0.41505250334739685,0.7238184213638306,0.0,0.0,0.0,0.9995293357217658,0.030677467816060885
1752766487.3128514,4393,1752780888,208869515,ukd_base,-0.4138256013393402,0.7126200795173645,0.0,0.0,0.0,0.9995034523065677,0.031509503760814454
1752766487.322544,4394,1752780888,218823966,ukd_base,-0.39797094464302063,0.6995660066604614,0.0,0.0,0.0,0.9994795331330264,0.0322593063810662
1752766487.3428864,4395,1752780888,238869199,ukd_base,-0.3751239478588104,0.72397780418396,0.0,0.0,0.0,0.999475622523527,0.032380240598368214
1752766487.3526082,4396,1752780888,248975481,ukd_base,-0.3368399739265442,0.7308892607688904,0.0,0.0,0.0,0.9994834597588531,0.03213741850978513
1752766487.3727152,4397,1752780888,268867438,ukd_base,-0.38717231154441833,0.7004598379135132,0.0,0.0,0.0,0.9995009399788601,0.03158909592525653
1752766487.3827033,4398,1752780888,278830406,ukd_base,-0.4138738214969635,0.6778820157051086,0.0,0.0,0.0,0.999523981305843,0.03085143099625883
1752766487.403436,4399,1752780888,299017749,ukd_base,-0.3993341326713562,0.7023840546607971,0.0,0.0,0.0,0.9995349289074714,0.030494686322964128
1752766487.4227004,4400,1752780888,318822540,ukd_base,-0.3709663152694702,0.7218319773674011,0.0,0.0,0.0,0.999531399681718,0.03061014619870018
1752766487.43227,4401,1752780888,328864193,ukd_base,-0.37598323822021484,0.7288395762443542,0.0,0.0,0.0,0.9995101643874075,0.03129586691973319
1752766487.452851,4402,1752780888,348856019,ukd_base,-0.3888450860977173,0.7015128135681152,0.0,0.0,0.0,0.9994773311211108,0.0323274585301949
1752766487.4628134,4403,1752780888,358852747,ukd_base,-0.39412495493888855,0.7012894153594971,0.0,0.0,0.0,0.9994372641950867,0.033543329265898585
1752766487.4830852,4404,1752780888,378874739,ukd_base,-0.3955623507499695,0.7023908495903015,0.0,0.0,0.0,0.999380570681414,0.03519197272804389
1752766487.492915,4405,1752780888,388872689,ukd_base,-0.3815663754940033,0.6943458914756775,0.0,0.0,0.0,0.9993234437790512,0.0367784544751052
1752766487.502791,4406,1752780888,398990046,ukd_base,-0.3507523238658905,0.7263408303260803,0.0,0.0,0.0,0.9992365027058787,0.039069318654470164
1752766487.5218306,4407,1752780888,418825077,ukd_base,-0.3684993386268616,0.6983582973480225,0.0,0.0,0.0,0.9991449853722837,0.041343659797107656
1752766487.5423532,4408,1752780888,438825791,ukd_base,-0.396744042634964,0.6897711157798767,0.0,0.0,0.0,0.9990416086354501,0.04377058618629921
1752766487.5531638,4409,1752780888,449262534,ukd_base,-0.3819788098335266,0.6685892939567566,0.0,0.0,0.0,0.998975260058741,0.04525958230663021
1752766487.5625808,4410,1752780888,458820710,ukd_base,-0.42600497603416443,0.6450290083885193,0.0,0.0,0.0,0.9989428186824597,0.04597004462410823
1752766487.5826426,4411,1752780888,478823888,ukd_base,-0.3522127568721771,0.6938266754150391,0.0,0.0,0.0,0.9989441992059163,0.04594003562091332
1752766487.6036105,4412,1752780888,499291061,ukd_base,-0.3522905111312866,0.6944243311882019,0.0,0.0,0.0,0.9989822727880803,0.045104530317492744
1752766487.612217,4413,1752780888,508830775,ukd_base,-0.3717745840549469,0.6640890836715698,0.0,0.0,0.0,0.9990334986574463,0.04395530184473979
1752766487.6327174,4414,1752780888,528822027,ukd_base,-0.40968194603919983,0.6410163044929504,0.0,0.0,0.0,0.9990992745547568,0.04243394377333796
1752766487.6420279,4415,1752780888,539033308,ukd_base,-0.39953434467315674,0.6751683354377747,0.0,0.0,0.0,0.9991545984510276,0.04111068467157623
1752766487.6628773,4416,1752780888,558868376,ukd_base,-0.3942592442035675,0.6974448561668396,0.0,0.0,0.0,0.9992142858879496,0.03963345654160124
1752766487.6722424,4417,1752780888,568828975,ukd_base,-0.3641914427280426,0.7064695954322815,0.0,0.0,0.0,0.9992590985643954,0.03848706193348573
1752766487.682866,4418,1752780888,578854647,ukd_base,-0.323670357465744,0.72105872631073,0.0,0.0,0.0,0.9993034325898006,0.03731822094154365
1752766487.7122338,4419,1752780888,608816664,ukd_base,-0.3648838400840759,0.6907283663749695,0.0,0.0,0.0,0.999365541492686,0.03561621087413058
1752766487.7327447,4420,1752780888,628827193,ukd_base,-0.3518613576889038,0.6903270483016968,0.0,0.0,0.0,0.999375450381028,0.03533707933201985
1752766487.752368,4421,1752780888,648827037,ukd_base,-0.33064913749694824,0.7057643532752991,0.0,0.0,0.0,0.999413710543508,0.034237920171313545
1752766487.762022,4422,1752780888,658826525,ukd_base,-0.3112393021583557,0.7245451807975769,0.0,0.0,0.0,0.9994600648781368,0.03285694315956248
1752766487.7829213,4423,1752780888,678881165,ukd_base,-0.30879026651382446,0.7162696123123169,0.0,0.0,0.0,0.9995045222539995,0.03147554596514653
1752766487.7922158,4424,1752780888,688874967,ukd_base,-0.3032476603984833,0.7088564038276672,0.0,0.0,0.0,0.9995450806897045,0.03016010061343017
1752766487.8122368,4425,1752780888,708826793,ukd_base,-0.3015460669994354,0.7190263867378235,0.0,0.0,0.0,0.9995712486000218,0.029280009771061655
1752766487.822356,4426,1752780888,718830669,ukd_base,-0.3009689152240753,0.7128579616546631,0.0,0.0,0.0,0.9995710321648721,0.029287397577322714
1752766487.8428776,4427,1752780888,738829402,ukd_base,-0.3009302318096161,0.7181503772735596,0.0,0.0,0.0,0.999549553064827,0.03001151392223644
1752766487.8522453,4428,1752780888,748865167,ukd_base,-0.3251490294933319,0.7178516387939453,0.0,0.0,0.0,0.9995283368207687,0.030709996618494634
1752766487.8618593,4429,1752780888,758826654,ukd_base,-0.34700992703437805,0.7148678302764893,0.0,0.0,0.0,0.9995140850009332,0.031170400779381303
1752766487.8830538,4430,1752780888,778822536,ukd_base,-0.3391183614730835,0.7336640954017639,0.0,0.0,0.0,0.999520916479036,0.030950565760710837
1752766487.9036212,4431,1752780888,799057304,ukd_base,-0.3712981343269348,0.7185068130493164,0.0,0.0,0.0,0.9995518113036169,0.029936207502930728
1752766487.9128654,4432,1752780888,808828793,ukd_base,-0.3845849335193634,0.7084901332855225,0.0,0.0,0.0,0.9995944210278003,0.02847794673245935
1752766487.932853,4433,1752780888,828825434,ukd_base,-0.40796005725860596,0.7174168825149536,0.0,0.0,0.0,0.9996380113310029,0.026904391875633437
1752766487.9429681,4434,1752780888,838830995,ukd_base,-0.4225381314754486,0.7210211753845215,0.0,0.0,0.0,0.9996698699474058,0.025693406145095667
1752766487.952653,4435,1752780888,849262274,ukd_base,-0.47262901067733765,0.7016636729240417,0.0,0.0,0.0,0.9996968165996633,0.024622649745697715
1752766487.9722219,4436,1752780888,868831271,ukd_base,-0.49875888228416443,0.6922323703765869,0.0,0.0,0.0,0.9997153140830385,0.023859815335656724
1752766487.9825726,4437,1752780888,878880739,ukd_base,-0.5492366552352905,0.6788845658302307,0.0,0.0,0.0,0.9997276581491115,0.02333687064911225
1752766488.0031762,4438,1752780888,898946712,ukd_base,-0.7684708833694458,0.46124470233917236,0.0,0.0,0.0,0.9997374637472509,0.022912956601325786
1752766488.022776,4439,1752780888,918831280,ukd_base,-0.8958684802055359,0.17282719910144806,0.0,0.0,0.0,0.9997520143317653,0.022269033198090277
1752766488.0320957,4440,1752780888,928830674,ukd_base,-0.9089953899383545,-0.14615726470947266,0.0,0.0,0.0,0.9997613202585248,0.021847254173723515
1752766488.0426128,4441,1752780888,938825495,ukd_base,-0.8219263553619385,-0.45913174748420715,0.0,0.0,0.0,0.9997650119289634,0.021677659529562892
1752766488.0628543,4442,1752780888,958888709,ukd_base,-0.9439049363136292,-0.15177036821842194,0.0,0.0,0.0,0.9997695534330826,0.021467184915927875
1752766488.0725589,4443,1752780888,968820178,ukd_base,-0.8252006769180298,-0.4609608054161072,0.0,0.0,0.0,0.9997794984274322,0.020998917214756198
1752766488.092276,4444,1752780888,988829763,ukd_base,-0.6219620108604431,-0.7216044664382935,0.0,0.0,0.0,0.9997950570425203,0.02024460207916469
1752766488.1122227,4445,1752780889,8863626,ukd_base,-0.38520359992980957,-0.8737114071846008,0.0,0.0,0.0,0.9998133222621758,0.01932150685300467
1752766488.1223142,4446,1752780889,18856002,ukd_base,-0.2476983517408371,-0.9082292914390564,0.0,0.0,0.0,0.9998281969297989,0.018535820027917232
1752766488.1423023,4447,1752780889,38826957,ukd_base,-0.13957799971103668,-0.9366374611854553,0.0,0.0,0.0,0.999842301791126,0.01775870347246384
1752766488.1528113,4448,1752780889,48999610,ukd_base,-0.061951711773872375,-0.9428530931472778,0.0,0.0,0.0,0.9998482152415609,0.017422585292240205
1752766488.1626108,4449,1752780889,58832154,ukd_base,0.0395665317773819,-0.9485955238342285,0.0,0.0,0.0,0.999840111610031,0.017881588733690244
1752766488.1830711,4450,1752780889,78829702,ukd_base,0.04759063199162483,-0.9544084668159485,0.0,0.0,0.0,0.9998205794425781,0.018942252324034042
1752766488.1925824,4451,1752780889,89011817,ukd_base,0.04759063199162483,-0.9544084668159485,0.0,0.0,0.0,0.9998205794425781,0.018942252324034042
1752766488.212216,4452,1752780889,108854274,ukd_base,-0.2794017791748047,-0.9026632308959961,0.0,0.0,0.0,0.99975017922353,0.022351267134539034
1752766488.2328126,4453,1752780889,128821656,ukd_base,-0.5765388607978821,-0.7581208348274231,0.0,0.0,0.0,0.9997105729516138,0.024057645952089663
1752766488.242732,4454,1752780889,138832809,ukd_base,-0.7832536101341248,-0.5027253031730652,0.0,0.0,0.0,0.999682665856558,0.025190624960996517
1752766488.2522135,4455,1752780889,148875203,ukd_base,-0.8874519467353821,-0.19902844727039337,0.0,0.0,0.0,0.9996622612673737,0.025987754766450943
1752766488.2728338,4456,1752780889,168831011,ukd_base,-0.869320273399353,0.11310527473688126,0.0,0.0,0.0,0.9996542556740142,0.02629389877581255
1752766488.2921765,4457,1752780889,188822078,ukd_base,-0.7467825412750244,0.388195663690567,0.0,0.0,0.0,0.9996567430939645,0.02619916003934935
1752766488.3035352,4458,1752780889,199042859,ukd_base,-0.5996916890144348,0.5726007223129272,0.0,0.0,0.0,0.9996587265653825,0.026123368880714183
1752766488.3221962,4459,1752780889,218829705,ukd_base,-0.47901007533073425,0.6400045156478882,0.0,0.0,0.0,0.9996583558811557,0.02613754994226904
1752766488.332113,4460,1752780889,228825730,ukd_base,-0.3702147901058197,0.7053310871124268,0.0,0.0,0.0,0.9996447597220744,0.026652473810063186
1752766488.34172,4461,1752780889,238824013,ukd_base,-0.2781643867492676,0.7411291599273682,0.0,0.0,0.0,0.9996149810163679,0.027746886809988856
1752766488.3623474,4462,1752780889,258830487,ukd_base,-0.2150183469057083,0.7519912123680115,0.0,0.0,0.0,0.9995681189588423,0.02938665617387738
1752766488.3822463,4463,1752780889,278823350,ukd_base,-0.1631428748369217,0.7458555102348328,0.0,0.0,0.0,0.9995058945996111,0.03143193695321723
1752766488.3920994,4464,1752780889,288830374,ukd_base,-0.11464739590883255,0.759842038154602,0.0,0.0,0.0,0.9994497816537812,0.033168267247612654
1752766488.4121983,4465,1752780889,308818718,ukd_base,-0.060433529317379,0.7755587697029114,0.0,0.0,0.0,0.999410191126522,0.03434049901281197
1752766488.4228623,4466,1752780889,318829557,ukd_base,-0.17767886817455292,0.7518267035484314,0.0,0.0,0.0,0.9993960910225839,0.03474842800443356
1752766488.4426317,4467,1752780889,338825865,ukd_base,-0.2405005842447281,0.7270296216011047,0.0,0.0,0.0,0.999383215031612,0.035116798160977486
1752766488.4521096,4468,1752780889,348989554,ukd_base,-0.21646369993686676,0.732738196849823,0.0,0.0,0.0,0.9993588623781261,0.03580313095662911
1752766488.4622664,4469,1752780889,358825691,ukd_base,-0.1787354201078415,0.7415952086448669,0.0,0.0,0.0,0.9993161770741421,0.036975373398004004
1752766488.4821632,4470,1752780889,378835405,ukd_base,-0.15393410623073578,0.7523956894874573,0.0,0.0,0.0,0.9992806365035763,0.03792373279369068
1752766488.4922593,4471,1752780889,388825337,ukd_base,-0.113956980407238,0.7479554414749146,0.0,0.0,0.0,0.9992387691883026,0.039011307989429804
1752766488.5121212,4472,1752780889,408824978,ukd_base,-0.07599352300167084,0.7296640872955322,0.0,0.0,0.0,0.9991659592449003,0.04083363670086516
1752766488.5224946,4473,1752780889,418827761,ukd_base,-0.06504841148853302,0.7236096262931824,0.0,0.0,0.0,0.9989488381559608,0.0458390526391644
1752766488.5430186,4474,1752780889,438839309,ukd_base,-0.07329467684030533,0.7238680124282837,0.0,0.0,0.0,0.9985841949557492,0.053194037114869835
1752766488.5626597,4475,1752780889,458821468,ukd_base,-0.059643201529979706,0.7198317646980286,0.0,0.0,0.0,0.9979827740803378,0.06348529466666637
1752766488.572241,4476,1752780889,468822029,ukd_base,-0.050682589411735535,0.7077966928482056,0.0,0.0,0.0,0.9973191761972549,0.07317418116541481
1752766488.5924697,4477,1752780889,488823429,ukd_base,-0.06513695418834686,0.706730842590332,0.0,0.0,0.0,0.9964587991256033,0.08408246930936587
1752766488.6035302,4478,1752780889,498980656,ukd_base,-0.07426334172487259,0.7059127688407898,0.0,0.0,0.0,0.9956712056712581,0.0929454151485874
1752766488.6120274,4479,1752780889,508818663,ukd_base,-0.13039515912532806,0.6916821599006653,0.0,0.0,0.0,0.9947591138871413,0.10224629743159126
1752766488.6326466,4480,1752780889,528829063,ukd_base,0.11547531187534332,0.6992351412773132,0.0,0.0,0.0,0.9939026954891049,0.11026074505231521
1752766488.6521504,4481,1752780889,548903666,ukd_base,0.3106328248977661,0.6407694816589355,0.0,0.0,0.0,0.9929056676139826,0.11890473169740388
1752766488.6626894,4482,1752780889,558825468,ukd_base,0.33069002628326416,0.6299428343772888,0.0,0.0,0.0,0.9919965284809684,0.1262651475337007
1752766488.6721034,4483,1752780889,568821270,ukd_base,0.3004150986671448,0.634501039981842,0.0,0.0,0.0,0.9908889639465304,0.13468133177605468
1752766488.6922734,4484,1752780889,588833077,ukd_base,0.24594330787658691,0.6376304030418396,0.0,0.0,0.0,0.9897680470149733,0.14268571445020495
1752766488.7122133,4485,1752780889,608820774,ukd_base,0.20705413818359375,0.6407701969146729,0.0,0.0,0.0,0.9883531239755076,0.15217786411911202
1752766488.723183,4486,1752780889,618869482,ukd_base,0.19579766690731049,0.6557685136795044,0.0,0.0,0.0,0.9870337639246836,0.16051276856584373
1752766488.7328238,4487,1752780889,629021579,ukd_base,0.161894291639328,0.6697741150856018,0.0,0.0,0.0,0.985505999249645,0.16964057723009204
1752766488.7528687,4488,1752780889,648944480,ukd_base,0.10795827209949493,0.674761950969696,0.0,0.0,0.0,0.9841478723093576,0.1773498391004748
1752766488.7720823,4489,1752780889,668822307,ukd_base,0.07261253148317337,0.6814830899238586,0.0,0.0,0.0,0.9825320913214034,0.18609322804333722
1752766488.7828002,4490,1752780889,678860571,ukd_base,0.02393655851483345,0.695326566696167,0.0,0.0,0.0,0.9810073623960293,0.1939705001405776
1752766488.8031538,4491,1752780889,698978600,ukd_base,-0.033398885279893875,0.7022231221199036,0.0,0.0,0.0,0.9792273229401138,0.2027655049744358
1752766488.812115,4492,1752780889,708824237,ukd_base,-0.06380948424339294,0.6992062330245972,0.0,0.0,0.0,0.9777093651888045,0.20996284724232733
1752766488.8327103,4493,1752780889,728821896,ukd_base,-0.307110071182251,0.6506400108337402,0.0,0.0,0.0,0.9760377573376494,0.21760123219157496
1752766488.852445,4494,1752780889,748822759,ukd_base,-0.5181046724319458,0.512324333190918,0.0,0.0,0.0,0.9746835907171767,0.22358868036345483
1752766488.8630915,4495,1752780889,758827486,ukd_base,-0.6274993419647217,0.3652190566062927,0.0,0.0,0.0,0.9733644571473641,0.22926324075659654
1752766488.8727093,4496,1752780889,768829640,ukd_base,-0.7217628955841064,0.12917475402355194,0.0,0.0,0.0,0.9724556666953199,0.23308791541425067
1752766488.8921988,4497,1752780889,788824503,ukd_base,-0.7382538318634033,0.0034189587458968163,0.0,0.0,0.0,0.9717662851110811,0.23594551727339313
1752766488.9037352,4498,1752780889,799004896,ukd_base,-0.7267609238624573,-0.11487182229757309,0.0,0.0,0.0,0.9715357733482518,0.23689288951890133
1752766488.912212,4499,1752780889,808860625,ukd_base,-0.6992202401161194,-0.21336029469966888,0.0,0.0,0.0,0.9716379956482558,0.23647326574613062
1752766488.9321651,4500,1752780889,828828599,ukd_base,-0.6657297015190125,-0.28643155097961426,0.0,0.0,0.0,0.9720170756556099,0.23491020546991198
1752766488.9425473,4501,1752780889,838817475,ukd_base,-0.7341481447219849,-0.04138416796922684,0.0,0.0,0.0,0.972563206903731,0.23263879422213862
1752766488.9621108,4502,1752780889,858821523,ukd_base,-0.6994318962097168,0.21153271198272705,0.0,0.0,0.0,0.973019877523388,0.23072129928632715
1752766488.9828215,4503,1752780889,878820775,ukd_base,-0.5915194749832153,0.4438135325908661,0.0,0.0,0.0,0.9733294630217414,0.22941176171637026
1752766488.9921758,4504,1752780889,888830503,ukd_base,-0.3888245224952698,0.5972346067428589,0.0,0.0,0.0,0.9733058018157613,0.22951212637195892
1752766489.0128384,4505,1752780889,908977809,ukd_base,-0.21316693723201752,0.6666029095649719,0.0,0.0,0.0,0.972828527947014,0.23152679156513542
1752766489.0223255,4506,1752780889,918818131,ukd_base,-0.07185029983520508,0.6781038641929626,0.0,0.0,0.0,0.9720606603283889,0.23472978643950687
1752766489.0320973,4507,1752780889,928824321,ukd_base,0.025845341384410858,0.6778373122215271,0.0,0.0,0.0,0.9707922105552832,0.239921828780098
1752766489.0529153,4508,1752780889,948936480,ukd_base,0.1091049313545227,0.657844603061676,0.0,0.0,0.0,0.9694737015088449,0.24519531415330706
1752766489.0721674,4509,1752780889,968823973,ukd_base,0.1651991903781891,0.6408308148384094,0.0,0.0,0.0,0.9678976751944991,0.2513445649961104
1752766489.0827668,4510,1752780889,978824942,ukd_base,0.20313628017902374,0.61980801820755,0.0,0.0,0.0,0.9666803296000968,0.25598660192332007
1752766489.1032088,4511,1752780889,998921045,ukd_base,0.23641829192638397,0.6328548789024353,0.0,0.0,0.0,0.965681957872965,0.259727465314389
1752766489.1121345,4512,1752780890,8830810,ukd_base,0.2587897479534149,0.6384454369544983,0.0,0.0,0.0,0.9653165233145556,0.26108238128203703
1752766489.1322265,4513,1752780890,28820636,ukd_base,0.2567799389362335,0.6428433060646057,0.0,0.0,0.0,0.9654786455322178,0.26048221632440466
1752766489.1428382,4514,1752780890,38821605,ukd_base,0.2714722752571106,0.6425690054893494,0.0,0.0,0.0,0.9656878403913185,0.25970559277834454
1752766489.1523578,4515,1752780890,48856554,ukd_base,0.278778076171875,0.6336817145347595,0.0,0.0,0.0,0.9655631179736818,0.26016891668479913
1752766489.1721268,4516,1752780890,68827751,ukd_base,0.28941088914871216,0.6314409375190735,0.0,0.0,0.0,0.9647625802673566,0.2631219559745485
1752766489.182462,4517,1752780890,78822886,ukd_base,0.2868262231349945,0.6112754344940186,0.0,0.0,0.0,0.962909369372177,0.269825029186094
1752766489.203655,4518,1752780890,99044247,ukd_base,0.29951947927474976,0.6067554354667664,0.0,0.0,0.0,0.960559594072696,0.2780742099420542
1752766489.2227259,4519,1752780890,118849278,ukd_base,0.3126658797264099,0.597834050655365,0.0,0.0,0.0,0.9569602436160276,0.2902190416536329
1752766489.2320228,4520,1752780890,128852636,ukd_base,0.3281532824039459,0.6015804409980774,0.0,0.0,0.0,0.9540169391797984,0.29975269766594087
1752766489.2422323,4521,1752780890,138863938,ukd_base,0.3567167818546295,0.5972673296928406,0.0,0.0,0.0,0.9514211084092195,0.30789263465268596
1752766489.2626643,4522,1752780890,158848930,ukd_base,0.3615603446960449,0.5853103399276733,0.0,0.0,0.0,0.9501300614706608,0.31185391818888253
1752766489.282822,4523,1752780890,178828053,ukd_base,0.35876235365867615,0.5877402424812317,0.0,0.0,0.0,0.949700526168221,0.3131595609203147
1752766489.292186,4524,1752780890,188855799,ukd_base,0.370208740234375,0.5775415897369385,0.0,0.0,0.0,0.9498443016444599,0.31272320450127816
1752766489.3122387,4525,1752780890,208820792,ukd_base,0.37888479232788086,0.5769153833389282,0.0,0.0,0.0,0.9502425681458672,0.31151093348957604
1752766489.3236194,4526,1752780890,219226016,ukd_base,0.3965497612953186,0.5903176069259644,0.0,0.0,0.0,0.9505379940604167,0.3106083093666349
1752766489.3322377,4527,1752780890,228824932,ukd_base,0.40382036566734314,0.5994753241539001,0.0,0.0,0.0,0.9504489782290794,0.3108805876591508
1752766489.35232,4528,1752780890,248867462,ukd_base,0.4037446081638336,0.5912615656852722,0.0,0.0,0.0,0.9500292652460823,0.3121608482433199
1752766489.372858,4529,1752780890,268983009,ukd_base,0.41196396946907043,0.5980069637298584,0.0,0.0,0.0,0.9491114817059481,0.31494030433391623
1752766489.382813,4530,1752780890,278824812,ukd_base,0.4073795974254608,0.5879844427108765,0.0,0.0,0.0,0.9479855513562204,0.3183133588460319
1752766489.4032266,4531,1752780890,298968859,ukd_base,0.40048402547836304,0.5798700451850891,0.0,0.0,0.0,0.9465554577005597,0.3225411066783331
1752766489.4128616,4532,1752780890,308857439,ukd_base,0.43340781331062317,0.5652779936790466,0.0,0.0,0.0,0.9454269495781342,0.3258341342023332
1752766489.4322026,4533,1752780890,328827784,ukd_base,0.432871013879776,0.5572389364242554,0.0,0.0,0.0,0.944221444786022,0.32931119508179085
1752766489.4429677,4534,1752780890,338866845,ukd_base,0.4239259958267212,0.5657185912132263,0.0,0.0,0.0,0.9432777894532519,0.33200453599941454
1752766489.4627094,4535,1752780890,358816430,ukd_base,0.4162905812263489,0.568786084651947,0.0,0.0,0.0,0.9423090144850593,0.334744262415648
1752766489.4721336,4536,1752780890,368827769,ukd_base,0.40950456261634827,0.5682081580162048,0.0,0.0,0.0,0.9413134927857555,0.33753356618191527
1752766489.4826465,4537,1752780890,378828571,ukd_base,0.4067232310771942,0.5700564384460449,0.0,0.0,0.0,0.9399916474092587,0.34119745427073145
1752766489.5032165,4538,1752780890,399057136,ukd_base,0.4169171452522278,0.5662701725959778,0.0,0.0,0.0,0.938631736129642,0.34492095316210375
1752766489.5121915,4539,1752780890,408822514,ukd_base,0.43435752391815186,0.5479637384414673,0.0,0.0,0.0,0.9369358691756604,0.34950132625220437
1752766489.532199,4540,1752780890,428826080,ukd_base,0.4407366216182709,0.5546836853027344,0.0,0.0,0.0,0.9353948529115271,0.35360496199377994
1752766489.5523038,4541,1752780890,448901628,ukd_base,0.4302483797073364,0.5634374618530273,0.0,0.0,0.0,0.933499394680168,0.3585789733542111
1752766489.5627534,4542,1752780890,458856485,ukd_base,0.4385247528553009,0.5497759580612183,0.0,0.0,0.0,0.9318661251722681,0.36280232187297656
1752766489.5723855,4543,1752780890,468823473,ukd_base,0.4571532607078552,0.5291449427604675,0.0,0.0,0.0,0.9299698448694311,0.36763580842122306
1752766489.5921795,4544,1752780890,488830669,ukd_base,0.4686254858970642,0.515257716178894,0.0,0.0,0.0,0.9283423143327512,0.3717264416466919
1752766489.6121793,4545,1752780890,508822310,ukd_base,0.4737127125263214,0.5038148760795593,0.0,0.0,0.0,0.9265024138322234,0.37628882146971027
1752766489.62283,4546,1752780890,518834149,ukd_base,0.4749879240989685,0.5142952799797058,0.0,0.0,0.0,0.9250785394788683,0.37977584941073317
1752766489.6321743,4547,1752780890,528821173,ukd_base,0.4767179787158966,0.5044348239898682,0.0,0.0,0.0,0.9241471389723204,0.3820367332198237
1752766489.6521726,4548,1752780890,548826906,ukd_base,0.47103023529052734,0.5039932727813721,0.0,0.0,0.0,0.9242086091468728,0.3818880029259927
1752766489.6723037,4549,1752780890,568823454,ukd_base,0.47704017162323,0.5066481828689575,0.0,0.0,0.0,0.9250514639884324,0.3798417946630648
1752766489.682814,4550,1752780890,578819534,ukd_base,0.4956810474395752,0.5154598951339722,0.0,0.0,0.0,0.925241843428657,0.37937782113447355
1752766489.692173,4551,1752780890,588824465,ukd_base,0.496031254529953,0.5088064670562744,0.0,0.0,0.0,0.9241151650224401,0.38211406906256196
1752766489.712304,4552,1752780890,608827143,ukd_base,0.49185609817504883,0.5000528693199158,0.0,0.0,0.0,0.9227109606473484,0.3854925201625157
1752766489.7321754,4553,1752780890,628819895,ukd_base,0.4902051091194153,0.49687454104423523,0.0,0.0,0.0,0.9206474368110678,0.3903950525982765
1752766489.7426958,4554,1752780890,638824974,ukd_base,0.48758000135421753,0.4918816387653351,0.0,0.0,0.0,0.9188792145887713,0.3945389575146195
1752766489.7628207,4555,1752780890,658822060,ukd_base,0.4899027645587921,0.4927078187465668,0.0,0.0,0.0,0.9172414595496178,0.3983316518722645
1752766489.7721844,4556,1752780890,668829195,ukd_base,0.48976805806159973,0.4908038079738617,0.0,0.0,0.0,0.9160756048410595,0.4010055937453827
1752766489.792174,4557,1752780890,688859206,ukd_base,0.4910740554332733,0.4837990701198578,0.0,0.0,0.0,0.9148159404057259,0.403871013046972
1752766489.8038042,4558,1752780890,699212541,ukd_base,0.4921515882015228,0.4872511625289917,0.0,0.0,0.0,0.9132516938172907,0.40739580721928104
1752766489.8123884,4559,1752780890,708822199,ukd_base,0.4950110614299774,0.4918017089366913,0.0,0.0,0.0,0.9107554869627956,0.412946053337674
1752766489.8326657,4560,1752780890,728878098,ukd_base,0.505464494228363,0.4863514304161072,0.0,0.0,0.0,0.9079196003482404,0.4191443657064847
1752766489.8425143,4561,1752780890,738823474,ukd_base,0.5040094256401062,0.4915400445461273,0.0,0.0,0.0,0.9039233218034367,0.4276945502339731
1752766489.8627777,4562,1752780890,758819097,ukd_base,0.5009912848472595,0.49289992451667786,0.0,0.0,0.0,0.9000077675881383,0.43587385592739525
1752766489.8832216,4563,1752780890,778823571,ukd_base,0.5053830146789551,0.5000625848770142,0.0,0.0,0.0,0.8953486696697204,0.4453658717511503
1752766489.8921416,4564,1752780890,788828669,ukd_base,0.5264297723770142,0.4863104224205017,0.0,0.0,0.0,0.8913732068293415,0.4532701249219675
1752766489.9121673,4565,1752780890,808822180,ukd_base,0.5238784551620483,0.48611757159233093,0.0,0.0,0.0,0.8871767451488136,0.4614297594078183
1752766489.922691,4566,1752780890,818828056,ukd_base,0.516984224319458,0.47382429242134094,0.0,0.0,0.0,0.8837754866657037,0.4679111979519176
1752766489.9428127,4567,1752780890,838826678,ukd_base,0.5136650204658508,0.4768599271774292,0.0,0.0,0.0,0.8802060603631308,0.47459171010460843
1752766489.9521747,4568,1752780890,848858498,ukd_base,0.5148816704750061,0.47515231370925903,0.0,0.0,0.0,0.8772688594758709,0.4799993210348373
1752766489.9721794,4569,1752780890,868824009,ukd_base,0.5123773217201233,0.4863349199295044,0.0,0.0,0.0,0.8741177285794779,0.4857141099279022
1752766489.9826317,4570,1752780890,878821274,ukd_base,0.5219700336456299,0.4596465826034546,0.0,0.0,0.0,0.8714047522788786,0.49056473345093426
1752766490.003544,4571,1752780890,898928747,ukd_base,0.5356392860412598,0.4688563644886017,0.0,0.0,0.0,0.8683034401277935,0.49603340196224627
1752766490.0121734,4572,1752780890,908831217,ukd_base,0.5241918563842773,0.48079848289489746,0.0,0.0,0.0,0.8656167781785608,0.500707093354756
1752766490.0225463,4573,1752780890,918823296,ukd_base,0.5314974188804626,0.4811112880706787,0.0,0.0,0.0,0.8625841660009684,0.5059135860642742
1752766490.0431743,4574,1752780890,938821863,ukd_base,0.5330355763435364,0.47630172967910767,0.0,0.0,0.0,0.8600573919850993,0.5101972976131776
1752766490.052543,4575,1752780890,948922201,ukd_base,0.5370806455612183,0.4740801453590393,0.0,0.0,0.0,0.8572046325481201,0.5149759391836112
1752766490.0722952,4576,1752780890,968834843,ukd_base,0.5276064872741699,0.48176562786102295,0.0,0.0,0.0,0.8547562536496753,0.5190296203944164
1752766490.092647,4577,1752780890,988820798,ukd_base,0.5205217599868774,0.47863146662712097,0.0,0.0,0.0,0.8522747374021367,0.5230944197619766
1752766490.1031795,4578,1752780890,999220023,ukd_base,0.531574010848999,0.4766664206981659,0.0,0.0,0.0,0.8504047063393646,0.5261291052924738
1752766490.1227293,4579,1752780891,18828426,ukd_base,0.5381869077682495,0.4764643907546997,0.0,0.0,0.0,0.8487816418337404,0.5287435337533879
1752766490.1326902,4580,1752780891,28829302,ukd_base,0.5434619188308716,0.4709918200969696,0.0,0.0,0.0,0.8475652994300225,0.5306911184503622
1752766490.1526737,4581,1752780891,48923257,ukd_base,0.5518243312835693,0.4615611433982849,0.0,0.0,0.0,0.8461121424630136,0.5330049177790473
1752766490.1631737,4582,1752780891,59225297,ukd_base,0.5709004998207092,0.45748305320739746,0.0,0.0,0.0,0.8446482019438449,0.5353217863612779
1752766490.1821787,4583,1752780891,78828181,ukd_base,0.5848700404167175,0.46325749158859253,0.0,0.0,0.0,0.8424640989072986,0.5387524868177533
1752766490.1922045,4584,1752780891,88828502,ukd_base,0.585685133934021,0.4445282518863678,0.0,0.0,0.0,0.840125167243009,0.5423925731100179
1752766490.2121823,4585,1752780891,108818420,ukd_base,0.5823680758476257,0.45606428384780884,0.0,0.0,0.0,0.8372764830302545,0.5467797463005447
1752766490.2228131,4586,1752780891,118830870,ukd_base,0.5812171101570129,0.4429837167263031,0.0,0.0,0.0,0.8345769886902727,0.5508913231742504
1752766490.2322018,4587,1752780891,128822950,ukd_base,0.589436948299408,0.4416674077510834,0.0,0.0,0.0,0.8314308565790909,0.5556282306796148
1752766490.252177,4588,1752780891,148826146,ukd_base,0.5964130759239197,0.43904176354408264,0.0,0.0,0.0,0.8286142421013228,0.5598200048112343
1752766490.26269,4589,1752780891,158868651,ukd_base,0.5950314998626709,0.4304589033126831,0.0,0.0,0.0,0.8252588507319617,0.5647546629188305
1752766490.2828152,4590,1752780891,178820070,ukd_base,0.5947928428649902,0.41294431686401367,0.0,0.0,0.0,0.8223076421608965,0.5690431808253105
1752766490.3031535,4591,1752780891,199048765,ukd_base,0.591670572757721,0.4152751863002777,0.0,0.0,0.0,0.8193844467068588,0.5732443881058887
1752766490.312669,4592,1752780891,208831883,ukd_base,0.602548360824585,0.41916000843048096,0.0,0.0,0.0,0.8173019293779409,0.5762096460795284
1752766490.3321767,4593,1752780891,228820117,ukd_base,0.6150001883506775,0.40939319133758545,0.0,0.0,0.0,0.81542872859968,0.5788574855474441
1752766490.342802,4594,1752780891,238857048,ukd_base,0.6248131394386292,0.4223359525203705,0.0,0.0,0.0,0.8138528158931666,0.581071074880486
1752766490.3626409,4595,1752780891,258821059,ukd_base,0.611435055732727,0.41844838857650757,0.0,0.0,0.0,0.8115674707117377,0.5842587102325071
1752766490.383554,4596,1752780891,279237548,ukd_base,0.604698657989502,0.4171738028526306,0.0,0.0,0.0,0.8092511527308797,0.5874628258909175
1752766490.3917916,4597,1752780891,288822335,ukd_base,0.6099328398704529,0.42298105359077454,0.0,0.0,0.0,0.8064628555674268,0.5912847559256298
1752766490.4031546,4598,1752780891,299217170,ukd_base,0.6273614764213562,0.40655025839805603,0.0,0.0,0.0,0.8036240163301683,0.5951373290068178
1752766490.4228199,4599,1752780891,318822111,ukd_base,0.6387546062469482,0.38980406522750854,0.0,0.0,0.0,0.7995620088059888,0.6005835446248355
1752766490.4321744,4600,1752780891,328825709,ukd_base,0.6370934844017029,0.38194212317466736,0.0,0.0,0.0,0.7954326058252215,0.606042052658145
1752766490.4425533,4601,1752780891,338827937,ukd_base,0.6461677551269531,0.3942932188510895,0.0,0.0,0.0,0.7898912221917792,0.6132469788791277
1752766490.4628139,4602,1752780891,358817855,ukd_base,0.6523972749710083,0.40876504778862,0.0,0.0,0.0,0.7849599384066162,0.6195465237548197
1752766490.472565,4603,1752780891,368940841,ukd_base,0.6618651151657104,0.4049410820007324,0.0,0.0,0.0,0.7804320887650157,0.6252405575663456
1752766490.4921753,4604,1752780891,388829835,ukd_base,0.6765589118003845,0.3823799192905426,0.0,0.0,0.0,0.777859300200244,0.6284384688193321
1752766490.5128062,4605,1752780891,408817865,ukd_base,0.6859939694404602,0.36700543761253357,0.0,0.0,0.0,0.7762096840741679,0.6304748419639601
1752766490.522672,4606,1752780891,418830351,ukd_base,0.6816233992576599,0.36372801661491394,0.0,0.0,0.0,0.7754199124094274,0.6314459275654217
1752766490.5428214,4607,1752780891,438824918,ukd_base,0.6932474374771118,0.359285831451416,0.0,0.0,0.0,0.7745411645983235,0.6325235049724816
1752766490.553155,4608,1752780891,448854386,ukd_base,0.6843500137329102,0.36280688643455505,0.0,0.0,0.0,0.7735089287099106,0.6337854031184738
1752766490.5626416,4609,1752780891,458823559,ukd_base,0.6873083710670471,0.373424768447876,0.0,0.0,0.0,0.7720199162594292,0.635598339282588
1752766490.5830321,4610,1752780891,478860440,ukd_base,0.7023277878761292,0.3496285676956177,0.0,0.0,0.0,0.770496107865995,0.6374447017297681
1752766490.6038415,4611,1752780891,499051042,ukd_base,0.7128720879554749,0.34548571705818176,0.0,0.0,0.0,0.7682400475125941,0.6401618774949405
1752766490.6123013,4612,1752780891,508832550,ukd_base,0.7132289409637451,0.35686221718788147,0.0,0.0,0.0,0.7658203442585954,0.6430545858009618
1752766490.6321812,4613,1752780891,528824820,ukd_base,0.7278527617454529,0.3560391366481781,0.0,0.0,0.0,0.7626191884363933,0.646847720432419
1752766490.6422844,4614,1752780891,538825825,ukd_base,0.7463042140007019,0.3590601682662964,0.0,0.0,0.0,0.7595267402196424,0.6504760801838326
1752766490.6626725,4615,1752780891,558821614,ukd_base,0.7447888255119324,0.3495369553565979,0.0,0.0,0.0,0.7557866521185533,0.6548179414764296
1752766490.6721365,4616,1752780891,568831324,ukd_base,0.7458348274230957,0.33082088828086853,0.0,0.0,0.0,0.7525920767186646,0.6584870280121604
1752766490.692175,4617,1752780891,588822446,ukd_base,0.7482894659042358,0.3052052855491638,0.0,0.0,0.0,0.7489430253775857,0.6626343974910064
1752766490.7037091,4618,1752780891,599210522,ukd_base,0.7428134679794312,0.3272305428981781,0.0,0.0,0.0,0.7456170927779822,0.6663746325883887
1752766490.7121747,4619,1752780891,608820327,ukd_base,0.73064124584198,0.33116236329078674,0.0,0.0,0.0,0.7414205011261134,0.6710407144949574
1752766490.7321773,4620,1752780891,628833320,ukd_base,0.7156752347946167,0.33341988921165466,0.0,0.0,0.0,0.737257372278715,0.6756119944322215
1752766490.75233,4621,1752780891,648822349,ukd_base,0.7222511768341064,0.3409254252910614,0.0,0.0,0.0,0.7317633669552459,0.6815587830718068
1752766490.7626762,4622,1752780891,658825948,ukd_base,0.7344080805778503,0.3224308490753174,0.0,0.0,0.0,0.7263626651577717,0.6873116314052156
1752766490.783094,4623,1752780891,678817792,ukd_base,0.7449110746383667,0.2956830561161041,0.0,0.0,0.0,0.7194488812048262,0.6945453961643715
1752766490.792794,4624,1752780891,688826798,ukd_base,0.7544484734535217,0.2779330313205719,0.0,0.0,0.0,0.7132322146201467,0.7009278194136975
1752766490.8029082,4625,1752780891,699015913,ukd_base,0.7583503127098083,0.2980274260044098,0.0,0.0,0.0,0.7062932323491874,0.7079193950851586
1752766490.832407,4626,1752780891,728820079,ukd_base,0.7427075505256653,0.29287460446357727,0.0,0.0,0.0,0.7008069365313219,0.7133509919454685
1752766490.8422728,4627,1752780891,738825492,ukd_base,0.7254843711853027,0.2805955708026886,0.0,0.0,0.0,0.6958770229676079,0.7181609630895704
1752766490.852678,4628,1752780891,748951219,ukd_base,0.7330740094184875,0.27082207798957825,0.0,0.0,0.0,0.6927734815792197,0.7211552559751655
1752766490.8722622,4629,1752780891,768819972,ukd_base,0.7336694002151489,0.24986319243907928,0.0,0.0,0.0,0.6905749858955511,0.7232608027920215
1752766490.8826547,4630,1752780891,778826255,ukd_base,0.7487307190895081,0.20593397319316864,0.0,0.0,0.0,0.6893921687591162,0.7243883196556956
1752766490.8923044,4631,1752780891,788822186,ukd_base,0.7701030969619751,0.16012685000896454,0.0,0.0,0.0,0.6882275756559144,0.7254948684220879
1752766490.9124665,4632,1752780891,808829086,ukd_base,0.7681805491447449,0.1269642859697342,0.0,0.0,0.0,0.6872037654635837,0.7264647167844228
1752766490.9330356,4633,1752780891,828825283,ukd_base,0.7632047533988953,0.10223284363746643,0.0,0.0,0.0,0.6863561640902781,0.7272655746116953
1752766490.9427173,4634,1752780891,838827233,ukd_base,0.7626508474349976,0.0817052349448204,0.0,0.0,0.0,0.6853954858024546,0.728171015656087
1752766490.9631965,4635,1752780891,858822133,ukd_base,0.7511879801750183,0.050901148468256,0.0,0.0,0.0,0.6829433753255693,0.7304713177797734
1752766490.9732807,4636,1752780891,868950970,ukd_base,0.7640332579612732,-0.0025122633669525385,0.0,0.0,0.0,0.6798463154353069,0.7333546123050138
1752766490.9923046,4637,1752780891,888820334,ukd_base,0.7697381377220154,-0.056734636425971985,0.0,0.0,0.0,0.6742031831326125,0.7385459145197765
1752766491.0031343,4638,1752780891,898976413,ukd_base,0.7744280099868774,-0.09537053108215332,0.0,0.0,0.0,0.6667374127192194,0.745292709262932
1752766491.0121381,4639,1752780891,908826920,ukd_base,0.7641340494155884,-0.12440585345029831,0.0,0.0,0.0,0.6556614126900754,0.7550550389933535
1752766491.032305,4640,1752780891,928830319,ukd_base,0.745540976524353,-0.15229183435440063,0.0,0.0,0.0,0.6446697999029325,0.7644611494988565
1752766491.0526457,4641,1752780891,948823571,ukd_base,0.7491586804389954,-0.17643925547599792,0.0,0.0,0.0,0.6331179736648692,0.7740553154797725
1752766491.0630984,4642,1752780891,959197592,ukd_base,0.7393912672996521,-0.20302633941173553,0.0,0.0,0.0,0.6245952751842249,0.7809486168868874
1752766491.0721345,4643,1752780891,968819453,ukd_base,0.7380465865135193,-0.2322653830051422,0.0,0.0,0.0,0.6173706369171699,0.7866724201804002
1752766491.0926685,4644,1752780891,988827408,ukd_base,0.7235012054443359,-0.26238977909088135,0.0,0.0,0.0,0.6133970971490236,0.789774652169308
1752766491.113003,4645,1752780892,8819123,ukd_base,0.7296419143676758,-0.25442415475845337,0.0,0.0,0.0,0.6103776239599211,0.7921105706711918
1752766491.122752,4646,1752780892,18844925,ukd_base,0.7239986658096313,-0.2762446403503418,0.0,0.0,0.0,0.6078982041130269,0.794014970536549
1752766491.142292,4647,1752780892,38829381,ukd_base,0.7238591313362122,-0.2638198733329773,0.0,0.0,0.0,0.6045052062827023,0.796601189791421
1752766491.1526732,4648,1752780892,48935181,ukd_base,0.7126005291938782,-0.2845323979854584,0.0,0.0,0.0,0.6000052405007169,0.7999960695976429
1752766491.1626675,4649,1752780892,58823151,ukd_base,0.7048221230506897,-0.2976999878883362,0.0,0.0,0.0,0.5927109351015954,0.8054152639545592
1752766491.1827767,4650,1752780892,78826736,ukd_base,0.6850938200950623,-0.2864808738231659,0.0,0.0,0.0,0.5851875148113503,0.8108980037642932
1752766491.2031353,4651,1752780892,99063060,ukd_base,0.6941623091697693,-0.2781228721141815,0.0,0.0,0.0,0.5755395597699905,0.8177739388973981
1752766491.2121305,4652,1752780892,108832901,ukd_base,0.683734655380249,-0.2894129455089569,0.0,0.0,0.0,0.5668662121912817,0.8238098673091436
1752766491.2319202,4653,1752780892,128823171,ukd_base,0.6821132302284241,-0.29889246821403503,0.0,0.0,0.0,0.5569996478213515,0.8305127285760829
1752766491.2426505,4654,1752780892,138819566,ukd_base,0.6920438408851624,-0.31000885367393494,0.0,0.0,0.0,0.5487126617297928,0.8360110135981499
1752766491.2631764,4655,1752780892,158823188,ukd_base,0.6799246668815613,-0.3089262545108795,0.0,0.0,0.0,0.5394508760575896,0.8420170736515378
1752766491.2721334,4656,1752780892,168828879,ukd_base,0.6821253299713135,-0.3136265277862549,0.0,0.0,0.0,0.5321565686236358,0.8466459628857375
1752766491.292589,4657,1752780892,188821816,ukd_base,0.6615027785301208,-0.3076392412185669,0.0,0.0,0.0,0.5247484676693329,0.851257332231968
1752766491.3031414,4658,1752780892,199020745,ukd_base,0.6547509431838989,-0.34197336435317993,0.0,0.0,0.0,0.5192476449755419,0.854623825543937
1752766491.3125248,4659,1752780892,208827216,ukd_base,0.6570940613746643,-0.3512308597564697,0.0,0.0,0.0,0.5135818271864727,0.8580406207073206
1752766491.3320975,4660,1752780892,228831893,ukd_base,0.6553247570991516,-0.35761621594429016,0.0,0.0,0.0,0.5091788352842107,0.8606607425104358
1752766491.3427846,4661,1752780892,238853750,ukd_base,0.6443605422973633,-0.38494083285331726,0.0,0.0,0.0,0.5042424919669486,0.8635621050595966
1752766491.3627126,4662,1752780892,258820910,ukd_base,0.6313468217849731,-0.388703852891922,0.0,0.0,0.0,0.4998447858459421,0.8661149981743904
1752766491.3721495,4663,1752780892,268825156,ukd_base,0.6140500903129578,-0.4039169251918793,0.0,0.0,0.0,0.49479946490583937,0.8690071861203997
1752766491.3926752,4664,1752780892,288827593,ukd_base,0.6297423243522644,-0.39334169030189514,0.0,0.0,0.0,0.49053043897291687,0.8714240577589292
1752766491.4124274,4665,1752780892,308820271,ukd_base,0.6278440952301025,-0.3892996907234192,0.0,0.0,0.0,0.486042509451547,0.873935168651567
1752766491.4230595,4666,1752780892,318828832,ukd_base,0.6133015155792236,-0.4071055054664612,0.0,0.0,0.0,0.4827964272731212,0.8757326131944098
1752766491.4321356,4667,1752780892,328821412,ukd_base,0.5867217779159546,-0.45141851902008057,0.0,0.0,0.0,0.47981293720080304,0.8773708140203538
