Time,header.seq,header.stamp.secs,header.stamp.nsecs,header.frame_id,pose.position.x,pose.position.y,pose.position.z,pose.orientation.x,pose.orientation.y,pose.orientation.z,pose.orientation.w
1753093879.0309203,10210,1753108279,21258595,ukd_base,0.6924483180046082,0.8479195833206177,0.0,0.0,0.0,-0.9996882803567615,0.024966820329008033
1753093879.0322208,10212,1753108279,41224310,ukd_base,0.6928117871284485,0.8328253030776978,0.0,0.0,0.0,-0.9997020188360914,0.024410520990817926
1753093879.0486572,10213,1753108279,60937027,ukd_base,0.7070068120956421,0.815527081489563,0.0,0.0,0.0,-0.999709588427965,0.02409852288396255
1753093879.064663,10214,1753108279,80934131,ukd_base,0.7390910387039185,0.8032292127609253,0.0,0.0,0.0,-0.9997205151125416,0.023640889643044165
1753093879.0787473,10215,1753108279,90958229,ukd_base,0.7205893993377686,0.8192578554153442,0.0,0.0,0.0,-0.9997301063222314,0.02323175656165648
1753093879.0988178,10216,1753108279,110990240,ukd_base,0.7201061844825745,0.8272270560264587,0.0,0.0,0.0,-0.9997397857753036,0.022811416833460982
1753093879.1108596,10217,1753108279,121296354,ukd_base,0.6815567016601562,0.8795653581619263,0.0,0.0,0.0,-0.9997493125176374,0.022390000458047364
1753093879.1288133,10218,1753108279,141014997,ukd_base,0.6580281853675842,0.8738598227500916,0.0,0.0,0.0,-0.9997567408109953,0.022055820161045972
1753093879.1546767,10219,1753108279,151197538,ukd_base,0.671935498714447,0.8541048765182495,0.0,0.0,0.0,-0.9997659155211899,0.021635946063830017
1753093879.1561573,10220,1753108279,165199434,ukd_base,0.7163549065589905,0.8264663815498352,0.0,0.0,0.0,-0.9997713515101837,0.021383280840430112
1753093879.1704485,10221,1753108279,181057945,ukd_base,0.7427521347999573,0.7972123622894287,0.0,0.0,0.0,-0.9997755204816373,0.0211874643520935
1753093879.2007277,10222,1753108279,200987715,ukd_base,0.7152022123336792,0.8340692520141602,0.0,0.0,0.0,-0.9997785060200965,0.021046113660811865
1753093879.2028356,10223,1753108279,211184145,ukd_base,0.7367247939109802,0.8237059712409973,0.0,0.0,0.0,-0.9997828002987086,0.020841118656937708
1753093879.2286596,10224,1753108279,231073787,ukd_base,0.7276610732078552,0.8055915236473083,0.0,0.0,0.0,-0.9997859416322085,0.02068987468783405
1753093879.236598,10225,1753108279,241218106,ukd_base,0.7047692537307739,0.8234935402870178,0.0,0.0,0.0,-0.9997878439341435,0.020597745544516318
1753093879.2427435,10226,1753108279,251178464,ukd_base,0.7440370321273804,0.7865841388702393,0.0,0.0,0.0,-0.9997901335625573,0.020486308378129772
1753093879.270739,10227,1753108279,271165790,ukd_base,0.7488700151443481,0.7766876220703125,0.0,0.0,0.0,-0.9997893391107674,0.020525043250989496
1753093879.2725964,10228,1753108279,281169277,ukd_base,0.7308576703071594,0.7981768846511841,0.0,0.0,0.0,-0.9997888519210557,0.020548760896398247
1753093879.2885516,10229,1753108279,300969012,ukd_base,0.7373647689819336,0.803510308265686,0.0,0.0,0.0,-0.9997868729259227,0.020644823201101635
1753093879.3205993,10230,1753108279,321194410,ukd_base,0.7114271521568298,0.8223763704299927,0.0,0.0,0.0,-0.9997800963022271,0.02097043246834936
1753093879.3287532,10231,1753108279,331169064,ukd_base,0.6897123456001282,0.8416813611984253,0.0,0.0,0.0,-0.9997661862594756,0.02162343201676227
1753093879.3646631,10232,1753108279,351056057,ukd_base,0.7168118953704834,0.8154619336128235,0.0,0.0,0.0,-0.999746786560659,0.022502505674617375
1753093879.3660715,10234,1753108279,373280031,ukd_base,0.7390820980072021,0.7921640872955322,0.0,0.0,0.0,-0.9996953413148222,0.024682474621503844
1753093879.370864,10235,1753108279,390211291,ukd_base,0.7479291558265686,0.7824039459228516,0.0,0.0,0.0,-0.9996613932755973,0.02602112207979566
1753093879.3910084,10236,1753108279,410214468,ukd_base,0.7153143286705017,0.8153717517852783,0.0,0.0,0.0,-0.9996289006497191,0.027240796350952026
1753093879.401142,10237,1753108279,420212696,ukd_base,0.7052059173583984,0.826233983039856,0.0,0.0,0.0,-0.9995925108867869,0.0285449151172114
1753093879.4207416,10238,1753108279,440209911,ukd_base,0.7198961973190308,0.810953676700592,0.0,0.0,0.0,-0.9995816180988192,0.028923844124640694
1753093879.4313152,10239,1753108279,450284082,ukd_base,0.7081364989280701,0.8195036053657532,0.0,0.0,0.0,-0.9995626649433415,0.02957158858372812
1753093879.450952,10240,1753108279,470214113,ukd_base,0.7365524768829346,0.7928044199943542,0.0,0.0,0.0,-0.999569218251573,0.029349240602428734
1753093879.4612036,10241,1753108279,480211211,ukd_base,0.703591525554657,0.8173933625221252,0.0,0.0,0.0,-0.9995732010242449,0.029213281125963126
1753093879.4808257,10242,1753108279,500214129,ukd_base,0.6768589615821838,0.8555942177772522,0.0,0.0,0.0,-0.9995759512335477,0.029119026693010266
1753093879.4914339,10243,1753108279,510736778,ukd_base,0.660115659236908,0.8794974684715271,0.0,0.0,0.0,-0.9995620936732416,0.029590892037346765
1753093879.5108685,10244,1753108279,530217850,ukd_base,0.6859293580055237,0.8481003046035767,0.0,0.0,0.0,-0.9995723055540554,0.029243904823913418
1753093879.520704,10245,1753108279,540216763,ukd_base,0.7088457942008972,0.8247875571250916,0.0,0.0,0.0,-0.9995785783666838,0.029028704250093157
1753093879.5406985,10246,1753108279,560212385,ukd_base,0.7377331852912903,0.800058901309967,0.0,0.0,0.0,-0.9995974300413134,0.028372131657693242
1753093879.551201,10247,1753108279,570214353,ukd_base,0.7390338182449341,0.7790126800537109,0.0,0.0,0.0,-0.9996044443917053,0.02812391779874063
1753093879.5709543,10248,1753108279,590216013,ukd_base,0.7236194014549255,0.7999200224876404,0.0,0.0,0.0,-0.9996058043896354,0.028075537938746953
1753093879.5804634,10249,1753108279,600213259,ukd_base,0.7300770878791809,0.794578492641449,0.0,0.0,0.0,-0.9996035755834993,0.02815478077846353
1753093879.6008708,10250,1753108279,620212548,ukd_base,0.6840172410011292,0.8387983441352844,0.0,0.0,0.0,-0.9996309987157439,0.027163696481967165
1753093879.6109533,10251,1753108279,630215535,ukd_base,0.6338059306144714,0.8690735101699829,0.0,0.0,0.0,-0.9996568242919275,0.026196061661599903
1753093879.6308115,10252,1753108279,650214898,ukd_base,0.671686053276062,0.8418152928352356,0.0,0.0,0.0,-0.9996850786335073,0.025094691819553403
1753093879.6406968,10253,1753108279,660211663,ukd_base,0.6934770941734314,0.8251534104347229,0.0,0.0,0.0,-0.9997116588634385,0.024012478683218187
1753093879.660928,10254,1753108279,680218248,ukd_base,0.7382634282112122,0.7903279662132263,0.0,0.0,0.0,-0.9997458441252773,0.02254433752046553
1753093879.670963,10255,1753108279,690212420,ukd_base,0.7369475364685059,0.7703097462654114,0.0,0.0,0.0,-0.9997849761738788,0.02073647552011777
1753093879.6908474,10256,1753108279,710222449,ukd_base,0.7166470289230347,0.7786415219306946,0.0,0.0,0.0,-0.9998175294566671,0.019102559806648038
1753093879.7010708,10257,1753108279,720219140,ukd_base,0.7129642367362976,0.7948622703552246,0.0,0.0,0.0,-0.9998467766879666,0.017504946349057058
1753093879.7207022,10258,1753108279,740213077,ukd_base,0.6802518963813782,0.8082787990570068,0.0,0.0,0.0,-0.9998763164201732,0.015727423883961613
1753093879.7310815,10259,1753108279,750209935,ukd_base,0.6803072690963745,0.7938912510871887,0.0,0.0,0.0,-0.9998861957042262,0.015086273235290886
1753093879.740705,10260,1753108279,760212403,ukd_base,0.6569200158119202,0.8150820136070251,0.0,0.0,0.0,-0.9999005676333602,0.014101590211179344
1753093879.7608292,10261,1753108279,780210970,ukd_base,0.6879230737686157,0.7783715128898621,0.0,0.0,0.0,-0.9999058774817631,0.013719919002141626
1753093879.7807732,10262,1753108279,800211648,ukd_base,0.643185019493103,0.8200042247772217,0.0,0.0,0.0,-0.9999104044888845,0.013385925252869921
1753093879.7908492,10263,1753108279,810216449,ukd_base,0.6442379951477051,0.8259759545326233,0.0,0.0,0.0,-0.9999074280784793,0.013606442352086178
1753093879.8113923,10264,1753108279,830969435,ukd_base,0.6484378576278687,0.7928630709648132,0.0,0.0,0.0,-0.9998977609375237,0.01429921928381955
1753093879.8236606,10265,1753108279,841313716,ukd_base,0.6284165382385254,0.7995883822441101,0.0,0.0,0.0,-0.9998914638164196,0.014732976177871672
1753093879.8403668,10266,1753108279,860208422,ukd_base,0.6475677490234375,0.7892177700996399,0.0,0.0,0.0,-0.9998910594898299,0.014760391333067223
1753093879.8556795,10267,1753108279,873274567,ukd_base,0.6528620719909668,0.7883968949317932,0.0,0.0,0.0,-0.9998823986520009,0.015335868606675889
1753093879.8719382,10268,1753108279,890981783,ukd_base,0.6530567407608032,0.7907195091247559,0.0,0.0,0.0,-0.9998619088717388,0.016618158362550033
1753093879.880673,10269,1753108279,900625736,ukd_base,0.6461244821548462,0.7942550182342529,0.0,0.0,0.0,-0.9998500518925472,0.017316862604721574
1753093879.9008098,10270,1753108279,920211233,ukd_base,0.6476263403892517,0.7798664569854736,0.0,0.0,0.0,-0.9998477912513672,0.017446900290947063
1753093879.911551,10271,1753108279,930986583,ukd_base,0.6170747876167297,0.7914721369743347,0.0,0.0,0.0,-0.9998135041787843,0.019312091076317404
1753093879.9315598,10272,1753108279,950941021,ukd_base,0.5895456671714783,0.7809833288192749,0.0,0.0,0.0,-0.9998109840438169,0.0194421239923701
1753093879.9526827,10273,1753108279,971341417,ukd_base,0.5844069123268127,0.7590533494949341,0.0,0.0,0.0,-0.9998019722752892,0.019900156643647485
1753093879.9606833,10274,1753108279,980210414,ukd_base,0.6193039417266846,0.7316604852676392,0.0,0.0,0.0,-0.999805371280836,0.019728648154132097
1753093879.9715307,10275,1753108279,990960172,ukd_base,0.6174145340919495,0.7298897504806519,0.0,0.0,0.0,-0.9998049948048717,0.01974771792462223
1753093879.9919574,10276,1753108280,11173015,ukd_base,0.6046046018600464,0.7382096648216248,0.0,0.0,0.0,-0.9998184482870025,0.019054408019416796
1753093880.0029285,10277,1753108280,20214510,ukd_base,0.5888516306877136,0.749233067035675,0.0,0.0,0.0,-0.9998244914815785,0.018734626593634677
1753093880.0324187,10278,1753108280,50994057,ukd_base,0.625415027141571,0.7277190685272217,0.0,0.0,0.0,-0.9998266200633068,0.018620682393076852
1753093880.0518358,10279,1753108280,71101975,ukd_base,0.6079359650611877,0.7112725377082825,0.0,0.0,0.0,-0.9998320879237149,0.01832473623561049
1753093880.0605857,10280,1753108280,80214969,ukd_base,0.6007795929908752,0.7072494029998779,0.0,0.0,0.0,-0.9998397767656335,0.017900301596568337
1753093880.0807,10281,1753108280,100213203,ukd_base,0.5786182284355164,0.7147258520126343,0.0,0.0,0.0,-0.9998337375030808,0.018234509881555363
1753093880.091489,10282,1753108280,110955943,ukd_base,0.5651080012321472,0.7141720056533813,0.0,0.0,0.0,-0.9998388471825522,0.017952149304889694
1753093880.1002421,10283,1753108280,120209140,ukd_base,0.531654417514801,0.7391519546508789,0.0,0.0,0.0,-0.9998465616771183,0.017517223023199788
1753093880.1205854,10284,1753108280,140213188,ukd_base,0.5204308032989502,0.7469157576560974,0.0,0.0,0.0,-0.9998450418879881,0.017603755622237344
1753093880.1434398,10285,1753108280,160931859,ukd_base,0.545131504535675,0.7214475870132446,0.0,0.0,0.0,-0.999840763230169,0.01784511651161425
1753093880.1521482,10286,1753108280,171123826,ukd_base,0.5210563540458679,0.7227224707603455,0.0,0.0,0.0,-0.999833946115013,0.018223067691287953
1753093880.1750062,10287,1753108280,193000210,ukd_base,0.5086790919303894,0.7127827405929565,0.0,0.0,0.0,-0.9998317382252405,0.018343806515935517
1753093880.1807075,10288,1753108280,200209332,ukd_base,0.5100626349449158,0.709696352481842,0.0,0.0,0.0,-0.9998219632330992,0.01886907090217293
1753093880.2006512,10289,1753108280,220212825,ukd_base,0.4826687276363373,0.730771005153656,0.0,0.0,0.0,-0.9998194939214098,0.01899946248545037
1753093880.2120404,10290,1753108280,231026231,ukd_base,0.48992660641670227,0.7238311767578125,0.0,0.0,0.0,-0.9998011767630565,0.019940083831508502
1753093880.231683,10291,1753108280,251012390,ukd_base,0.46415847539901733,0.7391855716705322,0.0,0.0,0.0,-0.9997985677754329,0.020070472694811308
1753093880.2405846,10292,1753108280,260205847,ukd_base,0.45542454719543457,0.7400816082954407,0.0,0.0,0.0,-0.9997813768662019,0.020909291511705834
1753093880.2605805,10293,1753108280,280211117,ukd_base,0.4659558832645416,0.7231744527816772,0.0,0.0,0.0,-0.9997768797930706,0.021123224924996725
1753093880.2807271,10294,1753108280,300210258,ukd_base,0.4472682774066925,0.7021937966346741,0.0,0.0,0.0,-0.9997511508118623,0.02230776659275796
1753093880.3037696,10295,1753108280,321181853,ukd_base,0.4410371482372284,0.6695787310600281,0.0,0.0,0.0,-0.9997635677455675,0.02174416263400345
1753093880.3205829,10296,1753108280,340213021,ukd_base,0.42970529198646545,0.6833727359771729,0.0,0.0,0.0,-0.9997615337712026,0.02183748134406979
1753093880.336133,10297,1753108280,353226889,ukd_base,0.41202014684677124,0.6916500926017761,0.0,0.0,0.0,-0.9997768596479389,0.021124178386519515
1753093880.3518317,10298,1753108280,370938735,ukd_base,0.40326574444770813,0.6984983086585999,0.0,0.0,0.0,-0.9997834581803996,0.020809535046251583
1753093880.3602982,10299,1753108280,380207747,ukd_base,0.3969166576862335,0.7033142447471619,0.0,0.0,0.0,-0.9997864814386304,0.02066377343476099
1753093880.380522,10300,1753108280,400210240,ukd_base,0.38022035360336304,0.6962561011314392,0.0,0.0,0.0,-0.9997907363422452,0.02045686985418741
1753093880.3914027,10301,1753108280,410924869,ukd_base,0.3772648870944977,0.6830558776855469,0.0,0.0,0.0,-0.9997907363422452,0.02045686985418741
1753093880.4114423,10302,1753108280,430936972,ukd_base,0.3714391887187958,0.6690270304679871,0.0,0.0,0.0,-0.9997881482997977,0.020582966726442956
1753093880.4205658,10303,1753108280,440213077,ukd_base,0.37356486916542053,0.6660469174385071,0.0,0.0,0.0,-0.9997874656275046,0.020616099876825156
1753093880.440552,10304,1753108280,460211995,ukd_base,0.37418684363365173,0.6609943509101868,0.0,0.0,0.0,-0.9997855369473988,0.020709420822454805
1753093880.4521008,10305,1753108280,471181048,ukd_base,0.38997945189476013,0.6519559025764465,0.0,0.0,0.0,-0.9997670001077358,0.02158577067372617
1753093880.4717882,10306,1753108280,491030801,ukd_base,0.38922059535980225,0.6525171399116516,0.0,0.0,0.0,-0.9997649809177998,0.021679089704862188
1753093880.480685,10307,1753108280,500211517,ukd_base,0.36334335803985596,0.6673465967178345,0.0,0.0,0.0,-0.9997632929024948,0.021756795829357883
1753093880.5026846,10308,1753108280,520213436,ukd_base,0.34504351019859314,0.6770405173301697,0.0,0.0,0.0,-0.9997612551441938,0.021850233694544197
1753093880.5115843,10309,1753108280,530983898,ukd_base,0.3167971074581146,0.6907436847686768,0.0,0.0,0.0,-0.9997190901030896,0.023701073466208797
1753093880.531581,10310,1753108280,550986723,ukd_base,0.30850324034690857,0.6912279725074768,0.0,0.0,0.0,-0.9997139870912704,0.023915351013005508
1753093880.5405173,10311,1753108280,560209588,ukd_base,0.2938688099384308,0.6985688209533691,0.0,0.0,0.0,-0.9996742657839115,0.02552180106100287
1753093880.5605822,10312,1753108280,580211154,ukd_base,0.30721351504325867,0.6935048699378967,0.0,0.0,0.0,-0.9996711673369433,0.025642878059864538
1753093880.5719151,10313,1753108280,590993523,ukd_base,0.31709805130958557,0.6763045787811279,0.0,0.0,0.0,-0.9996092507897683,0.027952562235296075
1753093880.5917377,10314,1753108280,611037367,ukd_base,0.29609546065330505,0.6736676096916199,0.0,0.0,0.0,-0.9996055901611874,0.02808316432498719
1753093880.6003003,10315,1753108280,620214195,ukd_base,0.28475895524024963,0.6733720302581787,0.0,0.0,0.0,-0.9995959574309097,0.02842396678479331
1753093880.6233196,10316,1753108280,641199771,ukd_base,0.26706045866012573,0.6802284717559814,0.0,0.0,0.0,-0.999612784897989,0.02782589205194862
1753093880.63217,10317,1753108280,651215740,ukd_base,0.22110794484615326,0.7025710344314575,0.0,0.0,0.0,-0.9996091341538895,0.027956732929854285
1753093880.6406057,10318,1753108280,660208680,ukd_base,0.1959521323442459,0.7017344236373901,0.0,0.0,0.0,-0.9996081603992264,0.027991528419765634
1753093880.660297,10319,1753108280,680209376,ukd_base,0.16387665271759033,0.6949451565742493,0.0,0.0,0.0,-0.9996043169814232,0.02812844595960667
1753093880.680719,10320,1753108280,700215795,ukd_base,0.16040149331092834,0.6945221424102783,0.0,0.0,0.0,-0.9996016837288673,0.028221868939062724
1753093880.6914997,10321,1753108280,710960553,ukd_base,0.1470412313938141,0.6904798150062561,0.0,0.0,0.0,-0.9996275517737099,0.02729024981378668
1753093880.7121687,10322,1753108280,731066156,ukd_base,0.12603777647018433,0.6989002823829651,0.0,0.0,0.0,-0.9996663874928524,0.025828544616185865
1753093880.7205667,10323,1753108280,740213336,ukd_base,0.13245238363742828,0.6946060657501221,0.0,0.0,0.0,-0.9996882059453992,0.024969799632138995
1753093880.7405844,10324,1753108280,760211513,ukd_base,0.10699871927499771,0.6937828063964844,0.0,0.0,0.0,-0.999685171363813,0.025090997495194105
1753093880.7607028,10325,1753108280,780209654,ukd_base,0.06650695204734802,0.6952157616615295,0.0,0.0,0.0,-0.9996846387265181,0.025112210062655207
1753093880.7715538,10326,1753108280,790979949,ukd_base,0.04609636962413788,0.6913377046585083,0.0,0.0,0.0,-0.9996551390316692,0.02626029336420194
1753093880.791435,10327,1753108280,810955609,ukd_base,0.05410667881369591,0.6670167446136475,0.0,0.0,0.0,-0.9996140841116534,0.027779180074657846
1753093880.815018,10328,1753108280,832946362,ukd_base,0.0715918019413948,0.6565536260604858,0.0,0.0,0.0,-0.999594461764807,0.028476516801140977
1753093880.831526,10329,1753108280,850990575,ukd_base,0.06954558938741684,0.6596558690071106,0.0,0.0,0.0,-0.999590787241844,0.028605210386054562
1753093880.8405566,10330,1753108280,860212495,ukd_base,0.060208313167095184,0.6535507440567017,0.0,0.0,0.0,-0.9995497533910246,0.03000484120841062
1753093880.8606813,10331,1753108280,880210821,ukd_base,0.05077158659696579,0.6494411826133728,0.0,0.0,0.0,-0.9995458138484294,0.030135792972489868
1753093880.8715286,10332,1753108280,890988412,ukd_base,0.041500043123960495,0.6556839346885681,0.0,0.0,0.0,-0.9994776740471275,0.032316854446927355
1753093880.891943,10333,1753108280,911096144,ukd_base,0.038898907601833344,0.6687667965888977,0.0,0.0,0.0,-0.9994746377552423,0.032410623012018386
1753093880.903042,10334,1753108280,920215009,ukd_base,0.025238219648599625,0.6604459285736084,0.0,0.0,0.0,-0.9994832873459247,0.032142780156414696
1753093880.9207046,10335,1753108280,940216835,ukd_base,0.03184976056218147,0.6748985052108765,0.0,0.0,0.0,-0.9995119907536791,0.031237482927043484
1753093880.9320192,10336,1753108280,951010556,ukd_base,0.01755250245332718,0.6737261414527893,0.0,0.0,0.0,-0.9995087531461062,0.03134090592685782
1753093880.9516065,10337,1753108280,971142770,ukd_base,-0.013550370000302792,0.6906353831291199,0.0,0.0,0.0,-0.9995463022925071,0.030119587868627517
1753093880.9606051,10338,1753108280,980210895,ukd_base,-0.03993788734078407,0.7014017105102539,0.0,0.0,0.0,-0.9995608687723608,0.02963223952122416
1753093880.9807053,10339,1753108281,215313,ukd_base,-0.06655870378017426,0.689571738243103,0.0,0.0,0.0,-0.9995633591336964,0.029548114616011353
1753093880.9915185,10340,1753108281,10980034,ukd_base,-0.07628953456878662,0.6847065687179565,0.0,0.0,0.0,-0.9995707772599439,0.02929609612135344
1753093881.011768,10341,1753108281,31062582,ukd_base,-0.07987052202224731,0.6695131659507751,0.0,0.0,0.0,-0.9995732393308249,0.02921197038341538
1753093881.0207934,10342,1753108281,40212224,ukd_base,-0.08214454352855682,0.6739950180053711,0.0,0.0,0.0,-0.9995908008817577,0.028604733744020956
1753093881.040834,10343,1753108281,60211420,ukd_base,-0.08393241465091705,0.6771054267883301,0.0,0.0,0.0,-0.999594977589841,0.028458404332732022
1753093881.052067,10344,1753108281,71209806,ukd_base,-0.11110596358776093,0.672484815120697,0.0,0.0,0.0,-0.999603414464187,0.02816050055554231
1753093881.060638,10345,1753108281,80212043,ukd_base,-0.12717662751674652,0.6691426038742065,0.0,0.0,0.0,-0.9996060486729255,0.028066839089946623
1753093881.0807288,10346,1753108281,100213498,ukd_base,-0.13966740667819977,0.6540381908416748,0.0,0.0,0.0,-0.9996091308211802,0.0279568520925488
1753093881.1035073,10347,1753108281,121299370,ukd_base,-0.13797275722026825,0.6731550097465515,0.0,0.0,0.0,-0.9996057374494957,0.028077921184622597
1753093881.1114023,10348,1753108281,130967934,ukd_base,-0.14871598780155182,0.6748116612434387,0.0,0.0,0.0,-0.999582400426773,0.02889679492695301
1753093881.1352196,10349,1753108281,153027409,ukd_base,-0.18735291063785553,0.6648080348968506,0.0,0.0,0.0,-0.9995758783339874,0.02912152902643799
1753093881.140669,10350,1753108281,160210550,ukd_base,-0.23637370765209198,0.6455795764923096,0.0,0.0,0.0,-0.9994762978104959,0.0323593899050189
1753093881.1606221,10351,1753108281,180212283,ukd_base,-0.26671773195266724,0.6377151608467102,0.0,0.0,0.0,-0.9994619589713252,0.0327992769615585
1753093881.1715212,10352,1753108281,191017504,ukd_base,-0.30093103647232056,0.6218870282173157,0.0,0.0,0.0,-0.9993879906365484,0.03498062565824441
1753093881.1915035,10353,1753108281,210973108,ukd_base,-0.29996711015701294,0.6253913044929504,0.0,0.0,0.0,-0.9993820967970203,0.03514860739191922
1753093881.2007897,10354,1753108281,220211194,ukd_base,-0.3478083610534668,0.6195787191390991,0.0,0.0,0.0,-0.9994881116634368,0.031992415405176604
1753093881.2205691,10355,1753108281,240211835,ukd_base,-0.344002366065979,0.6283682584762573,0.0,0.0,0.0,-0.999634262016773,0.02704333933118725
1753093881.2320423,10356,1753108281,250975019,ukd_base,-0.3735527992248535,0.6160505414009094,0.0,0.0,0.0,-0.9996225118211683,0.027474239941046474
1753093881.2520618,10357,1753108281,271240472,ukd_base,-0.34008291363716125,0.6383858323097229,0.0,0.0,0.0,-0.9997682053874196,0.02152987451004672
1753093881.2720687,10358,1753108281,290977671,ukd_base,-0.3495608866214752,0.6218030452728271,0.0,0.0,0.0,-0.9998771138191095,0.015676646987397545
1753093881.2803433,10359,1753108281,300213609,ukd_base,-0.396100789308548,0.599247932434082,0.0,0.0,0.0,-0.9999390803461967,0.011037916307089205
1753093881.2955291,10360,1753108281,313189422,ukd_base,-0.3859904706478119,0.609957754611969,0.0,0.0,0.0,-0.9999337939425825,0.011506855851745788
1753093881.3006432,10361,1753108281,320209898,ukd_base,-0.39755314588546753,0.616158664226532,0.0,0.0,0.0,-0.9999507621445384,0.00992337072555917
1753093881.320565,10362,1753108281,340212150,ukd_base,-0.4218529164791107,0.6277133822441101,0.0,0.0,0.0,-0.9999547689860704,0.009511045264040556
1753093881.3405533,10363,1753108281,360205457,ukd_base,-0.4126679003238678,0.6243546605110168,0.0,0.0,0.0,-0.9999477384079112,0.010223524485408345
1753093881.3523066,10364,1753108281,371256065,ukd_base,-0.44116654992103577,0.6088541150093079,0.0,0.0,0.0,-0.9999541101310827,0.009580064298036933
1753093881.3716714,10365,1753108281,391032189,ukd_base,-0.42181161046028137,0.6217363476753235,0.0,0.0,0.0,-0.9999497777842099,0.010022071108769678
1753093881.380546,10366,1753108281,400214998,ukd_base,-0.44703149795532227,0.6145297884941101,0.0,0.0,0.0,-0.9999534384600818,0.009649917712569536
1753093881.4006724,10367,1753108281,420215250,ukd_base,-0.45216289162635803,0.6107925772666931,0.0,0.0,0.0,-0.9999490716268901,0.010092281829236474
1753093881.4121444,10368,1753108281,431056026,ukd_base,-0.4526079595088959,0.5992419719696045,0.0,0.0,0.0,-0.9999810699677186,0.006153024152120524
1753093881.4313939,10369,1753108281,450961741,ukd_base,-0.4577923119068146,0.6062429547309875,0.0,0.0,0.0,-0.9999791109897085,0.006463558171189135
1753093881.4406407,10370,1753108281,460204383,ukd_base,-0.4653659760951996,0.6005726456642151,0.0,0.0,0.0,-0.9999816846998648,0.006052294178260551
1753093881.4606254,10371,1753108281,480211746,ukd_base,-0.48428574204444885,0.585512101650238,0.0,0.0,0.0,-0.9999795783607021,0.006390842006538138
1753093881.4713914,10372,1753108281,490962634,ukd_base,-0.49289366602897644,0.5862085223197937,0.0,0.0,0.0,-0.9999665617120207,0.008177741609970975
1753093881.4806087,10373,1753108281,500209313,ukd_base,-0.4651224911212921,0.6175583004951477,0.0,0.0,0.0,-0.9999647669286803,0.008394337452710777
1753093881.5007844,10374,1753108281,520215509,ukd_base,-0.4664093554019928,0.6191723346710205,0.0,0.0,0.0,-0.9999530430507512,0.00969080458696239
1753093881.520653,10375,1753108281,540214131,ukd_base,-0.48926323652267456,0.6146831512451172,0.0,0.0,0.0,-0.999951019691715,0.00989738437666405
1753093881.531478,10376,1753108281,550989074,ukd_base,-0.47082677483558655,0.6305536031723022,0.0,0.0,0.0,-0.9999195734694076,0.012682531007568847
1753093881.5515282,10377,1753108281,570937327,ukd_base,-0.506555438041687,0.5995035171508789,0.0,0.0,0.0,-0.9999184934122809,0.012767401149580167
1753093881.562664,10378,1753108281,580208394,ukd_base,-0.5388720631599426,0.5768628716468811,0.0,0.0,0.0,-0.9999203186020691,0.012623646332842789
1753093881.5829988,10379,1753108281,600885992,ukd_base,-0.5289079546928406,0.590288519859314,0.0,0.0,0.0,-0.9999203216117525,0.012623407933260854
1753093881.5916011,10380,1753108281,610945404,ukd_base,-0.5345335602760315,0.5841501355171204,0.0,0.0,0.0,-0.9999502699933073,0.009972840132670965
1753093881.6151385,10381,1753108281,633008509,ukd_base,-0.5238462090492249,0.5930301547050476,0.0,0.0,0.0,-0.999958971607518,0.009058427106016979
1753093881.6206496,10382,1753108281,640206964,ukd_base,-0.5289092659950256,0.5839675068855286,0.0,0.0,0.0,-0.9999537978266309,0.009612606935559192
1753093881.647154,10383,1753108281,660209105,ukd_base,-0.5263526439666748,0.5911481976509094,0.0,0.0,0.0,-0.9999422307144408,0.01074873173114713
1753093881.6515312,10384,1753108281,671379656,ukd_base,-0.5444138646125793,0.5697876811027527,0.0,0.0,0.0,-0.9999422307144408,0.01074873173114713
1753093881.6606648,10385,1753108281,680208468,ukd_base,-0.5266664028167725,0.5870118141174316,0.0,0.0,0.0,-0.9999368121948166,0.011241513139618553
1753093881.6807737,10386,1753108281,700211442,ukd_base,-0.5225239992141724,0.5791792273521423,0.0,0.0,0.0,-0.9999302287251826,0.011812606892807059
1753093881.7029042,10387,1753108281,720209768,ukd_base,-0.5442988276481628,0.5753777623176575,0.0,0.0,0.0,-0.9999288930789083,0.011925132535498633
1753093881.7229993,10388,1753108281,740210872,ukd_base,-0.5684310793876648,0.550672173500061,0.0,0.0,0.0,-0.9999260925193384,0.012157692996929773
1753093881.7321756,10389,1753108281,751276905,ukd_base,-0.5819295048713684,0.548957347869873,0.0,0.0,0.0,-0.9999276924994224,0.012025380359087488
1753093881.7434034,10390,1753108281,760980987,ukd_base,-0.5818788409233093,0.5663552284240723,0.0,0.0,0.0,-0.9999318749100584,0.01167242643392003
1753093881.7607684,10391,1753108281,780204727,ukd_base,-0.597248911857605,0.5536597967147827,0.0,0.0,0.0,-0.9999392631082015,0.011021347223771297
1753093881.7756703,10392,1753108281,795109857,ukd_base,-0.6033609509468079,0.5583634376525879,0.0,0.0,0.0,-0.9999406594912992,0.010893920144084654
1753093881.7915351,10393,1753108281,811063125,ukd_base,-0.583263635635376,0.5612677931785583,0.0,0.0,0.0,-0.999941686145292,0.010799273536231422
1753093881.8069892,10394,1753108281,820207305,ukd_base,-0.6044135689735413,0.5653645396232605,0.0,0.0,0.0,-0.9999543598954672,0.009553958658402759
1753093881.8123584,10395,1753108281,831273486,ukd_base,-0.5952576398849487,0.5931510329246521,0.0,0.0,0.0,-0.9999552597191286,0.009459310759778844
1753093881.8313835,10396,1753108281,851042703,ukd_base,-0.6011900901794434,0.5998062491416931,0.0,0.0,0.0,-0.9999604832477731,0.008889991163105349
1753093881.8515158,10397,1753108281,871136195,ukd_base,-0.6059209704399109,0.5824416279792786,0.0,0.0,0.0,-0.9999636077636506,0.00853130402130679
1753093881.8606102,10398,1753108281,880210709,ukd_base,-0.6139374375343323,0.5998344421386719,0.0,0.0,0.0,-0.99996308006999,0.00859293296486556
1753093881.8805408,10399,1753108281,900210738,ukd_base,-0.6145244836807251,0.6127669215202332,0.0,0.0,0.0,-0.9999611932545396,0.008809766453057628
1753093881.891407,10400,1753108281,910892201,ukd_base,-0.5857598185539246,0.6289589405059814,0.0,0.0,0.0,-0.9999755906572929,0.0069869943178923885
1753093881.9114025,10401,1753108281,931010785,ukd_base,-0.5984616279602051,0.6171032190322876,0.0,0.0,0.0,-0.9999747294548431,0.007109180804653092
1753093881.9204295,10402,1753108281,940211927,ukd_base,-0.5992803573608398,0.6289517879486084,0.0,0.0,0.0,-0.9999816673800196,0.006055155148784502
1753093881.9359057,10403,1753108281,953200092,ukd_base,-0.6156187653541565,0.6261872053146362,0.0,0.0,0.0,-0.999981725801692,0.006045499373067662
1753093881.9521787,10404,1753108281,971268027,ukd_base,-0.6172751188278198,0.633749783039093,0.0,0.0,0.0,-0.9999921975208805,0.003950303451658323
1753093881.9718018,10405,1753108281,991076225,ukd_base,-0.6420591473579407,0.6410272717475891,0.0,0.0,0.0,-0.9999980911072212,0.0019539145103648044
1753093881.9806497,10406,1753108282,210220,ukd_base,-0.6520698666572571,0.6491385102272034,0.0,0.0,0.0,-0.9999991420193266,0.0013099467968470599
1753093882.00282,10407,1753108282,20212545,ukd_base,-0.6583163738250732,0.6513213515281677,0.0,0.0,0.0,-0.9999991778655003,0.0012822902649026148
1753093882.0114095,10408,1753108282,31005396,ukd_base,-0.6807902455329895,0.6600732803344727,0.0,0.0,0.0,0.9999999985442619,5.3958096750319095e-05
1753093882.0314312,10409,1753108282,51011203,ukd_base,-0.6880202293395996,0.6401570439338684,0.0,0.0,0.0,-0.9999999976619223,6.83824207588521e-05
1753093882.0406113,10410,1753108282,60208864,ukd_base,-0.7138060927391052,0.6251239776611328,0.0,0.0,0.0,-0.999999988200899,0.0001536170622367741
1753093882.0515122,10411,1753108282,71142769,ukd_base,-0.7257927656173706,0.6347320079803467,0.0,0.0,0.0,-0.9999999619653642,0.0002758065811337716
1753093882.0715685,10412,1753108282,90908041,ukd_base,-0.7618235945701599,0.6321315169334412,0.0,0.0,0.0,-0.9999999679558125,0.0002531568169117893
1753093882.095522,10413,1753108282,113141996,ukd_base,-0.7753096222877502,0.6440986394882202,0.0,0.0,0.0,-0.9999999625548788,0.0002736608140028377
1753093882.1002903,10414,1753108282,120210971,ukd_base,-0.7930732369422913,0.6470885276794434,0.0,0.0,0.0,-0.999998835004059,0.0015264306485456391
1753093882.1205533,10415,1753108282,140207223,ukd_base,-0.8207815885543823,0.6540343165397644,0.0,0.0,0.0,-0.9999986408285596,0.0016487392254133583
1753093882.1310775,10416,1753108282,150987870,ukd_base,-0.8464603424072266,0.6555847525596619,0.0,0.0,0.0,-0.9999958478430272,0.0028817176657559267
1753093882.151532,10417,1753108282,170873734,ukd_base,-0.8692406415939331,0.6500998139381409,0.0,0.0,0.0,-0.9999930167976061,0.003737158816890559
1753093882.1605744,10418,1753108282,180208208,ukd_base,-0.8921718597412109,0.6362743973731995,0.0,0.0,0.0,-0.9999910979724442,0.004219475780874977
1753093882.1805735,10419,1753108282,200209627,ukd_base,-0.8971091508865356,0.6262500286102295,0.0,0.0,0.0,-0.9999906930818072,0.004314365511499756
1753093882.2012923,10420,1753108282,220210656,ukd_base,-0.9250782132148743,0.5930453538894653,0.0,0.0,0.0,-0.999989322716072,0.00462108795108642
1753093882.211756,10421,1753108282,230898767,ukd_base,-0.9512270092964172,0.5685632824897766,0.0,0.0,0.0,-0.9999906204224904,0.004331173864280739
1753093882.2320447,10422,1753108282,251204775,ukd_base,-0.990441620349884,0.5467180609703064,0.0,0.0,0.0,-0.9999938814694168,0.003498145755956282
1753093882.2555335,10423,1753108282,273308268,ukd_base,-0.9874325394630432,0.5635302066802979,0.0,0.0,0.0,-0.9999969798711021,0.0024576917370935205
1753093882.2714055,10424,1753108282,290938893,ukd_base,-0.9954782128334045,0.5572699308395386,0.0,0.0,0.0,-0.9999982249365558,0.0018841772044041623
1753093882.2805145,10425,1753108282,300214256,ukd_base,-1.01999032497406,0.5495030283927917,0.0,0.0,0.0,-0.9999951965009477,0.003099512063375906
1753093882.2915127,10426,1753108282,311071902,ukd_base,-1.04323148727417,0.5384948253631592,0.0,0.0,0.0,-0.9999951965009477,0.003099512063375906
1753093882.3111079,10427,1753108282,330988359,ukd_base,-1.0817856788635254,0.49776262044906616,0.0,0.0,0.0,-0.9999971325835028,0.002394749417478355
1753093882.3313906,10428,1753108282,350863760,ukd_base,-1.0828777551651,0.5160778164863586,0.0,0.0,0.0,-0.9999988669892075,0.00150533062853839
1753093882.340577,10429,1753108282,360206049,ukd_base,-1.0999711751937866,0.4788900911808014,0.0,0.0,0.0,-0.9999994930589619,0.0010069169872962318
1753093882.3520675,10430,1753108282,370887048,ukd_base,-1.0953142642974854,0.48227354884147644,0.0,0.0,0.0,-0.9999993930099003,0.0011018075289990611
1753093882.3715203,10431,1753108282,390874078,ukd_base,-1.1198855638504028,0.503219485282898,0.0,0.0,0.0,-0.9999970688575642,0.002421213803032301
1753093882.391307,10432,1753108282,410832238,ukd_base,-1.1399710178375244,0.48134100437164307,0.0,0.0,0.0,-0.9999968340051337,0.0025163425261582367
1753093882.4007657,10433,1753108282,420210675,ukd_base,-1.148126482963562,0.5023061037063599,0.0,0.0,0.0,-0.9999942627408344,0.003387400982337687
1753093882.4205704,10434,1753108282,440207927,ukd_base,-1.1619089841842651,0.47496497631073,0.0,0.0,0.0,-0.9999939239306624,0.0034859864825611416
1753093882.4314268,10435,1753108282,450927037,ukd_base,-1.1787550449371338,0.469097763299942,0.0,0.0,0.0,-0.9999931775793068,0.0036938861434820443
1753093882.4405468,10436,1753108282,460209419,ukd_base,-1.1883442401885986,0.4622053802013397,0.0,0.0,0.0,-0.9999906554991341,0.004323067708482099
1753093882.4605782,10437,1753108282,480206671,ukd_base,-1.2013896703720093,0.44034433364868164,0.0,0.0,0.0,-0.9999844815559791,0.005571054408265333
1753093882.480693,10438,1753108282,500215682,ukd_base,-1.21517813205719,0.42900508642196655,0.0,0.0,0.0,-0.999983791330357,0.005693599614043226
1753093882.491427,10439,1753108282,510945311,ukd_base,-1.2305248975753784,0.3940480947494507,0.0,0.0,0.0,-0.9999649138755462,0.008376814303274915
1753093882.5114422,10440,1753108282,530932007,ukd_base,-1.2465169429779053,0.41077056527137756,0.0,0.0,0.0,-0.9999641134827911,0.008471820735569976
1753093882.5206752,10441,1753108282,540211852,ukd_base,-1.2444308996200562,0.42411741614341736,0.0,0.0,0.0,-0.9999559561233073,0.009385404281231585
1753093882.543309,10442,1753108282,560997634,ukd_base,-1.2668174505233765,0.4189717471599579,0.0,0.0,0.0,-0.9999538894541217,0.009603070632576404
1753093882.5519474,10443,1753108282,571140268,ukd_base,-1.267480731010437,0.45005515217781067,0.0,0.0,0.0,-0.999955100580954,0.009476118516251013
1753093882.575699,10444,1753108282,593138799,ukd_base,-1.2651907205581665,0.4695373773574829,0.0,0.0,0.0,-0.9999587845810503,0.009079049465044417
1753093882.5806932,10445,1753108282,600206145,ukd_base,-1.284778356552124,0.4688573181629181,0.0,0.0,0.0,-0.9999625764288976,0.008651343345465242
1753093882.6008062,10446,1753108282,620209693,ukd_base,-1.3089948892593384,0.46567267179489136,0.0,0.0,0.0,-0.999968947885762,0.007880562431844906
1753093882.6114097,10447,1753108282,631085506,ukd_base,-1.3285987377166748,0.42707014083862305,0.0,0.0,0.0,-0.999968947885762,0.007880562431844906
1753093882.6315024,10448,1753108282,651033184,ukd_base,-1.341957926750183,0.42907872796058655,0.0,0.0,0.0,-0.9999749366610469,0.007079975263743729
1753093882.640496,10449,1753108282,660207678,ukd_base,-1.3374539613723755,0.44398024678230286,0.0,0.0,0.0,-0.9999795356749467,0.006397517590281378
1753093882.6604877,10450,1753108282,680210282,ukd_base,-1.3493841886520386,0.41735947132110596,0.0,0.0,0.0,-0.9999797099477062,0.006370219219247945
1753093882.6804829,10451,1753108282,700210978,ukd_base,-1.3672736883163452,0.4280692934989929,0.0,0.0,0.0,-0.9999772401313242,0.006746793263473351
1753093882.6913722,10452,1753108282,710956311,ukd_base,-1.3753081560134888,0.40923434495925903,0.0,0.0,0.0,-0.9999765937908791,0.006841920080739903
1753093882.7113876,10453,1753108282,730966007,ukd_base,-1.3893959522247314,0.40930864214897156,0.0,0.0,0.0,-0.9999669505202972,0.008130059479333538
1753093882.7207887,10454,1753108282,740207889,ukd_base,-1.3804614543914795,0.4400500953197479,0.0,0.0,0.0,-0.9999572851794006,0.009242716951349124
1753093882.7352874,10455,1753108282,753143536,ukd_base,-1.4001864194869995,0.4283130168914795,0.0,0.0,0.0,-0.99995550633102,0.009433205090173718
1753093882.7518945,10456,1753108282,770926437,ukd_base,-1.4000980854034424,0.41378113627433777,0.0,0.0,0.0,-0.9999490186770098,0.010097526770707906
1753093882.7605186,10457,1753108282,780205541,ukd_base,-1.4095232486724854,0.40289247035980225,0.0,0.0,0.0,-0.9999372336190553,0.011203964578253818
1753093882.780481,10458,1753108282,800208774,ukd_base,-1.4211674928665161,0.4101957082748413,0.0,0.0,0.0,-0.9999218878877622,0.012498724853908067
1753093882.7913089,10459,1753108282,810910403,ukd_base,-1.4315146207809448,0.4076530635356903,0.0,0.0,0.0,-0.9999206928706823,0.012593965579379683
1753093882.802786,10460,1753108282,820209656,ukd_base,-1.448436975479126,0.40465065836906433,0.0,0.0,0.0,-0.9999056942119597,0.013733269184676858
1753093882.8205,10461,1753108282,840206741,ukd_base,-1.4591219425201416,0.40665432810783386,0.0,0.0,0.0,-0.9998944342032935,0.014529984489857145
1753093882.8404825,10462,1753108282,860209511,ukd_base,-1.4832316637039185,0.39259693026542664,0.0,0.0,0.0,-0.999893040482018,0.014625580180817985
1753093882.851496,10463,1753108282,870891104,ukd_base,-1.501858115196228,0.39923936128616333,0.0,0.0,0.0,-0.9999053172954677,0.013760684730419104
1753093882.8717065,10464,1753108282,891099891,ukd_base,-1.5084867477416992,0.4046294093132019,0.0,0.0,0.0,-0.9999040004272665,0.013856043069692481
1753093882.880502,10465,1753108282,900209756,ukd_base,-1.5158730745315552,0.4210732877254486,0.0,0.0,0.0,-0.9999157710375404,0.012978860905379691
1753093882.9003665,10466,1753108282,920210248,ukd_base,-1.5185333490371704,0.4190328121185303,0.0,0.0,0.0,-0.9999144055585684,0.013083636973520937
1753093882.911494,10467,1753108282,930898192,ukd_base,-1.5268758535385132,0.4166467487812042,0.0,0.0,0.0,-0.9999254126861404,0.012213478802195612
1753093882.931495,10468,1753108282,950971388,ukd_base,-1.5340361595153809,0.41003790497779846,0.0,0.0,0.0,-0.9999223802874655,0.01245926965151621
1753093882.9406488,10469,1753108282,960209678,ukd_base,-1.5440807342529297,0.4097523093223572,0.0,0.0,0.0,-0.9999329310784011,0.011581595095561444
1753093882.9606762,10470,1753108282,980207522,ukd_base,-1.5469094514846802,0.4251384139060974,0.0,0.0,0.0,-0.9999444211558499,0.010542988157642095
1753093882.9713404,10471,1753108282,990958744,ukd_base,-1.5519558191299438,0.41306939721107483,0.0,0.0,0.0,-0.9999431165483871,0.010666005226833659
1753093882.980702,10472,1753108283,210552,ukd_base,-1.5580719709396362,0.3943011462688446,0.0,0.0,0.0,-0.9999474980405701,0.010247007485305257
1753093883.0007772,10473,1753108283,20213211,ukd_base,-1.5685653686523438,0.40510618686676025,0.0,0.0,0.0,-0.9999495625036898,0.010043527700928093
1753093883.0234256,10474,1753108283,41175769,ukd_base,-1.571828007698059,0.41630396246910095,0.0,0.0,0.0,-0.9999471456481657,0.010281337952138307
1753093883.0314128,10475,1753108283,50876166,ukd_base,-1.5711324214935303,0.4235283136367798,0.0,0.0,0.0,-0.9999458732299336,0.010404355358487802
1753093883.0409884,10476,1753108283,60211030,ukd_base,-1.5689581632614136,0.42327606678009033,0.0,0.0,0.0,-0.9999412450324471,0.010840040726840252
1753093883.0606945,10477,1753108283,80212874,ukd_base,-1.5744274854660034,0.420197457075119,0.0,0.0,0.0,-0.9999305620629824,0.011784356257692847
1753093883.0806577,10478,1753108283,100208996,ukd_base,-1.5773146152496338,0.4215531647205353,0.0,0.0,0.0,-0.9999189266031434,0.012733429263853761
1753093883.0914423,10479,1753108283,110922255,ukd_base,-1.5997493267059326,0.4156803488731384,0.0,0.0,0.0,-0.9999173509864617,0.012856562379464875
1753093883.1115372,10480,1753108283,130929599,ukd_base,-1.6036103963851929,0.4212285876274109,0.0,0.0,0.0,-0.9999049889309874,0.013784524327004392
1753093883.120671,10481,1753108283,140209444,ukd_base,-1.612159252166748,0.4264475405216217,0.0,0.0,0.0,-0.9998943856986678,0.014533321997519758
1753093883.1406443,10482,1753108283,160209307,ukd_base,-1.6291437149047852,0.4115627706050873,0.0,0.0,0.0,-0.9998929934022031,0.014628798487294752
1753093883.152165,10483,1753108283,171289822,ukd_base,-1.629866361618042,0.42046576738357544,0.0,0.0,0.0,-0.9998833674113011,0.015272575887422934
1753093883.1714149,10484,1753108283,191060446,ukd_base,-1.6304504871368408,0.42629891633987427,0.0,0.0,0.0,-0.9998819026939942,0.015368170516939898
1753093883.1837404,10485,1753108283,201064341,ukd_base,-1.6477762460708618,0.3873040974140167,0.0,0.0,0.0,-0.999887184478833,0.015020596359408915
1753093883.2032008,10486,1753108283,220207396,ukd_base,-1.6372478008270264,0.40199655294418335,0.0,0.0,0.0,-0.999892518538852,0.014661219936675605
1753093883.2235265,10487,1753108283,240209463,ukd_base,-1.6210638284683228,0.4453047215938568,0.0,0.0,0.0,-0.9998924101508176,0.014668610117834345
1753093883.2314878,10488,1753108283,250979017,ukd_base,-1.5922355651855469,0.45793581008911133,0.0,0.0,0.0,-0.9998928137062961,0.014641075729128842
1753093883.240757,10489,1753108283,260213289,ukd_base,-1.60487961769104,0.4498923122882843,0.0,0.0,0.0,-0.9999091346098208,0.013480449689801905
1753093883.26068,10490,1753108283,280207207,ukd_base,-1.6047286987304688,0.4428831934928894,0.0,0.0,0.0,-0.9999092631239366,0.013470913812584856
1753093883.2712452,10491,1753108283,291046687,ukd_base,-1.6024328470230103,0.4229307770729065,0.0,0.0,0.0,-0.9999226607479414,0.012436740841445953
1753093883.2919338,10492,1753108283,311172030,ukd_base,-1.6071281433105469,0.44317904114723206,0.0,0.0,0.0,-0.9999226577827629,0.012436979241585586
1753093883.3030338,10493,1753108283,320212840,ukd_base,-1.6283267736434937,0.4010149836540222,0.0,0.0,0.0,-0.9999138869580122,0.013123211059781863
1753093883.3206782,10494,1753108283,340206796,ukd_base,-1.6379414796829224,0.4157665967941284,0.0,0.0,0.0,-0.9998989150852091,0.014218284405007666
1753093883.3314414,10495,1753108283,350967036,ukd_base,-1.6482881307601929,0.423884779214859,0.0,0.0,0.0,-0.9998993062399103,0.014190749837344276
1753093883.3517966,10496,1753108283,371166508,ukd_base,-1.6536102294921875,0.4249671399593353,0.0,0.0,0.0,-0.9998789606793035,0.015558405794805507
1753093883.3605134,10497,1753108283,380211837,ukd_base,-1.6581681966781616,0.4224705100059509,0.0,0.0,0.0,-0.9998693862559502,0.0161620056969833
1753093883.3807619,10498,1753108283,400207126,ukd_base,-1.6511017084121704,0.4363936483860016,0.0,0.0,0.0,-0.9998693862559502,0.0161620056969833
1753093883.3913906,10499,1753108283,411029402,ukd_base,-1.66252863407135,0.39348533749580383,0.0,0.0,0.0,-0.9998468225930769,0.017502324146470873
1753093883.4114215,10500,1753108283,431021006,ukd_base,-1.6598389148712158,0.43114936351776123,0.0,0.0,0.0,-0.9998469894627793,0.01749278886332463
1753093883.4207814,10501,1753108283,440217351,ukd_base,-1.6620427370071411,0.4405732750892639,0.0,0.0,0.0,-0.9998343325698156,0.018201851957186464
1753093883.4408157,10502,1753108283,460210918,ukd_base,-1.659056305885315,0.4523228108882904,0.0,0.0,0.0,-0.9998247861588767,0.018718893726831626
1753093883.452167,10503,1753108283,471197508,ukd_base,-1.66021728515625,0.44848963618278503,0.0,0.0,0.0,-0.999818534592317,0.01904987888863911
1753093883.4723947,10504,1753108283,491429702,ukd_base,-1.665830373764038,0.4394110441207886,0.0,0.0,0.0,-0.9998187162206528,0.019040343875197888
1753093883.4807022,10505,1753108283,500209700,ukd_base,-1.6664361953735352,0.4337741732597351,0.0,0.0,0.0,-0.9998208818994032,0.018926281142890192
1753093883.5036573,10506,1753108283,521284498,ukd_base,-1.6575045585632324,0.4533179998397827,0.0,0.0,0.0,-0.9998215806351377,0.018889332869502267
1753093883.5209146,10507,1753108283,531214911,ukd_base,-1.6534218788146973,0.4697750210762024,0.0,0.0,0.0,-0.9998303335981248,0.01842020675949574
1753093883.5648472,10508,1753108283,551276533,ukd_base,-1.6420154571533203,0.49914267659187317,0.0,0.0,0.0,-0.9998373134056476,0.018037370145801927
1753093883.5664148,10510,1753108283,575419693,ukd_base,-1.6552329063415527,0.4973573088645935,0.0,0.0,0.0,-0.9998460705540891,0.017545232900917584
1753093883.5784845,10511,1753108283,591090779,ukd_base,-1.674066185951233,0.4435828924179077,0.0,0.0,0.0,-0.9998443885576471,0.017640823954250224
1753093883.5988107,10512,1753108283,611054994,ukd_base,-1.672062635421753,0.43724313378334045,0.0,0.0,0.0,-0.9998474416389794,0.01746692439978233
1753093883.610472,10513,1753108283,621281627,ukd_base,-1.6851749420166016,0.399148166179657,0.0,0.0,0.0,-0.9998429763919578,0.01772068169317595
1753093883.6247387,10514,1753108283,640981845,ukd_base,-1.6748822927474976,0.4011865556240082,0.0,0.0,0.0,-0.9998459324805292,0.017553099502396696
1753093883.6446898,10515,1753108283,651043720,ukd_base,-1.6936191320419312,0.3557663857936859,0.0,0.0,0.0,-0.9998367194031786,0.018070266547273124
1753093883.6487477,10516,1753108283,661048540,ukd_base,-1.6833913326263428,0.37386536598205566,0.0,0.0,0.0,-0.9998344822542513,0.01819362787827947
1753093883.6668653,10517,1753108283,680998478,ukd_base,-1.6826645135879517,0.3710300624370575,0.0,0.0,0.0,-0.9998216661926694,0.01888480372453688
1753093883.686494,10518,1753108283,700993285,ukd_base,-1.678030252456665,0.3451533913612366,0.0,0.0,0.0,-0.9998193308108874,0.019008044004301984
1753093883.6968653,10519,1753108283,711174882,ukd_base,-1.6869502067565918,0.35651838779449463,0.0,0.0,0.0,-0.9998074681463125,0.01962209567962501
1753093883.7269738,10520,1753108283,730993691,ukd_base,-1.6917698383331299,0.3100598454475403,0.0,0.0,0.0,-0.9997972160967311,0.020137693145601755
1753093883.729333,10521,1753108283,741021733,ukd_base,-1.7062193155288696,0.3306565582752228,0.0,0.0,0.0,-0.9997865208498318,0.02066186649334493
1753093883.7448225,10522,1753108283,760984633,ukd_base,-1.7031683921813965,0.30107465386390686,0.0,0.0,0.0,-0.9997839639455014,0.02078522161104673
1753093883.7570655,10523,1753108283,771236600,ukd_base,-1.6958872079849243,0.34034791588783264,0.0,0.0,0.0,-0.9997655542931498,0.02165263145464697
1753093883.7745976,10524,1753108283,791009224,ukd_base,-1.6851993799209595,0.37671253085136414,0.0,0.0,0.0,-0.9997634744205386,0.021748453153569873
1753093883.7886803,10525,1753108283,801063766,ukd_base,-1.683245062828064,0.37611526250839233,0.0,0.0,0.0,-0.9997555008542792,0.022111954043215205
1753093883.8088148,10526,1753108283,821122758,ukd_base,-1.6832859516143799,0.36933356523513794,0.0,0.0,0.0,-0.9997537077689134,0.022192877287774755
1753093883.821018,10527,1753108283,831021616,ukd_base,-1.6948810815811157,0.3816961348056793,0.0,0.0,0.0,-0.9997513661679888,0.02229811304214047
1753093883.8386953,10528,1753108283,851012516,ukd_base,-1.6957101821899414,0.3950989544391632,0.0,0.0,0.0,-0.9997505361361194,0.022335297077536495
1753093883.8489912,10529,1753108283,861040799,ukd_base,-1.685067057609558,0.39956337213516235,0.0,0.0,0.0,-0.9997501605718313,0.022352101391091405
1753093883.8649163,10530,1753108283,881005959,ukd_base,-1.6881332397460938,0.41019222140312195,0.0,0.0,0.0,-0.9997496727161399,0.022373911235436632
1753093883.8750768,10531,1753108283,891043260,ukd_base,-1.6746011972427368,0.4058424234390259,0.0,0.0,0.0,-0.9997469018953561,0.02249738097284303
1753093883.89481,10532,1753108283,911076734,ukd_base,-1.6802340745925903,0.4041425585746765,0.0,0.0,0.0,-0.9997444770449039,0.022604880406929224
1753093883.9049168,10533,1753108283,921216609,ukd_base,-1.6731406450271606,0.3974878489971161,0.0,0.0,0.0,-0.9997405330546139,0.022778642797069756
1753093883.924654,10534,1753108283,940940808,ukd_base,-1.6882665157318115,0.41193458437919617,0.0,0.0,0.0,-0.9997381270670511,0.022883996339468166
1753093883.9385455,10535,1753108283,951016850,ukd_base,-1.6849603652954102,0.4155954122543335,0.0,0.0,0.0,-0.9997332129531866,0.023097682097957838
1753093883.9587808,10536,1753108283,971193711,ukd_base,-1.677923321723938,0.4246301054954529,0.0,0.0,0.0,-0.9997294440200263,0.023260239882879983
1753093883.9668915,10537,1753108283,981089625,ukd_base,-1.6736177206039429,0.40351027250289917,0.0,0.0,0.0,-0.9997262319174279,0.023397889139428633
1753093883.9887867,10538,1753108284,982766,ukd_base,-1.664143443107605,0.40239185094833374,0.0,0.0,0.0,-0.9997239819713757,0.02349382623789692
1753093883.9967656,10539,1753108284,11024086,ukd_base,-1.6617815494537354,0.39668115973472595,0.0,0.0,0.0,-0.9997227595235378,0.023545787110278132
1753093884.0247073,10540,1753108284,31309021,ukd_base,-1.6644046306610107,0.37410417199134827,0.0,0.0,0.0,-0.9997196210249942,0.023678668409391992
1753093884.0289347,10541,1753108284,41014770,ukd_base,-1.672829031944275,0.3831672966480255,0.0,0.0,0.0,-0.9997197169891687,0.02367461642976125
1753093884.0446463,10542,1753108284,61088095,ukd_base,-1.6706994771957397,0.37058085203170776,0.0,0.0,0.0,-0.999719493988334,0.023684031323011022
1753093884.0548093,10543,1753108284,71169230,ukd_base,-1.6786805391311646,0.36031249165534973,0.0,0.0,0.0,-0.9997226584667759,0.023550077454698073
1753093884.0746925,10544,1753108284,90952002,ukd_base,-1.6783812046051025,0.35172733664512634,0.0,0.0,0.0,-0.9997271599485615,0.02335820329527077
1753093884.0885243,10545,1753108284,101059321,ukd_base,-1.682716965675354,0.306415319442749,0.0,0.0,0.0,-0.9997278584142544,0.023328289916933954
1753093884.1145265,10546,1753108284,121385885,ukd_base,-1.6614161729812622,0.3216814398765564,0.0,0.0,0.0,-0.9997300924748478,0.023232352447230938
1753093884.1167953,10547,1753108284,130990894,ukd_base,-1.6654537916183472,0.31288841366767883,0.0,0.0,0.0,-0.9997329650844035,0.023108408070373353
1753093884.1348505,10548,1753108284,150949702,ukd_base,-1.6653327941894531,0.3376268446445465,0.0,0.0,0.0,-0.999734120820842,0.0230583535096968
1753093884.1485016,10549,1753108284,161275223,ukd_base,-1.669551968574524,0.33306026458740234,0.0,0.0,0.0,-0.9997375648007054,0.022908547015369665
1753093884.1649232,10550,1753108284,180921330,ukd_base,-1.6758745908737183,0.3434939384460449,0.0,0.0,0.0,-0.9997401690600014,0.022794612694226057
1753093884.174942,10551,1753108284,191026760,ukd_base,-1.6814042329788208,0.3599452078342438,0.0,0.0,0.0,-0.9997403673872062,0.022785912676346953
1753093884.2047274,10552,1753108284,211079752,ukd_base,-1.6876205205917358,0.3303530812263489,0.0,0.0,0.0,-0.9997451314403939,0.022575919942040657
1753093884.210688,10553,1753108284,221197220,ukd_base,-1.6921709775924683,0.3537677228450775,0.0,0.0,0.0,-0.9997495259998579,0.0223804661046074
1753093884.2348397,10554,1753108284,241052380,ukd_base,-1.7004210948944092,0.29679593443870544,0.0,0.0,0.0,-0.9997541890322896,0.02217118653543348
1753093884.2365456,10555,1753108284,251132385,ukd_base,-1.7024692296981812,0.30903416872024536,0.0,0.0,0.0,-0.9997617263713696,0.021828661959420303
1753093884.241143,10556,1753108284,260217140,ukd_base,-1.710526466369629,0.33071181178092957,0.0,0.0,0.0,-0.9997663357429887,0.021616519494072176
1753093884.2608864,10557,1753108284,280218521,ukd_base,-1.6970887184143066,0.3487005829811096,0.0,0.0,0.0,-0.9997678073997894,0.0215483476632797
1753093884.2815075,10558,1753108284,300216662,ukd_base,-1.704436182975769,0.3683261573314667,0.0,0.0,0.0,-0.9997704559059016,0.021425113715115962
1753093884.291885,10559,1753108284,310755051,ukd_base,-1.6987208127975464,0.3751194179058075,0.0,0.0,0.0,-0.9997722580843912,0.02134085201760739
1753093884.311383,10560,1753108284,330216660,ukd_base,-1.6934393644332886,0.3854481875896454,0.0,0.0,0.0,-0.9997700521850941,0.021443944455584923
1753093884.3210099,10561,1753108284,340216795,ukd_base,-1.6931358575820923,0.37757962942123413,0.0,0.0,0.0,-0.9997677072072192,0.021552995745838202
1753093884.3410423,10562,1753108284,360214195,ukd_base,-1.6931161880493164,0.38486945629119873,0.0,0.0,0.0,-0.9997654975034258,0.021655253444084286
1753093884.3511417,10563,1753108284,370214108,ukd_base,-1.680202841758728,0.4053887128829956,0.0,0.0,0.0,-0.9997619891190122,0.0218166246884412
1753093884.3708968,10564,1753108284,390215489,ukd_base,-1.6737802028656006,0.408428430557251,0.0,0.0,0.0,-0.9997596845097718,0.021921980497243067
1753093884.380831,10565,1753108284,400220125,ukd_base,-1.6696767807006836,0.42136162519454956,0.0,0.0,0.0,-0.9997547437514103,0.022146158731302778
1753093884.3908756,10566,1753108284,410216186,ukd_base,-1.6738630533218384,0.4144819676876068,0.0,0.0,0.0,-0.9997517886330132,0.0222791634737721
1753093884.4110081,10567,1753108284,430217530,ukd_base,-1.6670188903808594,0.42398515343666077,0.0,0.0,0.0,-0.9997502191891119,0.022349479441874397
1753093884.4207628,10568,1753108284,440213739,ukd_base,-1.6730517148971558,0.41212621331214905,0.0,0.0,0.0,-0.9997448891695107,0.022586646042357692
1753093884.44136,10569,1753108284,460217139,ukd_base,-1.6678780317306519,0.41670385003089905,0.0,0.0,0.0,-0.9997429387512534,0.022672812287131656
1753093884.4610538,10570,1753108284,480217465,ukd_base,-1.665738821029663,0.4013211131095886,0.0,0.0,0.0,-0.9997399135682532,0.022805815454431864
1753093884.4713838,10571,1753108284,490217119,ukd_base,-1.6675386428833008,0.41490763425827026,0.0,0.0,0.0,-0.9997347499166416,0.02303106183201754
1753093884.4909406,10572,1753108284,510217037,ukd_base,-1.66997492313385,0.3941856026649475,0.0,0.0,0.0,-0.9997317322976567,0.023161680360599648
1753093884.5011518,10573,1753108284,520215247,ukd_base,-1.6794606447219849,0.38536810874938965,0.0,0.0,0.0,-0.9997277332571708,0.023333652874746823
1753093884.5209353,10574,1753108284,540212665,ukd_base,-1.6707412004470825,0.41774335503578186,0.0,0.0,0.0,-0.999722369230451,0.02356235260439248
1753093884.5309377,10575,1753108284,550218467,ukd_base,-1.6905300617218018,0.40993380546569824,0.0,0.0,0.0,-0.9997180975167066,0.023742904152119795
1753093884.551079,10576,1753108284,570215978,ukd_base,-1.7010600566864014,0.4052479565143585,0.0,0.0,0.0,-0.9997178172399871,0.023754702543197503
1753093884.5807953,10577,1753108284,581249086,ukd_base,-1.700153112411499,0.4107443392276764,0.0,0.0,0.0,-0.9997141495713157,0.02390855802638662
1753093884.5948853,10578,1753108284,591279628,ukd_base,-1.6985793113708496,0.41837814450263977,0.0,0.0,0.0,-0.9997109628539338,0.024041438177875185
1753093884.596555,10579,1753108284,611114826,ukd_base,-1.69571053981781,0.405592679977417,0.0,0.0,0.0,-0.9997075077037195,0.024184686080609603
1753093884.6111984,10580,1753108284,630215900,ukd_base,-1.7015000581741333,0.3893539011478424,0.0,0.0,0.0,-0.9997015152002668,0.024431138047390395
1753093884.6210322,10581,1753108284,640214443,ukd_base,-1.6947405338287354,0.4108743369579315,0.0,0.0,0.0,-0.9996987946560258,0.02454220779166161
1753093884.6409056,10582,1753108284,660216565,ukd_base,-1.6943072080612183,0.40776708722114563,0.0,0.0,0.0,-0.9996958001532783,0.02466388363369764
1753093884.6515334,10583,1753108284,670218737,ukd_base,-1.6897883415222168,0.4102648198604584,0.0,0.0,0.0,-0.999692947418558,0.02477924295849844
1753093884.6708717,10584,1753108284,690214082,ukd_base,-1.6852965354919434,0.4173973798751831,0.0,0.0,0.0,-0.9996898795377578,0.02490270567194026
1753093884.680915,10585,1753108284,700214217,ukd_base,-1.6786378622055054,0.4239705801010132,0.0,0.0,0.0,-0.9996904047634125,0.024881612165703323
1753093884.7014852,10586,1753108284,720253172,ukd_base,-1.6752312183380127,0.423552542924881,0.0,0.0,0.0,-0.9996880213669058,0.02497718830294671
1753093884.7108972,10587,1753108284,730217585,ukd_base,-1.678920865058899,0.39848339557647705,0.0,0.0,0.0,-0.999688408323535,0.02496169592710408
1753093884.7309008,10588,1753108284,750215356,ukd_base,-1.6816385984420776,0.40573713183403015,0.0,0.0,0.0,-0.9996888931683737,0.024942270862769605
1753093884.7409966,10589,1753108284,760214639,ukd_base,-1.688214659690857,0.37758854031562805,0.0,0.0,0.0,-0.9996884886613397,0.02495847827906172
1753093884.760959,10590,1753108284,780216243,ukd_base,-1.6767020225524902,0.40083205699920654,0.0,0.0,0.0,-0.9996920280636651,0.024816305646816108
1753093884.7709174,10591,1753108284,790216785,ukd_base,-1.686477780342102,0.39344269037246704,0.0,0.0,0.0,-0.9996953471995543,0.02468223627556033
1753093884.7910464,10592,1753108284,810217796,ukd_base,-1.6794390678405762,0.4077729284763336,0.0,0.0,0.0,-0.9996944255475256,0.024719537398639538
1753093884.801503,10593,1753108284,820222672,ukd_base,-1.6864442825317383,0.4065859913825989,0.0,0.0,0.0,-0.9996973799055361,0.02459976849497377
1753093884.8208447,10594,1753108284,840215461,ukd_base,-1.690772294998169,0.39515525102615356,0.0,0.0,0.0,-0.9997001360370495,0.024487507172117992
1753093884.8308446,10595,1753108284,850219633,ukd_base,-1.6976897716522217,0.40973466634750366,0.0,0.0,0.0,-0.9997024929709845,0.02439109566212008
1753093884.840874,10596,1753108284,860214343,ukd_base,-1.6972540616989136,0.4032657742500305,0.0,0.0,0.0,-0.999703550412671,0.024347716367253407
