Time,header.seq,header.stamp.secs,header.stamp.nsecs,header.frame_id,pose.position.x,pose.position.y,pose.position.z,pose.orientation.x,pose.orientation.y,pose.orientation.z,pose.orientation.w
1753093820.9041958,7638,1753108220,860288941,ukd_base,-1.6658320426940918,0.5104766488075256,0.0,0.0,0.0,-0.9999999999999971,7.549789954891874e-08
1753093820.9602444,7639,1753108220,886315788,ukd_base,-1.6705358028411865,0.5217679738998413,0.0,0.0,0.0,-0.9999999999999971,7.549789954891874e-08
1753093820.9660501,7641,1753108220,926290570,ukd_base,-1.6619621515274048,0.490951806306839,0.0,0.0,0.0,-0.9999999999999971,7.549789954891874e-08
1753093821.0159755,7642,1753108220,956176532,ukd_base,-1.6649507284164429,0.49350476264953613,0.0,0.0,0.0,-0.9999999999999971,7.549789954891874e-08
1753093821.0172925,7643,1753108220,978265673,ukd_base,-1.6443442106246948,0.4973391592502594,0.0,0.0,0.0,-0.9999999999999971,7.549789954891874e-08
1753093821.0660493,7644,1753108221,114446,ukd_base,-1.6405632495880127,0.5016164183616638,0.0,0.0,0.0,0.9999999936057892,0.00011308590415265783
1753093821.1001873,7645,1753108221,32113482,ukd_base,-1.637910008430481,0.5148215889930725,0.0,0.0,0.0,0.9999986240708952,0.0016588720011681622
1753093821.101447,7646,1753108221,66301129,ukd_base,-1.6249783039093018,0.5209156274795532,0.0,0.0,0.0,0.9999934603707711,0.003616519831414712
1753093821.1741126,7647,1753108221,106120060,ukd_base,-1.6173774003982544,0.4868106245994568,0.0,0.0,0.0,0.9999842569401107,0.005611227310906857
1753093821.1919975,7648,1753108221,130294368,ukd_base,-1.6144838333129883,0.4979667663574219,0.0,0.0,0.0,0.9999528267735482,0.009713095674927915
1753093821.248131,7649,1753108221,160136183,ukd_base,-1.6173197031021118,0.4853382706642151,0.0,0.0,0.0,0.9998927840332549,0.014643102069801907
1753093821.2601497,7651,1753108221,210249598,ukd_base,-1.6227918863296509,0.5153295993804932,0.0,0.0,0.0,0.9997948083926572,0.020256878118058295
1753093821.3241613,7652,1753108221,242038025,ukd_base,-1.5875062942504883,0.5552210211753845,0.0,0.0,0.0,0.999767277933111,0.021572899068447237
1753093821.3254375,7653,1753108221,266314740,ukd_base,-1.580295205116272,0.5068305134773254,0.0,0.0,0.0,0.9998009699065253,0.019950452976589653
1753093821.3701766,7654,1753108221,300213111,ukd_base,-1.5752753019332886,0.519080638885498,0.0,0.0,0.0,0.9998576248441893,0.01687394562443894
1753093821.3822663,7655,1753108221,336155817,ukd_base,-1.5768076181411743,0.5138154029846191,0.0,0.0,0.0,0.9999112831651307,0.013320127591804858
1753093821.456181,7656,1753108221,368260649,ukd_base,-1.5696974992752075,0.5530773997306824,0.0,0.0,0.0,-0.9999999999999971,7.549789954891874e-08
1753093821.4741879,7658,1753108221,416204935,ukd_base,-1.5257691144943237,0.5733519196510315,0.0,0.0,0.0,-0.9999999999999971,7.549789954891874e-08
1753093821.506207,7659,1753108221,440172375,ukd_base,-1.541569709777832,0.5565478801727295,0.0,0.0,0.0,-0.9999999999999971,7.549789954891874e-08
1753093821.5319257,7661,1753108221,486146697,ukd_base,-1.5168430805206299,0.5557933449745178,0.0,0.0,0.0,-0.9999999999999971,7.549789954891874e-08
1753093821.6060724,7662,1753108221,516153658,ukd_base,-1.4702383279800415,0.5062720775604248,0.0,0.0,0.0,-0.9999999999999971,7.549789954891874e-08
1753093821.6073973,7663,1753108221,540320966,ukd_base,-1.4548768997192383,0.5272670984268188,0.0,0.0,0.0,-0.9999999999999971,7.549789954891874e-08
1753093821.6500165,7664,1753108221,566193315,ukd_base,-1.4458684921264648,0.5576003193855286,0.0,0.0,0.0,-0.9999999999999971,7.549789954891874e-08
1753093821.6514013,7665,1753108221,614258415,ukd_base,-1.412007451057434,0.5706086158752441,0.0,0.0,0.0,-0.9999999999999971,7.549789954891874e-08
1753093821.6841505,7666,1753108221,634331481,ukd_base,-1.3949956893920898,0.5936564207077026,0.0,0.0,0.0,-0.9999999999999971,7.549789954891874e-08
1753093821.7401261,7667,1753108221,676115710,ukd_base,-1.3571593761444092,0.5738618969917297,0.0,0.0,0.0,-0.9999999999999971,7.549789954891874e-08
1753093821.7461567,7668,1753108221,710078525,ukd_base,-1.3153733015060425,0.5587139129638672,0.0,0.0,0.0,-0.9999999999999971,7.549789954891874e-08
1753093821.8061233,7669,1753108221,730145517,ukd_base,-1.268627643585205,0.552372932434082,0.0,0.0,0.0,-0.9999999999999971,7.549789954891874e-08
1753093821.826273,7671,1753108221,780168841,ukd_base,-1.24778151512146,0.5126222372055054,0.0,0.0,0.0,-0.9999999999999971,7.549789954891874e-08
1753093821.8663042,7672,1753108221,808287152,ukd_base,-1.2125568389892578,0.511171281337738,0.0,0.0,0.0,-0.9999999999999971,7.549789954891874e-08
1753093821.880036,7673,1753108221,840109115,ukd_base,-1.1637487411499023,0.564400315284729,0.0,0.0,0.0,-0.9999999999999971,7.549789954891874e-08
1753093821.924157,7674,1753108221,856162735,ukd_base,-1.1358400583267212,0.597423255443573,0.0,0.0,0.0,-0.9999999999999971,7.549789954891874e-08
1753093821.9259045,7675,1753108221,894110923,ukd_base,-1.0987848043441772,0.6207728385925293,0.0,0.0,0.0,-0.9999999999999971,7.549789954891874e-08
1753093821.9818988,7676,1753108221,916261897,ukd_base,-1.0740739107131958,0.6264491081237793,0.0,0.0,0.0,-0.9999999999999971,7.549789954891874e-08
1753093821.992076,7678,1753108221,962136701,ukd_base,-1.033084511756897,0.5942226648330688,0.0,0.0,0.0,-0.9999999999999971,7.549789954891874e-08
1753093822.030137,7679,1753108221,990094736,ukd_base,-1.0104354619979858,0.5684855580329895,0.0,0.0,0.0,-0.9999999999999971,7.549789954891874e-08
1753093822.0423014,7680,1753108222,10285893,ukd_base,-0.9862484931945801,0.5867003202438354,0.0,0.0,0.0,-0.9999999999999971,7.549789954891874e-08
1753093822.0801673,7681,1753108222,44163080,ukd_base,-0.9578229784965515,0.5691357254981995,0.0,0.0,0.0,-0.9999999999999971,7.549789954891874e-08
1753093822.0815244,7682,1753108222,60224051,ukd_base,-0.941739022731781,0.5643844604492188,0.0,0.0,0.0,-0.9999999999999971,7.549789954891874e-08
1753093822.1501133,7683,1753108222,84312897,ukd_base,-0.9381296634674072,0.565783679485321,0.0,0.0,0.0,-0.9999999999999971,7.549789954891874e-08
1753093822.1516094,7684,1753108222,106266391,ukd_base,-0.9005310535430908,0.5827018022537231,0.0,0.0,0.0,-0.9999999999999971,7.549789954891874e-08
1753093822.1941557,7685,1753108222,136328278,ukd_base,-0.8614619374275208,0.5665770769119263,0.0,0.0,0.0,-0.9999999999999971,7.549789954891874e-08
1753093822.195678,7686,1753108222,168295722,ukd_base,-0.828155517578125,0.5609073042869568,0.0,0.0,0.0,-0.9999999999999971,7.549789954891874e-08
1753093822.2240326,7687,1753108222,196251089,ukd_base,-0.8066966533660889,0.5809473991394043,0.0,0.0,0.0,-0.9999958516209702,0.0028804063690131233
1753093822.2541192,7688,1753108222,234262647,ukd_base,-0.7555544972419739,0.5734267234802246,0.0,0.0,0.0,-0.9999633091695465,0.00856623106681428
1753093822.328172,7689,1753108222,258258364,ukd_base,-0.7037253975868225,0.5891321301460266,0.0,0.0,0.0,-0.9999452687679873,0.01046228791984261
1753093822.3360124,7690,1753108222,286077493,ukd_base,-0.6751986145973206,0.5850517153739929,0.0,0.0,0.0,-0.9999940840990345,0.0034397335555407193
1753093822.3741317,7691,1753108222,304214279,ukd_base,-0.6581109762191772,0.5937759876251221,0.0,0.0,0.0,0.999997833990863,0.002081348981425033
1753093822.3841424,7692,1753108222,336106965,ukd_base,-0.6456589102745056,0.6012094020843506,0.0,0.0,0.0,0.9998661840227232,0.016358913406389747
1753093822.444209,7693,1753108222,362314162,ukd_base,-0.5982117056846619,0.6045492887496948,0.0,0.0,0.0,0.9997267003102238,0.023377867456890515
1753093822.4560328,7695,1753108222,420147585,ukd_base,-0.5611900091171265,0.5660890340805054,0.0,0.0,0.0,0.9996225936963448,0.02747126083368814
1753093822.494309,7696,1753108222,436307352,ukd_base,-0.5538839101791382,0.5660784244537354,0.0,0.0,0.0,-0.9999999999999971,7.549789954891874e-08
1753093822.5360796,7697,1753108222,480073471,ukd_base,-0.5304581522941589,0.5794382095336914,0.0,0.0,0.0,-0.9999999999999971,7.549789954891874e-08
1753093822.553969,7699,1753108222,526163366,ukd_base,-0.4898696541786194,0.5878471732139587,0.0,0.0,0.0,-0.9999999999999971,7.549789954891874e-08
1753093822.58828,7700,1753108222,546115692,ukd_base,-0.46530961990356445,0.5864747166633606,0.0,0.0,0.0,-0.9999999999999971,7.549789954891874e-08
1753093822.6040452,7701,1753108222,570140372,ukd_base,-0.4753172993659973,0.5858714580535889,0.0,0.0,0.0,-0.9999999999999971,7.549789954891874e-08
1753093822.6701226,7702,1753108222,600082037,ukd_base,-0.4665224850177765,0.5626119375228882,0.0,0.0,0.0,-0.9999999999999971,7.549789954891874e-08
1753093822.6715162,7703,1753108222,620143529,ukd_base,-0.4607653021812439,0.5436083078384399,0.0,0.0,0.0,-0.9999999999999971,7.549789954891874e-08
1753093822.7262642,7704,1753108222,646231006,ukd_base,-0.40811020135879517,0.5596882104873657,0.0,0.0,0.0,-0.9999998429320036,0.0005604783387333665
1753093822.7340248,7706,1753108222,692127477,ukd_base,-0.37055325508117676,0.5792680978775024,0.0,0.0,0.0,0.9999981578290257,0.001919463090296079
1753093822.80427,7707,1753108222,710288874,ukd_base,-0.3581298887729645,0.5737579464912415,0.0,0.0,0.0,0.9999855086381029,0.005383541008915074
1753093822.8122005,7709,1753108222,760282457,ukd_base,-0.33254706859588623,0.5716603994369507,0.0,0.0,0.0,-0.9999999999999971,7.549789954891874e-08
1753093822.8461494,7710,1753108222,784193212,ukd_base,-0.27450791001319885,0.5896992683410645,0.0,0.0,0.0,-0.9999999999999971,7.549789954891874e-08
1753093822.847515,7712,1753108222,830321940,ukd_base,-0.2564551830291748,0.5847203731536865,0.0,0.0,0.0,-0.9999999999999971,7.549789954891874e-08
1753093822.9281723,7713,1753108222,850290211,ukd_base,-0.21272575855255127,0.6024900674819946,0.0,0.0,0.0,-0.9999999999999971,7.549789954891874e-08
1753093822.9439905,7714,1753108222,886206398,ukd_base,-0.1535695642232895,0.6385294795036316,0.0,0.0,0.0,-0.9999999999999971,7.549789954891874e-08
1753093823.0001426,7715,1753108222,916158360,ukd_base,-0.09804657846689224,0.6377078890800476,0.0,0.0,0.0,0.9999986864310327,0.0016208442889346785
1753093823.0202467,7717,1753108222,960244032,ukd_base,-0.0445844791829586,0.6571031808853149,0.0,0.0,0.0,0.9999804242091324,0.00625709185834736
1753093823.0903409,7718,1753108222,992094662,ukd_base,-0.016611972823739052,0.6684144735336304,0.0,0.0,0.0,0.9999987631445865,0.001572803006499381
1753093823.0917497,7720,1753108223,36148056,ukd_base,0.03800902143120766,0.676680326461792,0.0,0.0,0.0,-0.9999294662402484,0.011876975393257567
1753093823.1401205,7721,1753108223,62141515,ukd_base,0.08604013174772263,0.6682800054550171,0.0,0.0,0.0,-0.9998559240747543,0.016974424662388823
1753093823.1414716,7722,1753108223,84272563,ukd_base,0.09304511547088623,0.6722486019134521,0.0,0.0,0.0,-0.9998293814588851,0.018471815599532843
1753093823.190243,7723,1753108223,120138732,ukd_base,0.12792585790157318,0.6714645624160767,0.0,0.0,0.0,-0.9997754926976095,0.02118877535989986
1753093823.204103,7724,1753108223,158183012,ukd_base,0.21300993859767914,0.6564606428146362,0.0,0.0,0.0,-0.9997282448289003,0.02331172433189546
1753093823.2601032,7725,1753108223,178274949,ukd_base,0.25649166107177734,0.6503573060035706,0.0,0.0,0.0,-0.9997387214301793,0.0228580155120772
1753093823.2614732,7727,1753108223,234114777,ukd_base,0.3713129758834839,0.585263729095459,0.0,0.0,0.0,-0.9999999999999971,7.549789954891874e-08
1753093823.3061688,7728,1753108223,248296561,ukd_base,0.3752761781215668,0.5851860046386719,0.0,0.0,0.0,-0.9999999999999971,7.549789954891874e-08
1753093823.3074884,7729,1753108223,286101492,ukd_base,0.41394051909446716,0.5863456130027771,0.0,0.0,0.0,-0.9999999999999971,7.549789954891874e-08
1753093823.3541362,7730,1753108223,310188615,ukd_base,0.39370107650756836,0.604010283946991,0.0,0.0,0.0,-0.9999999999999971,7.549789954891874e-08
1753093823.3749962,7731,1753108223,336253499,ukd_base,0.4470629096031189,0.5908017754554749,0.0,0.0,0.0,-0.9999999999999971,7.549789954891874e-08
1753093823.3764043,7732,1753108223,360225531,ukd_base,0.4584123492240906,0.5893214344978333,0.0,0.0,0.0,-0.9999999999999971,7.549789954891874e-08
1753093823.4261363,7733,1753108223,386217046,ukd_base,0.49178051948547363,0.5700226426124573,0.0,0.0,0.0,-0.9999999999999971,7.549789954891874e-08
1753093823.5162668,7734,1753108223,396297199,ukd_base,0.4912848174571991,0.5732802152633667,0.0,0.0,0.0,-0.9999999999999971,7.549789954891874e-08
1753093823.5459757,7735,1753108223,416205303,ukd_base,0.5176713466644287,0.551632821559906,0.0,0.0,0.0,-0.9999999999999971,7.549789954891874e-08
1753093823.6002681,7736,1753108223,462148774,ukd_base,0.512484073638916,0.5917192101478577,0.0,0.0,0.0,-0.9999999999999971,7.549789954891874e-08
1753093823.6120062,7737,1753108223,520258768,ukd_base,0.5205861926078796,0.5939646363258362,0.0,0.0,0.0,-0.9999999999999971,7.549789954891874e-08
1753093823.67601,7738,1753108223,570302518,ukd_base,0.5082581639289856,0.5909656882286072,0.0,0.0,0.0,-0.9999999999999971,7.549789954891874e-08
1753093823.6775854,7739,1753108223,624246159,ukd_base,0.5277668833732605,0.6072660088539124,0.0,0.0,0.0,-0.9999999999999971,7.549789954891874e-08
1753093823.7262697,7740,1753108223,654110973,ukd_base,0.5052782893180847,0.609925389289856,0.0,0.0,0.0,-0.9999999999999971,7.549789954891874e-08
1753093823.738105,7741,1753108223,682090767,ukd_base,0.5057846903800964,0.629469096660614,0.0,0.0,0.0,-0.9999999999999971,7.549789954891874e-08
1753093823.796258,7742,1753108223,710226133,ukd_base,0.5064871311187744,0.6629345417022705,0.0,0.0,0.0,-0.9999999999999971,7.549789954891874e-08
1753093823.8119729,7743,1753108223,744206689,ukd_base,0.5445244312286377,0.6691290140151978,0.0,0.0,0.0,-0.9999999999999971,7.549789954891874e-08
1753093823.8641117,7744,1753108223,774103855,ukd_base,0.5529085993766785,0.6627730131149292,0.0,0.0,0.0,-0.9999999999999971,7.549789954891874e-08
1753093823.8760993,7746,1753108223,826233457,ukd_base,0.5486711263656616,0.6837934851646423,0.0,0.0,0.0,-0.9999999999999971,7.549789954891874e-08
1753093823.9261997,7747,1753108223,846258486,ukd_base,0.5663695931434631,0.6744240522384644,0.0,0.0,0.0,-0.9999999999999971,7.549789954891874e-08
1753093823.9399753,7749,1753108223,900176128,ukd_base,0.5889548063278198,0.6967340707778931,0.0,0.0,0.0,-0.9999999999999971,7.549789954891874e-08
1753093823.9940495,7750,1753108223,930325680,ukd_base,0.6191746592521667,0.6987771391868591,0.0,0.0,0.0,-0.9999999999999971,7.549789954891874e-08
1753093824.0060883,7751,1753108223,956054901,ukd_base,0.6163190603256226,0.7111826539039612,0.0,0.0,0.0,-0.9999999999999971,7.549789954891874e-08
1753093824.044106,7752,1753108223,980291264,ukd_base,0.5813702344894409,0.7370348572731018,0.0,0.0,0.0,-0.9999999999999971,7.549789954891874e-08
1753093824.0560794,7754,1753108224,40112150,ukd_base,0.6397706866264343,0.7465652227401733,0.0,0.0,0.0,-0.9999988875319188,0.001491621575631547
1753093824.0999455,7755,1753108224,58205048,ukd_base,0.6328719854354858,0.7589992880821228,0.0,0.0,0.0,-0.9999973179027959,0.0023160715046469365
1753093824.1012602,7756,1753108224,80168283,ukd_base,0.6716334223747253,0.725646436214447,0.0,0.0,0.0,-0.9999924233141906,0.0038927258075408355
1753093824.1260817,7757,1753108224,96230921,ukd_base,0.6639809012413025,0.7331554889678955,0.0,0.0,0.0,-0.999983403519393,0.005761309379901201
1753093824.154036,7758,1753108224,134218794,ukd_base,0.6726993918418884,0.7551223039627075,0.0,0.0,0.0,-0.9999472901736921,0.010267271998440693
1753093824.231857,7759,1753108224,160218068,ukd_base,0.6382439732551575,0.7982527613639832,0.0,0.0,0.0,-0.999950309217791,0.00996890642167183
1753093824.233444,7760,1753108224,180252986,ukd_base,0.6470335721969604,0.7942280769348145,0.0,0.0,0.0,-0.99995004742893,0.009995131158749036
1753093824.280094,7761,1753108224,212125320,ukd_base,0.6640257239341736,0.7955650091171265,0.0,0.0,0.0,-0.9999052582318078,0.013764975858382116
1753093824.2813962,7762,1753108224,240220723,ukd_base,0.6644588708877563,0.8147866725921631,0.0,0.0,0.0,-0.9999175531687271,0.012840828052187099
1753093824.30604,7763,1753108224,276214373,ukd_base,0.6769729256629944,0.7890247702598572,0.0,0.0,0.0,-0.9999972607252396,0.002340628551729008
1753093824.3642688,7764,1753108224,302067518,ukd_base,0.6941578388214111,0.7781189680099487,0.0,0.0,0.0,-0.9999999855587137,0.00016994873469131943
1753093824.4301293,7765,1753108224,344183429,ukd_base,0.7121244072914124,0.7569317817687988,0.0,0.0,0.0,-0.9999992444815547,0.001229242172885849
1753093824.4440472,7767,1753108224,400306552,ukd_base,0.7087719440460205,0.7482840418815613,0.0,0.0,0.0,-0.9999763607619312,0.006875893929088901
1753093824.4900873,7768,1753108224,434256071,ukd_base,0.6986951231956482,0.7698409557342529,0.0,0.0,0.0,-0.9999571098107584,0.009261670417097731
1753093824.5361102,7769,1753108224,476251428,ukd_base,0.6837612390518188,0.7640404105186462,0.0,0.0,0.0,-0.9999999999999971,7.549789954891874e-08
1753093824.5600677,7770,1753108224,512137134,ukd_base,0.661239504814148,0.7721752524375916,0.0,0.0,0.0,-0.9999999999999971,7.549789954891874e-08
1753093824.5802286,7771,1753108224,544317243,ukd_base,0.6682161092758179,0.7724109292030334,0.0,0.0,0.0,-0.9999999999999971,7.549789954891874e-08
1753093824.6499906,7772,1753108224,584121952,ukd_base,0.7236788868904114,0.7085266709327698,0.0,0.0,0.0,-0.9999999999999971,7.549789954891874e-08
1753093824.695942,7773,1753108224,616313153,ukd_base,0.6583039164543152,0.7407031059265137,0.0,0.0,0.0,-0.9999999999999971,7.549789954891874e-08
1753093824.697771,7774,1753108224,656216250,ukd_base,0.5947787165641785,0.7597320675849915,0.0,0.0,0.0,-0.9999999999999971,7.549789954891874e-08
1753093824.740249,7775,1753108224,680049210,ukd_base,0.6103203296661377,0.7492941617965698,0.0,0.0,0.0,-0.9999999999999971,7.549789954891874e-08
1753093824.7460897,7776,1753108224,700327533,ukd_base,0.5867348909378052,0.7486011385917664,0.0,0.0,0.0,-0.9999999999999971,7.549789954891874e-08
1753093824.8061855,7777,1753108224,730246513,ukd_base,0.5922638773918152,0.7334946990013123,0.0,0.0,0.0,-0.9999999999999971,7.549789954891874e-08
1753093824.8080595,7778,1753108224,762131736,ukd_base,0.6191337704658508,0.689863383769989,0.0,0.0,0.0,-0.9999999999999971,7.549789954891874e-08
1753093824.8500884,7779,1753108224,792148271,ukd_base,0.6249725222587585,0.700412929058075,0.0,0.0,0.0,-0.9999999999999971,7.549789954891874e-08
1753093824.851533,7780,1753108224,824307417,ukd_base,0.6085881590843201,0.6965503692626953,0.0,0.0,0.0,-0.9999999999999971,7.549789954891874e-08
1753093824.9101582,7781,1753108224,850189377,ukd_base,0.5599111914634705,0.7083699703216553,0.0,0.0,0.0,-0.9999999999999971,7.549789954891874e-08
1753093824.9364762,7782,1753108224,884200229,ukd_base,0.596373975276947,0.6946558356285095,0.0,0.0,0.0,-0.9999999999999971,7.549789954891874e-08
1753093824.9840786,7783,1753108224,900232978,ukd_base,0.5801180005073547,0.6866158843040466,0.0,0.0,0.0,-0.9999999999999971,7.549789954891874e-08
1753093824.9901984,7785,1753108224,964258791,ukd_base,0.5874924659729004,0.6586097478866577,0.0,0.0,0.0,-0.9999999999999971,7.549789954891874e-08
1753093825.0399504,7786,1753108225,167479,ukd_base,0.5811582803726196,0.6584110856056213,0.0,0.0,0.0,-0.9999999999999971,7.549789954891874e-08
1753093825.096191,7787,1753108225,30153255,ukd_base,0.584308922290802,0.6325460076332092,0.0,0.0,0.0,-0.9999999999999971,7.549789954891874e-08
1753093825.106209,7788,1753108225,50185654,ukd_base,0.5670134425163269,0.6235248446464539,0.0,0.0,0.0,-0.9999999999999971,7.549789954891874e-08
1753093825.1600733,7789,1753108225,80113320,ukd_base,0.5577810406684875,0.6513814926147461,0.0,0.0,0.0,-0.9999999999999971,7.549789954891874e-08
1753093825.1617725,7791,1753108225,134249182,ukd_base,0.5602169632911682,0.6558385491371155,0.0,0.0,0.0,-0.9999999999999971,7.549789954891874e-08
1753093825.2102,7792,1753108225,158254547,ukd_base,0.5407891869544983,0.6632476449012756,0.0,0.0,0.0,-0.9999999999999971,7.549789954891874e-08
1753093825.2661283,7793,1753108225,190183880,ukd_base,0.531816840171814,0.6388376355171204,0.0,0.0,0.0,-0.9999999999999971,7.549789954891874e-08
1753093825.284073,7794,1753108225,216260023,ukd_base,0.5287095308303833,0.6257467865943909,0.0,0.0,0.0,-0.9999999999999971,7.549789954891874e-08
1753093825.3188407,7795,1753108225,244286502,ukd_base,0.5217088460922241,0.6301766037940979,0.0,0.0,0.0,-0.9999999999999971,7.549789954891874e-08
1753093825.3241823,7797,1753108225,300105794,ukd_base,0.482448548078537,0.6544055342674255,0.0,0.0,0.0,-0.9999999999999971,7.549789954891874e-08
1753093825.43847,7798,1753108225,316269894,ukd_base,0.44848981499671936,0.6662207841873169,0.0,0.0,0.0,-0.9999999999999971,7.549789954891874e-08
1753093825.439769,7800,1753108225,350308542,ukd_base,0.445263534784317,0.6599676609039307,0.0,0.0,0.0,-0.9999999999999971,7.549789954891874e-08
1753093825.4416144,7801,1753108225,426312547,ukd_base,0.35722190141677856,0.6673882603645325,0.0,0.0,0.0,-0.9999999999999971,7.549789954891874e-08
1753093825.4416506,7802,1753108225,458039586,ukd_base,0.31251057982444763,0.6650533080101013,0.0,0.0,0.0,-0.9999999999999971,7.549789954891874e-08
1753093825.4496362,7803,1753108225,468454773,ukd_base,0.2704785168170929,0.6913460493087769,0.0,0.0,0.0,-0.9999999999999971,7.549789954891874e-08
1753093825.4591444,7804,1753108225,478121892,ukd_base,0.2426646649837494,0.704012930393219,0.0,0.0,0.0,-0.9999999999999971,7.549789954891874e-08
1753093825.479304,7805,1753108225,498119755,ukd_base,0.2163909673690796,0.695371687412262,0.0,0.0,0.0,-0.9999999999999971,7.549789954891874e-08
1753093825.489203,7806,1753108225,508119205,ukd_base,0.18383456766605377,0.69591224193573,0.0,0.0,0.0,-0.9999999999999971,7.549789954891874e-08
1753093825.5559518,7807,1753108225,528267400,ukd_base,0.16004258394241333,0.6956769824028015,0.0,0.0,0.0,-0.9999999999999971,7.549789954891874e-08
1753093825.5800683,7808,1753108225,544191762,ukd_base,0.15199807286262512,0.6870822906494141,0.0,0.0,0.0,-0.9999999999999971,7.549789954891874e-08
1753093825.5814362,7810,1753108225,572316794,ukd_base,0.09598198533058167,0.6943072080612183,0.0,0.0,0.0,-0.9999999999999971,7.549789954891874e-08
1753093825.620125,7811,1753108225,592115159,ukd_base,0.04160739481449127,0.7024058699607849,0.0,0.0,0.0,-0.9999999999999971,7.549789954891874e-08
1753093825.628064,7812,1753108225,612097522,ukd_base,0.04558059945702553,0.705110490322113,0.0,0.0,0.0,0.9999981219605266,0.0019380597048748124
1753093825.69601,7813,1753108225,636188942,ukd_base,0.038149941712617874,0.7125870585441589,0.0,0.0,0.0,0.9999992117498229,0.001255587405542608
1753093825.7000785,7814,1753108225,650315208,ukd_base,0.013476124964654446,0.7093972563743591,0.0,0.0,0.0,-0.9999977124931562,0.0021389269400815024
1753093825.7761204,7815,1753108225,696300289,ukd_base,-0.04694060608744621,0.7079526782035828,0.0,0.0,0.0,-0.9998171808783713,0.019120795496686823
1753093825.7899427,7817,1753108225,766329272,ukd_base,-0.10996413975954056,0.6886194944381714,0.0,0.0,0.0,-0.9999062434866373,0.013693218629736364
1753093825.8400712,7818,1753108225,800135348,ukd_base,-0.17017889022827148,0.6962012052536011,0.0,0.0,0.0,-0.999995951279525,0.0028455973991276602
1753093825.8559752,7819,1753108225,816287449,ukd_base,-0.1911051720380783,0.6948896050453186,0.0,0.0,0.0,0.999996509941766,0.0026419886993548675
1753093825.9141269,7820,1753108225,856246804,ukd_base,-0.20020857453346252,0.6772221326828003,0.0,0.0,0.0,0.9999628029755164,0.008625118280264068
1753093825.9154634,7821,1753108225,894207437,ukd_base,-0.22027507424354553,0.6793153882026672,0.0,0.0,0.0,0.9999902349844625,0.004419268686037913
1753093825.9178371,7822,1753108225,924331249,ukd_base,-0.25056618452072144,0.6882336139678955,0.0,0.0,0.0,-0.9999985405760319,0.0017084629953273618
1753093825.9191496,7823,1753108225,935178877,ukd_base,-0.2530011832714081,0.6833683252334595,0.0,0.0,0.0,-0.999987357409448,0.0050284213495764745
1753093825.9254313,7824,1753108225,944407352,ukd_base,-0.2597954571247101,0.6812321543693542,0.0,0.0,0.0,-0.9999685199172085,0.007934681757161107
1753093825.9354482,7825,1753108225,954515819,ukd_base,-0.2723453938961029,0.6830708980560303,0.0,0.0,0.0,-0.9999418559548261,0.010783538826279386
1753093825.9558446,7826,1753108225,974990419,ukd_base,-0.287610799074173,0.6815537214279175,0.0,0.0,0.0,-0.9999183655147522,0.012777413913089397
1753093825.9655821,7827,1753108225,984480096,ukd_base,-0.29998451471328735,0.6828382015228271,0.0,0.0,0.0,-0.9999006903114593,0.014092888797796401
1753093825.9855509,7828,1753108226,4514958,ukd_base,-0.3067336082458496,0.6647214293479919,0.0,0.0,0.0,-0.9998930980099467,0.0146216466949184
1753093826.0055532,7829,1753108226,24426933,ukd_base,-0.325435608625412,0.6517201066017151,0.0,0.0,0.0,-0.9998775693838086,0.015647563488518118
1753093826.0155525,7830,1753108226,34418624,ukd_base,-0.35691821575164795,0.6561228632926941,0.0,0.0,0.0,-0.9998438076022433,0.01767372058872104
1753093826.0355437,7831,1753108226,54530949,ukd_base,-0.37111303210258484,0.6527178883552551,0.0,0.0,0.0,-0.9997766732623642,0.021132997904694417
1753093826.0451822,7832,1753108226,64422437,ukd_base,-0.3726491332054138,0.6446295380592346,0.0,0.0,0.0,-0.9996807711747124,0.02526570290991973
1753093826.0555556,7833,1753108226,74413628,ukd_base,-0.4037112891674042,0.631139874458313,0.0,0.0,0.0,-0.9995012524841709,0.03157920649056273
1753093826.119129,7834,1753108226,100216329,ukd_base,-0.42301177978515625,0.6295285820960999,0.0,0.0,0.0,-0.9992412923219657,0.03894662653847995
1753093826.1204867,7835,1753108226,137063267,ukd_base,-0.4512573182582855,0.6191425323486328,0.0,0.0,0.0,-0.9982084860762066,0.05983158300970939
1753093826.1289759,7836,1753108226,147157365,ukd_base,-0.4913578927516937,0.5971242189407349,0.0,0.0,0.0,-0.9974522640904371,0.07133709316240087
1753093826.1387677,7837,1753108226,157151259,ukd_base,-0.5139029622077942,0.5885125398635864,0.0,0.0,0.0,-0.9968243584780041,0.0796316416063084
1753093826.1492395,7838,1753108226,167156691,ukd_base,-0.5253486633300781,0.5818360447883606,0.0,0.0,0.0,-0.9962537982014058,0.08647756685564478
1753093826.1691573,7839,1753108226,187463014,ukd_base,-0.540192186832428,0.5747218132019043,0.0,0.0,0.0,-0.9960711502879216,0.08855655573754427
1753093826.2012084,7840,1753108226,202149145,ukd_base,-0.5406721830368042,0.5870837569236755,0.0,0.0,0.0,-0.9963421453566623,0.08545366806687421
1753093826.2027302,7841,1753108226,219076720,ukd_base,-0.5340290665626526,0.5979204773902893,0.0,0.0,0.0,-0.9968513366115352,0.07929320712265181
1753093826.3319757,7842,1753108226,232147032,ukd_base,-0.5629429817199707,0.574280321598053,0.0,0.0,0.0,-0.9974833446649674,0.07090117852327986
1753093826.3380575,7844,1753108226,276080835,ukd_base,-0.5885767936706543,0.6096748113632202,0.0,0.0,0.0,-0.9985181146491875,0.0544203520517106
1753093826.396351,7845,1753108226,294101438,ukd_base,-0.6076780557632446,0.6130538582801819,0.0,0.0,0.0,-0.998593254716735,0.05302368936841345
1753093826.4199076,7850,1753108226,384251227,ukd_base,-0.5935828685760498,0.6613055467605591,0.0,0.0,0.0,-0.9977624416756342,0.0668588810965056
1753093826.4700596,7851,1753108226,420289728,ukd_base,-0.609020471572876,0.6826469302177429,0.0,0.0,0.0,-0.997220731345448,0.07450377825889028
1753093826.4714239,7852,1753108226,446218669,ukd_base,-0.6336290836334229,0.6816554069519043,0.0,0.0,0.0,-0.9971943442043087,0.0748561279184185
1753093826.516081,7853,1753108226,486254209,ukd_base,-0.655810534954071,0.6938162446022034,0.0,0.0,0.0,-0.9978162009736801,0.06605171515148132
1753093826.556405,7854,1753108226,530211123,ukd_base,-0.6871108412742615,0.7000241279602051,0.0,0.0,0.0,-0.9982624237369484,0.05892481102925321
1753093826.5762873,7855,1753108226,560308861,ukd_base,-0.6678373217582703,0.7025742530822754,0.0,0.0,0.0,-0.9982847384067535,0.05854554691998218
1753093826.6301851,7856,1753108226,592114788,ukd_base,-0.7172266840934753,0.6663179993629456,0.0,0.0,0.0,-0.9980834805176086,0.061881870671921364
1753093826.666186,7857,1753108226,624237823,ukd_base,-0.7051592469215393,0.6828510165214539,0.0,0.0,0.0,-0.9979136640995508,0.06456252011352112
1753093826.6695578,7858,1753108226,654225636,ukd_base,-0.7329033613204956,0.6727890372276306,0.0,0.0,0.0,-0.9981960898720051,0.060038039310422085
1753093826.673205,7859,1753108226,680125874,ukd_base,-0.7796109914779663,0.626092791557312,0.0,0.0,0.0,-0.998557551868944,0.05369185790696088
1753093826.6745343,7860,1753108226,690856891,ukd_base,-0.8196955919265747,0.6136134266853333,0.0,0.0,0.0,-0.9987124239013412,0.05072961999766818
1753093826.6911776,7861,1753108226,710210260,ukd_base,-0.8311502933502197,0.6163533329963684,0.0,0.0,0.0,-0.9989304636465645,0.04623774214707948
1753093826.7705371,7862,1753108226,730229882,ukd_base,-0.8485994338989258,0.6000597476959229,0.0,0.0,0.0,-0.9991282806090321,0.04174540558240165
1753093826.7860665,7863,1753108226,746306853,ukd_base,-0.8635311126708984,0.6156541109085083,0.0,0.0,0.0,-0.9993563032589112,0.03587449144842497
1753093826.790978,7864,1753108226,780152929,ukd_base,-0.8904444575309753,0.6301424503326416,0.0,0.0,0.0,-0.9996728556134623,0.02557697694462039
1753093826.7923336,7866,1753108226,810368758,ukd_base,-0.928732693195343,0.599717915058136,0.0,0.0,0.0,-0.9999630534318936,0.008596032291921437
1753093826.8111324,7867,1753108226,830337307,ukd_base,-0.9428589940071106,0.5911898016929626,0.0,0.0,0.0,-0.9999871140781905,0.005076581287830663
1753093826.8215513,7868,1753108226,840369997,ukd_base,-0.9730625748634338,0.5804005861282349,0.0,0.0,0.0,-0.9999983610326885,0.0018105059891865708
1753093826.841321,7869,1753108226,860336323,ukd_base,-0.9688432216644287,0.5914502739906311,0.0,0.0,0.0,0.9999993720799011,0.0011206425851188328
1753093826.8616226,7870,1753108226,880343742,ukd_base,-0.9781802296638489,0.6019880771636963,0.0,0.0,0.0,0.9999920603585871,0.0039848738735234765
1753093826.8715818,7871,1753108226,890471080,ukd_base,-1.0008652210235596,0.6059504747390747,0.0,0.0,0.0,0.9999730691011465,0.007339010317045955
1753093826.8814223,7872,1753108226,900338642,ukd_base,-1.0207808017730713,0.5959324836730957,0.0,0.0,0.0,0.9999608891515762,0.008844216595552814
1753093826.90158,7873,1753108226,920338875,ukd_base,-1.0346782207489014,0.5886397361755371,0.0,0.0,0.0,0.9999670376888204,0.008119330997388706
1753093826.9115765,7874,1753108226,930478491,ukd_base,-1.0581566095352173,0.5770676136016846,0.0,0.0,0.0,0.9999808868862716,0.006182706700601345
1753093826.9314797,7875,1753108226,950336225,ukd_base,-1.0681864023208618,0.5928917527198792,0.0,0.0,0.0,0.999993778875106,0.0035273518517006082
1753093826.9514768,7876,1753108226,970336755,ukd_base,-1.0773285627365112,0.6000958681106567,0.0,0.0,0.0,0.9999989024182554,0.0014816080063744534
1753093826.961504,7877,1753108226,980405834,ukd_base,-1.0823655128479004,0.6075692772865295,0.0,0.0,0.0,-0.9999996765818456,0.0008042612785048752
1753093826.9812746,7878,1753108227,336086,ukd_base,-1.0973429679870605,0.5920330882072449,0.0,0.0,0.0,-0.9999971002339432,0.002408220028353949
1753093826.9915411,7879,1753108227,10337888,ukd_base,-1.1073877811431885,0.5685312151908875,0.0,0.0,0.0,-0.9999952215934552,0.003091405870522982
1753093827.0113673,7880,1753108227,30336492,ukd_base,-1.12771475315094,0.5650613903999329,0.0,0.0,0.0,-0.9999959638209985,0.002841186673244484
1753093827.0213683,7881,1753108227,40341590,ukd_base,-1.1287251710891724,0.6014166474342346,0.0,0.0,0.0,-0.9999965284990583,0.0026349553757528768
1753093827.0313513,7882,1753108227,50337577,ukd_base,-1.1426868438720703,0.581787645816803,0.0,0.0,0.0,-0.999994533257554,0.003306577536753802
1753093827.0518231,7883,1753108227,70335773,ukd_base,-1.1517282724380493,0.5689345598220825,0.0,0.0,0.0,-0.9999869428536129,0.005110197871422833
1753093827.0713592,7884,1753108227,90342284,ukd_base,-1.1745362281799316,0.5459272265434265,0.0,0.0,0.0,-0.9999709321031414,0.007624627779410565
1753093827.0813289,7885,1753108227,100340531,ukd_base,-1.1836847066879272,0.5580765008926392,0.0,0.0,0.0,-0.9999358409441083,0.011327576766412037
1753093827.1017065,7886,1753108227,120340227,ukd_base,-1.1701371669769287,0.5664961934089661,0.0,0.0,0.0,-0.9998847053587645,0.015184728829211394
1753093827.111447,7887,1753108227,130339899,ukd_base,-1.1609779596328735,0.5783045887947083,0.0,0.0,0.0,-0.9997945837540664,0.020267962305892052
1753093827.4462836,7888,1753108227,166171032,ukd_base,-1.1990724802017212,0.5636605620384216,0.0,0.0,0.0,-0.9994727118976179,0.0324699579922928
1753093827.45992,7896,1753108227,340197628,ukd_base,-1.3321536779403687,0.491737425327301,0.0,0.0,0.0,-0.9958155311599358,0.09138614720325422
1753093827.5160496,7897,1753108227,362098197,ukd_base,-1.3564728498458862,0.4682246446609497,0.0,0.0,0.0,-0.9956307474984022,0.09337780590575531
1753093827.535926,7902,1753108227,496123789,ukd_base,-1.4789937734603882,0.4892871081829071,0.0,0.0,0.0,-0.9978152717455518,0.06606575112227557
1753093827.5959167,7903,1753108227,516260003,ukd_base,-1.4855347871780396,0.5173258781433105,0.0,0.0,0.0,-0.9987066603052228,0.050842960790932416
1753093827.5973344,7905,1753108227,566279345,ukd_base,-1.5091032981872559,0.5155640244483948,0.0,0.0,0.0,-0.9993955523989707,0.03476391584899907
1753093827.6461582,7906,1753108227,596261103,ukd_base,-1.5165187120437622,0.5362067818641663,0.0,0.0,0.0,-0.9995778548137796,0.029053608482985927
1753093827.6581311,7907,1753108227,628234732,ukd_base,-1.5359328985214233,0.5510028600692749,0.0,0.0,0.0,-0.9996256722829941,0.027359007890855932
1753093827.7216814,7908,1753108227,646145872,ukd_base,-1.5399960279464722,0.5646332502365112,0.0,0.0,0.0,-0.9996310537624955,0.0271616706717915
1753093827.731922,7910,1753108227,702080793,ukd_base,-1.5631544589996338,0.5149444937705994,0.0,0.0,0.0,-0.9995420591797892,0.03026007155686612
1753093827.780121,7911,1753108227,720269819,ukd_base,-1.5741395950317383,0.5239636301994324,0.0,0.0,0.0,-0.9995386620595818,0.030372076783474113
1753093827.7813747,7913,1753108227,780118521,ukd_base,-1.5641740560531616,0.573721706867218,0.0,0.0,0.0,-0.9998176842735933,0.01909445505347955
1753093827.8001878,7914,1753108227,796329102,ukd_base,-1.5626022815704346,0.5639393925666809,0.0,0.0,0.0,-0.9998819906150024,0.015362449146548105
1753093827.870165,7915,1753108227,836140237,ukd_base,-1.5840623378753662,0.5687719583511353,0.0,0.0,0.0,-0.9999805879640009,0.0062308663258929115
1753093827.8799021,7916,1753108227,850248966,ukd_base,-1.6012747287750244,0.5532463192939758,0.0,0.0,0.0,-0.9999930874531187,0.003718204671543358
1753093827.9062004,7917,1753108227,886309430,ukd_base,-1.607739806175232,0.5528433322906494,0.0,0.0,0.0,0.9999999996995466,2.451340225500403e-05
1753093827.9258933,7918,1753108227,916140652,ukd_base,-1.605765700340271,0.5763506293296814,0.0,0.0,0.0,0.9999914687643181,0.004130665634233351
1753093827.9984565,7919,1753108227,940223312,ukd_base,-1.5951448678970337,0.5638670325279236,0.0,0.0,0.0,0.9999425851028623,0.010715712659685468
1753093827.9998233,7920,1753108227,960229897,ukd_base,-1.5837422609329224,0.5762230753898621,0.0,0.0,0.0,0.9998961351557513,0.014412456438501177
1753093828.0465782,7921,1753108227,984220244,ukd_base,-1.5987927913665771,0.5680321455001831,0.0,0.0,0.0,0.9997711985394669,0.021390431761834684
1753093828.0560312,7923,1753108228,46022799,ukd_base,-1.6052452325820923,0.5358124375343323,0.0,0.0,0.0,0.999773817439356,0.02126767412617894
1753093828.1160026,7924,1753108228,64268955,ukd_base,-1.5943163633346558,0.5379138588905334,0.0,0.0,0.0,0.9998026454308313,0.019866307898332245
1753093828.1299183,7925,1753108228,90089156,ukd_base,-1.5787948369979858,0.5665831565856934,0.0,0.0,0.0,0.9998256264118566,0.018673959680225442
1753093828.1660445,7926,1753108228,116315465,ukd_base,-1.587687373161316,0.5697373151779175,0.0,0.0,0.0,0.9997954719276329,0.020224102279257784
1753093828.183942,7927,1753108228,140304515,ukd_base,-1.597696304321289,0.5532418489456177,0.0,0.0,0.0,0.9997645543068345,0.021698754610727542
1753093828.2500246,7928,1753108228,170329235,ukd_base,-1.5902647972106934,0.5614862442016602,0.0,0.0,0.0,0.9997042407991154,0.024319352957356297
1753093828.2581732,7930,1753108228,236229550,ukd_base,-1.578432321548462,0.5634080767631531,0.0,0.0,0.0,0.999606329672357,0.028056829453080627
1753093828.3158839,7931,1753108228,264330195,ukd_base,-1.5859134197235107,0.5173982381820679,0.0,0.0,0.0,0.9995547221696245,0.02983885702242558
1753093828.3172042,7932,1753108228,300256938,ukd_base,-1.5562267303466797,0.5598476529121399,0.0,0.0,0.0,0.9992928000324302,0.0376018590410842
1753093828.3501503,7933,1753108228,320195708,ukd_base,-1.5640698671340942,0.5700271725654602,0.0,0.0,0.0,0.9991968459229705,0.04007072619241556
1753093828.3659234,7934,1753108228,346214408,ukd_base,-1.558795690536499,0.5834404826164246,0.0,0.0,0.0,0.9989736570099134,0.04529495115617183
1753093828.4005563,7935,1753108228,380079354,ukd_base,-1.5469036102294922,0.5999144315719604,0.0,0.0,0.0,0.9986737180961363,0.05148596686514723
1753093828.4400668,7936,1753108228,406287441,ukd_base,-1.5698511600494385,0.5829339027404785,0.0,0.0,0.0,0.9984046813500048,0.05646319383806968
1753093828.4600375,7938,1753108228,450250947,ukd_base,-1.5694911479949951,0.5737169981002808,0.0,0.0,0.0,0.9978064894715373,0.0661982595578386
1753093828.5220892,7939,1753108228,470189718,ukd_base,-1.5648430585861206,0.5501813292503357,0.0,0.0,0.0,0.9976363567503638,0.06871462500705987
1753093828.5260558,7940,1753108228,506212219,ukd_base,-1.5489258766174316,0.5574524998664856,0.0,0.0,0.0,0.9974252436001368,0.07171389983265265
1753093828.5840487,7941,1753108228,526247563,ukd_base,-1.505052089691162,0.5959084033966064,0.0,0.0,0.0,0.9975771686210274,0.06956861825603763
1753093828.5960567,7942,1753108228,556262079,ukd_base,-1.4950140714645386,0.5838556289672852,0.0,0.0,0.0,0.9980147050427399,0.0629813346830057
1753093828.6580653,7943,1753108228,586203152,ukd_base,-1.477170705795288,0.5630447268486023,0.0,0.0,0.0,0.9984422585468344,0.05579476989733261
1753093828.6638763,7945,1753108228,640282570,ukd_base,-1.4877578020095825,0.5572306513786316,0.0,0.0,0.0,-0.9999999999999971,7.549789954891874e-08
1753093828.6960726,7946,1753108228,676240202,ukd_base,-1.4854546785354614,0.5260190367698669,0.0,0.0,0.0,-0.9999999999999971,7.549789954891874e-08
1753093828.711869,7947,1753108228,696284268,ukd_base,-1.471994161605835,0.4761454463005066,0.0,0.0,0.0,-0.9999999999999971,7.549789954891874e-08
1753093828.7561505,7948,1753108228,730125585,ukd_base,-1.4659152030944824,0.5147744417190552,0.0,0.0,0.0,-0.9999999999999971,7.549789954891874e-08
1753093828.795895,7949,1753108228,766190604,ukd_base,-1.454198956489563,0.522621750831604,0.0,0.0,0.0,-0.9999999999999971,7.549789954891874e-08
1753093828.7972736,7950,1753108228,780325111,ukd_base,-1.4475502967834473,0.5362386107444763,0.0,0.0,0.0,-0.9999999999999971,7.549789954891874e-08
1753093828.8201542,7951,1753108228,810071889,ukd_base,-1.3902944326400757,0.5681526064872742,0.0,0.0,0.0,-0.9999999999999971,7.549789954891874e-08
1753093828.8381782,7952,1753108228,828227194,ukd_base,-1.3645833730697632,0.6115005016326904,0.0,0.0,0.0,-0.9999999999999971,7.549789954891874e-08
1753093828.8700466,7953,1753108228,846319203,ukd_base,-1.3788328170776367,0.5745072364807129,0.0,0.0,0.0,-0.9999999999999971,7.549789954891874e-08
1753093828.871423,7954,1753108228,869457538,ukd_base,-1.3515459299087524,0.5585900545120239,0.0,0.0,0.0,-0.9999999999999971,7.549789954891874e-08
1753093828.9101787,7955,1753108228,896308805,ukd_base,-1.3106409311294556,0.5529006123542786,0.0,0.0,0.0,-0.9999999999999971,7.549789954891874e-08
1753093828.9580305,7956,1753108228,928281156,ukd_base,-1.2614096403121948,0.5760543942451477,0.0,0.0,0.0,-0.999985653953331,0.005356480890362869
1753093828.970014,7957,1753108228,950164280,ukd_base,-1.250363826751709,0.5443155169487,0.0,0.0,0.0,-0.9999396173289298,0.010989162664797708
1753093829.006052,7958,1753108228,970211865,ukd_base,-1.2195727825164795,0.5661909580230713,0.0,0.0,0.0,-0.9998284376963649,0.01852282844616867
1753093829.0074387,7959,1753108228,994324433,ukd_base,-1.1899453401565552,0.5517762899398804,0.0,0.0,0.0,-0.9993334466661166,0.03650564852759022
1753093829.0501146,7960,1753108229,24149692,ukd_base,-1.1491646766662598,0.5662686228752136,0.0,0.0,0.0,-0.9987274560702045,0.05043281165608043
1753093829.0659516,7961,1753108229,52111763,ukd_base,-1.1091628074645996,0.567786693572998,0.0,0.0,0.0,-0.9984701543620743,0.05529331648739726
1753093829.110031,7962,1753108229,80278851,ukd_base,-1.0656436681747437,0.5949195027351379,0.0,0.0,0.0,-0.9984585313865826,0.05550280264408799
1753093829.1442974,7963,1753108229,116297945,ukd_base,-1.0361754894256592,0.6132038831710815,0.0,0.0,0.0,-0.9999999999999971,7.549789954891874e-08
1753093829.159972,7964,1753108229,144319868,ukd_base,-1.0107834339141846,0.6313786506652832,0.0,0.0,0.0,-0.9999999999999971,7.549789954891874e-08
1753093829.2261176,7965,1753108229,180105279,ukd_base,-0.9938652515411377,0.6450934410095215,0.0,0.0,0.0,-0.9999999999999971,7.549789954891874e-08
1753093829.2275,7966,1753108229,218172688,ukd_base,-0.9463376998901367,0.6305195689201355,0.0,0.0,0.0,-0.9999999999999971,7.549789954891874e-08
1753093829.2581291,7967,1753108229,244236721,ukd_base,-0.926333487033844,0.6171755790710449,0.0,0.0,0.0,-0.9999999999999971,7.549789954891874e-08
1753093829.2738838,7968,1753108229,268315548,ukd_base,-0.9155664443969727,0.6207701563835144,0.0,0.0,0.0,-0.9999999999999971,7.549789954891874e-08
1753093829.3065002,7969,1753108229,290162432,ukd_base,-0.8806589245796204,0.6353517770767212,0.0,0.0,0.0,-0.9999999999999971,7.549789954891874e-08
1753093829.3259664,7970,1753108229,316331426,ukd_base,-0.8581674695014954,0.6426881551742554,0.0,0.0,0.0,-0.9999999999999971,7.549789954891874e-08
1753093829.3799095,7971,1753108229,336300808,ukd_base,-0.8501874208450317,0.6080569624900818,0.0,0.0,0.0,-0.9999999999999971,7.549789954891874e-08
1753093829.3811688,7972,1753108229,360282599,ukd_base,-0.8285703063011169,0.6096282005310059,0.0,0.0,0.0,-0.9999999999999971,7.549789954891874e-08
1753093829.4160123,7973,1753108229,398219788,ukd_base,-0.7562852501869202,0.6435473561286926,0.0,0.0,0.0,-0.9999999999999971,7.549789954891874e-08
1753093829.4401593,7974,1753108229,432070697,ukd_base,-0.7207000255584717,0.6521897315979004,0.0,0.0,0.0,-0.9999999999999971,7.549789954891874e-08
1753093829.4604652,7975,1753108229,450239168,ukd_base,-0.7106656432151794,0.657826840877533,0.0,0.0,0.0,-0.9999999999999971,7.549789954891874e-08
1753093829.5158856,7976,1753108229,478271609,ukd_base,-0.6767157316207886,0.6547430753707886,0.0,0.0,0.0,-0.9999999999999971,7.549789954891874e-08
1753093829.5259259,7977,1753108229,512054760,ukd_base,-0.6458545923233032,0.6310418248176575,0.0,0.0,0.0,-0.9999999999999971,7.549789954891874e-08
1753093829.5370069,7978,1753108229,534311510,ukd_base,-0.6451594233512878,0.6218664646148682,0.0,0.0,0.0,-0.9999999999999971,7.549789954891874e-08
1753093829.5386736,7979,1753108229,555313290,ukd_base,-0.6355484127998352,0.620539665222168,0.0,0.0,0.0,-0.9999999999999971,7.549789954891874e-08
1753093829.5466642,7980,1753108229,565396406,ukd_base,-0.6338075399398804,0.6144769787788391,0.0,0.0,0.0,-0.9999999999999971,7.549789954891874e-08
1753093829.556753,7981,1753108229,575400523,ukd_base,-0.6109186410903931,0.6023663878440857,0.0,0.0,0.0,-0.9999999999999971,7.549789954891874e-08
1753093829.5779462,7982,1753108229,595402404,ukd_base,-0.5934107899665833,0.603761613368988,0.0,0.0,0.0,-0.9999999999999971,7.549789954891874e-08
1753093829.5868025,7983,1753108229,605402095,ukd_base,-0.562084972858429,0.6142234206199646,0.0,0.0,0.0,-0.9999999999999971,7.549789954891874e-08
1753093829.59683,7984,1753108229,615397582,ukd_base,-0.5316383838653564,0.620118260383606,0.0,0.0,0.0,-0.9999999999999971,7.549789954891874e-08
1753093829.6168923,7985,1753108229,635396797,ukd_base,-0.5284311771392822,0.6122660636901855,0.0,0.0,0.0,-0.9999999999999971,7.549789954891874e-08
1753093829.6368465,7986,1753108229,655419623,ukd_base,-0.5385329127311707,0.5958312153816223,0.0,0.0,0.0,-0.9999999999999971,7.549789954891874e-08
1753093829.6467803,7987,1753108229,665400332,ukd_base,-0.5201754570007324,0.594835638999939,0.0,0.0,0.0,-0.9999999999999971,7.549789954891874e-08
1753093829.6568127,7988,1753108229,675402671,ukd_base,-0.5185412764549255,0.592200517654419,0.0,0.0,0.0,0.9999940467258092,0.0034505815365112715
1753093829.6767797,7989,1753108229,695401460,ukd_base,-0.5002515912055969,0.6088408827781677,0.0,0.0,0.0,0.9999744191779032,0.007152691089039138
1753093829.6967592,7990,1753108229,715401027,ukd_base,-0.5034217834472656,0.6070031523704529,0.0,0.0,0.0,0.9999172114590549,0.012867409527477055
1753093829.7068768,7991,1753108229,725400884,ukd_base,-0.5000627040863037,0.6064339876174927,0.0,0.0,0.0,0.9998252722808504,0.01869291064878314
1753093829.72757,7992,1753108229,745397377,ukd_base,-0.46303966641426086,0.6142334342002869,0.0,0.0,0.0,0.9997126970187533,0.02396921816602043
1753093829.7366526,7993,1753108229,755399030,ukd_base,-0.47766217589378357,0.6108682751655579,0.0,0.0,0.0,0.9996246246263444,0.027397259728668966
1753093829.7480583,7994,1753108229,765400277,ukd_base,-0.4836391508579254,0.6002064943313599,0.0,0.0,0.0,0.999548930338482,0.03003224698880271
1753093829.767116,7995,1753108229,785399677,ukd_base,-0.4751332998275757,0.6028366684913635,0.0,0.0,0.0,0.9995005595693319,0.03160113005245957
1753093829.7769637,7996,1753108229,795403145,ukd_base,-0.441775381565094,0.6212360858917236,0.0,0.0,0.0,0.9994051286792808,0.034487516140629136
1753093829.7968812,7997,1753108229,815395360,ukd_base,-0.4348343312740326,0.6069139838218689,0.0,0.0,0.0,0.9993108774797491,0.03711832634499799
1753093829.817009,7998,1753108229,835403519,ukd_base,-0.4198562204837799,0.6113351583480835,0.0,0.0,0.0,0.9992093835031874,0.03975686002666817
1753093829.8268816,7999,1753108229,845398988,ukd_base,-0.39185580611228943,0.6219949722290039,0.0,0.0,0.0,0.9991122933485376,0.04212630152085252
1753093829.8479064,8000,1753108229,865401165,ukd_base,-0.3907812833786011,0.6173021793365479,0.0,0.0,0.0,0.9990336139313774,0.04395268177496916
1753093829.8568676,8001,1753108229,875403986,ukd_base,-0.37811294198036194,0.6214237213134766,0.0,0.0,0.0,0.9989930355922787,0.04486551947904092
1753093829.8680346,8002,1753108229,885396806,ukd_base,-0.3762708008289337,0.6164270639419556,0.0,0.0,0.0,0.9989471599036297,0.045875611390716074
1753093829.8868964,8003,1753108229,905404465,ukd_base,-0.3730304539203644,0.6211271286010742,0.0,0.0,0.0,0.9989153852764951,0.046562356661912635
1753093829.9077547,8004,1753108229,925407569,ukd_base,-0.3600175976753235,0.6375473141670227,0.0,0.0,0.0,0.9989138694158396,0.046594865475447556
1753093829.916783,8005,1753108229,935405223,ukd_base,-0.3437654376029968,0.638911247253418,0.0,0.0,0.0,0.9988907182858022,0.04708856466780579
1753093829.9270964,8006,1753108229,945398599,ukd_base,-0.3133944571018219,0.6558332443237305,0.0,0.0,0.0,0.9987756173858062,0.04946985057185364
1753093829.946885,8007,1753108229,965395517,ukd_base,-0.3117651045322418,0.6443449854850769,0.0,0.0,0.0,0.9985119777094068,0.054532837546281014
1753093829.9669912,8008,1753108229,985398047,ukd_base,-0.2887149751186371,0.639951229095459,0.0,0.0,0.0,0.9979829481414347,0.06348255838362567
1753093829.9769402,8009,1753108229,995638958,ukd_base,-0.27406758069992065,0.6456871032714844,0.0,0.0,0.0,0.9973994126451575,0.07207226689299233
1753093829.9967592,8010,1753108230,15402786,ukd_base,-0.24744701385498047,0.6366117596626282,0.0,0.0,0.0,0.9967183855967429,0.08094726563277183
1753093830.0068035,8011,1753108230,25399699,ukd_base,-0.23052558302879333,0.654708981513977,0.0,0.0,0.0,0.9961547963393608,0.08761062566884616
1753093830.0166283,8012,1753108230,35395519,ukd_base,-0.1961676925420761,0.6582676768302917,0.0,0.0,0.0,0.9955988200220018,0.0937176054474164
1753093830.0368729,8013,1753108230,55401530,ukd_base,-0.1775098443031311,0.6769256591796875,0.0,0.0,0.0,0.9952371643323746,0.09748326385412982
1753093830.0474136,8014,1753108230,65395406,ukd_base,-0.16019313037395477,0.6812890768051147,0.0,0.0,0.0,0.9950661218444782,0.09921397662320608
1753093830.0672796,8015,1753108230,85396084,ukd_base,-0.15761986374855042,0.6726888418197632,0.0,0.0,0.0,0.9952658943537784,0.0971895032201195
1753093830.0767355,8016,1753108230,95399311,ukd_base,-0.12975221872329712,0.6844456195831299,0.0,0.0,0.0,0.9958285394784536,0.09124428727438177
1753093830.0967412,8017,1753108230,115399841,ukd_base,-0.10196112096309662,0.6810550689697266,0.0,0.0,0.0,0.9964708270301076,0.08393980508634452
1753093830.107285,8018,1753108230,125401347,ukd_base,-0.08044596761465073,0.6813187003135681,0.0,0.0,0.0,0.9972512088343958,0.07409471289057225
1753093830.127415,8019,1753108230,145399821,ukd_base,-0.03423440456390381,0.6893866062164307,0.0,0.0,0.0,0.9978927082309258,0.06488561365625208
1753093830.1468673,8020,1753108230,165398776,ukd_base,-0.025699803605675697,0.6926886439323425,0.0,0.0,0.0,0.9984861100871949,0.05500443584786647
1753093830.156757,8021,1753108230,175398652,ukd_base,0.017224671319127083,0.6980031728744507,0.0,0.0,0.0,0.9988193724003077,0.0485784038216093
1753093830.1768918,8022,1753108230,195404311,ukd_base,0.02634904347360134,0.6982539892196655,0.0,0.0,0.0,0.9990139080706405,0.04439832746203147
1753093830.1877038,8023,1753108230,205402946,ukd_base,0.030809881165623665,0.6984464526176453,0.0,0.0,0.0,0.9990879943828146,0.042698705836653084
1753093830.1971755,8024,1753108230,215397378,ukd_base,0.06827518343925476,0.6960474252700806,0.0,0.0,0.0,0.9991134279232463,0.04209938412209967
1753093830.2171767,8025,1753108230,235399056,ukd_base,0.05965028703212738,0.7060562968254089,0.0,0.0,0.0,0.9990380728904049,0.04385121338601621
1753093830.236978,8026,1753108230,255399178,ukd_base,0.1010393351316452,0.7017636299133301,0.0,0.0,0.0,0.9989318632286123,0.04620749535100407
1753093830.2469664,8027,1753108230,265397035,ukd_base,0.10457921028137207,0.7167103886604309,0.0,0.0,0.0,0.998939110920787,0.0460505447610286
1753093830.2674294,8028,1753108230,285406287,ukd_base,0.11118505895137787,0.7235168218612671,0.0,0.0,0.0,0.9989559027034429,0.045684838337783806
1753093830.2770007,8029,1753108230,295397293,ukd_base,0.13807125389575958,0.7243655323982239,0.0,0.0,0.0,0.9990155269700531,0.04436188536060116
1753093830.2876093,8030,1753108230,305408983,ukd_base,0.15942518413066864,0.7391882538795471,0.0,0.0,0.0,0.9991633822190442,0.04089664573776286
1753093830.3127186,8031,1753108230,330990001,ukd_base,0.18605338037014008,0.7341198921203613,0.0,0.0,0.0,0.9993275063255244,0.03666790287443506
1753093830.3267477,8032,1753108230,345404543,ukd_base,0.2014632672071457,0.743312656879425,0.0,0.0,0.0,0.999511077996838,0.03126667493672368
1753093830.352849,8033,1753108230,366138825,ukd_base,0.23035745322704315,0.7316862344741821,0.0,0.0,0.0,0.9996541522285383,0.026297831322038386
1753093830.357243,8034,1753108230,375398282,ukd_base,0.24081285297870636,0.716582715511322,0.0,0.0,0.0,0.9997823553536573,0.020862452480313133
1753093830.3668525,8035,1753108230,385399898,ukd_base,0.276967853307724,0.7143617272377014,0.0,0.0,0.0,0.9998537935960163,0.017099457057308826
1753093830.3766234,8036,1753108230,395395589,ukd_base,0.30733779072761536,0.699808657169342,0.0,0.0,0.0,0.9999058627613114,0.01372099178475718
1753093830.3967645,8037,1753108230,415396137,ukd_base,0.3353148102760315,0.6853992342948914,0.0,0.0,0.0,0.999929188461529,0.01190033876274267
1753093830.41951,8038,1753108230,436193900,ukd_base,0.354480117559433,0.6746610999107361,0.0,0.0,0.0,0.9999379740255109,0.011137688348880754
1753093830.4266531,8039,1753108230,445389395,ukd_base,0.39593401551246643,0.6644633412361145,0.0,0.0,0.0,0.9999354324896882,0.011363575654704482
1753093830.4364269,8040,1753108230,455395344,ukd_base,0.43220776319503784,0.6365775465965271,0.0,0.0,0.0,0.9999283090340744,0.011974004854543077
