Time,header.seq,header.stamp.secs,header.stamp.nsecs,header.frame_id,pose.position.x,pose.position.y,pose.position.z,pose.orientation.x,pose.orientation.y,pose.orientation.z,pose.orientation.w
1753093965.8256416,15805,1753108365,844593382,ukd_base,-0.3178826868534088,0.7156291604042053,0.0,0.0,0.0,0.9965101523005709,0.083471650048941
1753093965.9577758,15806,1753108365,856379668,ukd_base,-0.3125622570514679,0.7104191184043884,0.0,0.0,0.0,0.9965211291286479,0.08334050155935407
1753093965.958948,15814,1753108365,976778287,ukd_base,-0.31458601355552673,0.6988766193389893,0.0,0.0,0.0,0.996501340477312,0.08357678162576188
1753093965.9675028,15815,1753108365,986719552,ukd_base,-0.3326922357082367,0.7049269080162048,0.0,0.0,0.0,0.9964988791525301,0.08360612326708569
1753093965.9871266,15816,1753108366,6713397,ukd_base,-0.3316152095794678,0.7056029438972473,0.0,0.0,0.0,0.9964876178060217,0.08374023859101444
1753093965.9973335,15817,1753108366,16719939,ukd_base,-0.3321908414363861,0.708764910697937,0.0,0.0,0.0,0.9964877276139228,0.08373893189455184
1753093966.0075276,15818,1753108366,26723889,ukd_base,-0.33135613799095154,0.7082445621490479,0.0,0.0,0.0,0.9964865695534528,0.08375271159545543
1753093966.0272446,15819,1753108366,46721715,ukd_base,-0.31624865531921387,0.7144865989685059,0.0,0.0,0.0,0.9964857308389884,0.08376268998956053
1753093966.0466158,15820,1753108366,66610172,ukd_base,-0.3005872964859009,0.7207772731781006,0.0,0.0,0.0,0.9964841130360651,0.08378193401161507
1753093966.0573452,15821,1753108366,76604233,ukd_base,-0.3314219117164612,0.7101289629936218,0.0,0.0,0.0,0.9964851117237437,0.08377005498934592
1753093966.0771186,15822,1753108366,96942871,ukd_base,-0.31445902585983276,0.7100453972816467,0.0,0.0,0.0,0.9964729480696483,0.08391462188071948
1753093966.0871243,15823,1753108366,106617916,ukd_base,-0.31462833285331726,0.7143776416778564,0.0,0.0,0.0,0.9964729480696483,0.08391462188071948
1753093966.1069407,15824,1753108366,126638538,ukd_base,-0.31485074758529663,0.7239100933074951,0.0,0.0,0.0,0.9964622263041752,0.08404184403573338
1753093966.1252193,15825,1753108366,136717302,ukd_base,-0.3259129524230957,0.7224825620651245,0.0,0.0,0.0,0.9964620359488174,0.08404410099904498
1753093966.4141154,15826,1753108366,156597314,ukd_base,-0.3261941075325012,0.7313684821128845,0.0,0.0,0.0,0.9964522508188571,0.08416003706055122
1753093966.415399,15827,1753108366,168646265,ukd_base,-0.3329140841960907,0.7247657179832458,0.0,0.0,0.0,0.9964522508188571,0.08416003706055122
1753093966.4620125,15828,1753108366,186639016,ukd_base,-0.33595961332321167,0.7175432443618774,0.0,0.0,0.0,0.9964433060995427,0.08426587523673514
1753093966.4634786,15844,1753108366,436761524,ukd_base,-0.29240095615386963,0.7238152623176575,0.0,0.0,0.0,0.9963140063425111,0.08578112126648053
1753093966.4647274,15845,1753108366,456445075,ukd_base,-0.2842522859573364,0.720399796962738,0.0,0.0,0.0,0.9963131882246822,0.08579062285336876
1753093966.4647586,15846,1753108366,476576881,ukd_base,-0.3230828046798706,0.7089706659317017,0.0,0.0,0.0,0.9963018889451575,0.08592174395524708
1753093966.4674494,15847,1753108366,486750959,ukd_base,-0.33580300211906433,0.7132891416549683,0.0,0.0,0.0,0.9963039576756505,0.08589775270538555
1753093966.4774785,15848,1753108366,496723891,ukd_base,-0.32585370540618896,0.715126633644104,0.0,0.0,0.0,0.9963011514362153,0.08593029527978796
1753093966.4875252,15849,1753108366,506838488,ukd_base,-0.31365689635276794,0.7284488677978516,0.0,0.0,0.0,0.9962896285856842,0.08606379013615123
1753093966.5073707,15850,1753108366,526726259,ukd_base,-0.31720036268234253,0.7160633206367493,0.0,0.0,0.0,0.9962810055239576,0.08616355396669681
1753093966.6398706,15851,1753108366,544488975,ukd_base,-0.3096427619457245,0.7117882370948792,0.0,0.0,0.0,0.9962716217472424,0.08627198676928423
1753093966.6417856,15856,1753108366,634515154,ukd_base,-0.31651580333709717,0.6950376629829407,0.0,0.0,0.0,0.9961860854401069,0.08725412984791059
1753093966.6851366,15857,1753108366,666399136,ukd_base,-0.3179009258747101,0.7104372382164001,0.0,0.0,0.0,0.9961551723142035,0.08760635063543945
1753093966.6864424,15858,1753108366,680396496,ukd_base,-0.31947192549705505,0.7004046440124512,0.0,0.0,0.0,0.9961450250111099,0.08772165722109483
1753093966.7328525,15859,1753108366,704439972,ukd_base,-0.34796199202537537,0.7039056420326233,0.0,0.0,0.0,0.9961234006357502,0.08796687277531647
1753093966.7489681,15860,1753108366,740535213,ukd_base,-0.3338037431240082,0.7140872478485107,0.0,0.0,0.0,0.9960790322413748,0.0884678559087209
1753093966.7502992,15862,1753108366,764396746,ukd_base,-0.3271317481994629,0.7049389481544495,0.0,0.0,0.0,0.9960499343540242,0.08879486625556754
1753093966.765262,15863,1753108366,781940334,ukd_base,-0.33451777696609497,0.6957614421844482,0.0,0.0,0.0,0.9960299986030839,0.08901821096124415
1753093966.7705212,15864,1753108366,790723424,ukd_base,-0.330127090215683,0.6905466914176941,0.0,0.0,0.0,0.9960195284901461,0.08913528407015418
1753093966.7907488,15865,1753108366,810720213,ukd_base,-0.3158441185951233,0.6855190396308899,0.0,0.0,0.0,0.9959970659858984,0.08938593036648435
1753093966.811075,15866,1753108366,830814131,ukd_base,-0.3277603089809418,0.688291609287262,0.0,0.0,0.0,0.9959746258906617,0.08963562116679093
1753093966.8208587,15867,1753108366,840725730,ukd_base,-0.3204427659511566,0.6909527778625488,0.0,0.0,0.0,0.995954008848933,0.0898644104066757
1753093966.8305225,15868,1753108366,850726032,ukd_base,-0.3153388500213623,0.6927556395530701,0.0,0.0,0.0,0.9959325766793092,0.09010162434113896
1753093966.8516507,15869,1753108366,870722635,ukd_base,-0.32649701833724976,0.6938222646713257,0.0,0.0,0.0,0.9959094832385486,0.0903565227060398
1753093966.8707469,15870,1753108366,890713072,ukd_base,-0.32477957010269165,0.6923736333847046,0.0,0.0,0.0,0.9958752020943434,0.0907335762193392
1753093966.880372,15871,1753108366,900712893,ukd_base,-0.3269349932670593,0.7162463665008545,0.0,0.0,0.0,0.9958527603726405,0.09097955626508773
1753093966.900521,15872,1753108366,920712663,ukd_base,-0.33454403281211853,0.7102926969528198,0.0,0.0,0.0,0.9958430370269592,0.09108592429636102
1753093966.9105873,15873,1753108366,930711706,ukd_base,-0.33816730976104736,0.7068678140640259,0.0,0.0,0.0,0.9958191145456123,0.09134709139098351
1753093966.9305913,15874,1753108366,950713994,ukd_base,-0.34836626052856445,0.7140700817108154,0.0,0.0,0.0,0.9958007676068326,0.09154687997765402
1753093966.9403489,15875,1753108366,960725981,ukd_base,-0.36157727241516113,0.6958234906196594,0.0,0.0,0.0,0.9957696512203237,0.09188471966847934
1753093966.9603696,15876,1753108366,980721104,ukd_base,-0.3431738615036011,0.7103625535964966,0.0,0.0,0.0,0.9957575937957943,0.09201529437006613
1753093966.9707742,15877,1753108366,990715628,ukd_base,-0.33150872588157654,0.7261455059051514,0.0,0.0,0.0,0.9957030903839403,0.09260321700605664
1753093966.9805179,15878,1753108367,826743,ukd_base,-0.34934201836586,0.7149864435195923,0.0,0.0,0.0,0.9957030903839403,0.09260321700605664
1753093967.0019014,15879,1753108367,20815218,ukd_base,-0.33092525601387024,0.7184901237487793,0.0,0.0,0.0,0.9957096892738219,0.09253223593012964
1753093967.0204647,15880,1753108367,40715841,ukd_base,-0.3246670365333557,0.7209984660148621,0.0,0.0,0.0,0.9956975469408594,0.09266280276332622
1753093967.0308468,15881,1753108367,50723142,ukd_base,-0.34411242604255676,0.7016705870628357,0.0,0.0,0.0,0.9956968951864856,0.09266980584846776
1753093967.05131,15882,1753108367,70735542,ukd_base,-0.3238951563835144,0.7140275239944458,0.0,0.0,0.0,0.9956864493573645,0.09278197328212208
1753093967.0602467,15883,1753108367,80611308,ukd_base,-0.3045458197593689,0.7146542072296143,0.0,0.0,0.0,0.9957301819030983,0.09231145566625483
1753093967.0704176,15884,1753108367,90615962,ukd_base,-0.30017364025115967,0.711021363735199,0.0,0.0,0.0,0.9957302919462212,0.09231026866331356
1753093967.0905206,15885,1753108367,110614769,ukd_base,-0.29791542887687683,0.7178897261619568,0.0,0.0,0.0,0.9958089485556944,0.09145784808534742
1753093967.1103919,15886,1753108367,130615021,ukd_base,-0.3126085698604584,0.7157899737358093,0.0,0.0,0.0,0.9958090684837142,0.09145654227881864
1753093967.1202738,15887,1753108367,140612730,ukd_base,-0.307697594165802,0.7175635695457458,0.0,0.0,0.0,0.9957875522288946,0.09169051655425765
1753093967.1402256,15888,1753108367,160610297,ukd_base,-0.3052878975868225,0.7378650903701782,0.0,0.0,0.0,0.9957875522288946,0.09169051655425765
1753093967.1516113,15889,1753108367,170740357,ukd_base,-0.31592971086502075,0.7534101009368896,0.0,0.0,0.0,0.995732503512931,0.09228640987637855
1753093967.1705225,15890,1753108367,190717905,ukd_base,-0.3279993236064911,0.7393919825553894,0.0,0.0,0.0,0.9956688120704907,0.09297105286129587
1753093967.180779,15891,1753108367,200730392,ukd_base,-0.327054888010025,0.7368971705436707,0.0,0.0,0.0,0.9956240103503567,0.09344961216544827
1753093967.2004895,15892,1753108367,220722089,ukd_base,-0.31861090660095215,0.732017993927002,0.0,0.0,0.0,0.9956174909931511,0.09351904420225092
1753093967.2103064,15893,1753108367,230720502,ukd_base,-0.325796902179718,0.7293902635574341,0.0,0.0,0.0,0.9955736583926101,0.09398452380447743
1753093967.230382,15894,1753108367,250609606,ukd_base,-0.3636323809623718,0.7251230478286743,0.0,0.0,0.0,0.9956193191304473,0.09349957954036239
1753093967.240275,15895,1753108367,260617797,ukd_base,-0.37292808294296265,0.7199838161468506,0.0,0.0,0.0,0.9956403709543008,0.09327513991403251
1753093967.260494,15896,1753108367,280619067,ukd_base,-0.3865952491760254,0.7090387344360352,0.0,0.0,0.0,0.9956536039617088,0.09313377968310332
1753093967.2703764,15897,1753108367,290617869,ukd_base,-0.4136863946914673,0.6979150772094727,0.0,0.0,0.0,0.9957621885972759,0.09196555746562404
1753093967.2908537,15898,1753108367,310731453,ukd_base,-0.41763776540756226,0.698597252368927,0.0,0.0,0.0,0.99574011309188,0.09220426877195026
1753093967.3005283,15899,1753108367,320614219,ukd_base,-0.4189874231815338,0.6964179277420044,0.0,0.0,0.0,0.9957180024009802,0.09244273738159015
1753093967.3103456,15900,1753108367,330615039,ukd_base,-0.42207348346710205,0.6865561008453369,0.0,0.0,0.0,0.9956650652038069,0.09301117101025513
1753093967.3306499,15901,1753108367,350719642,ukd_base,-0.4419216215610504,0.6789973378181458,0.0,0.0,0.0,0.9954655404433893,0.09512285629516669
1753093967.3517485,15902,1753108367,370727338,ukd_base,-0.45050421357154846,0.6768884658813477,0.0,0.0,0.0,0.9953893967415517,0.09591636385148168
1753093967.3608022,15903,1753108367,380720214,ukd_base,-0.462581992149353,0.6602486371994019,0.0,0.0,0.0,0.9951825184043109,0.09803955866104906
1753093967.3804045,15904,1753108367,400713726,ukd_base,-0.47490787506103516,0.6528604030609131,0.0,0.0,0.0,0.9950878718069671,0.09899559274372226
1753093967.3916144,15905,1753108367,410969858,ukd_base,-0.46933501958847046,0.6762076020240784,0.0,0.0,0.0,0.9947451607542951,0.10238195717953259
1753093967.410477,15906,1753108367,430720853,ukd_base,-0.4621250629425049,0.6872649192810059,0.0,0.0,0.0,0.9944031491878383,0.10565215040551565
1753093967.420383,15907,1753108367,440724785,ukd_base,-0.46725186705589294,0.6880779266357422,0.0,0.0,0.0,0.9936715421329968,0.11232482519475359
1753093967.4402995,15908,1753108367,460720259,ukd_base,-0.4633963704109192,0.7044637203216553,0.0,0.0,0.0,0.9928287055698489,0.11954564566097056
1753093967.4516537,15909,1753108367,470724709,ukd_base,-0.44256019592285156,0.7166045308113098,0.0,0.0,0.0,0.991630652072849,0.12910712555694323
1753093967.460497,15910,1753108367,480728548,ukd_base,-0.44631093740463257,0.7240731120109558,0.0,0.0,0.0,0.991510237420636,0.13002864719004778
1753093967.4808607,15911,1753108367,500797577,ukd_base,-0.458735853433609,0.7196217775344849,0.0,0.0,0.0,0.9898731168797483,0.14195496637586189
1753093967.5008426,15912,1753108367,520724144,ukd_base,-0.4572378695011139,0.7158083915710449,0.0,0.0,0.0,0.9897560518483801,0.14276889657592357
1753093967.5112634,15913,1753108367,530723094,ukd_base,-0.45315054059028625,0.71507328748703,0.0,0.0,0.0,0.9877625400243472,0.1559652670457431
1753093967.531024,15914,1753108367,550714179,ukd_base,-0.4650704860687256,0.7157770395278931,0.0,0.0,0.0,0.985578084985018,0.1692212705225459
1753093967.540487,15915,1753108367,560715277,ukd_base,-0.4387674927711487,0.7379266023635864,0.0,0.0,0.0,0.9834515885552798,0.18117111515938933
1753093967.5607514,15916,1753108367,580719918,ukd_base,-0.4495801329612732,0.7319112420082092,0.0,0.0,0.0,0.9833517466230048,0.18171225168789729
1753093967.5705173,15917,1753108367,590714331,ukd_base,-0.4092200696468353,0.7623893022537231,0.0,0.0,0.0,0.9815753425268635,0.19107550063592785
1753093967.590776,15918,1753108367,610718972,ukd_base,-0.3906885087490082,0.7635425925254822,0.0,0.0,0.0,0.9789287414713088,0.20420215258757538
1753093967.600736,15919,1753108367,620725644,ukd_base,-0.38779136538505554,0.7590628862380981,0.0,0.0,0.0,0.9766826663072994,0.2146880745054657
1753093967.62046,15920,1753108367,640723303,ukd_base,-0.3584767282009125,0.7758564949035645,0.0,0.0,0.0,0.9743310632596236,0.2251199217469912
1753093967.63052,15921,1753108367,650711642,ukd_base,-0.3458304703235626,0.7833240032196045,0.0,0.0,0.0,0.9742570495971283,0.22544001710055514
1753093967.6511178,15922,1753108367,670719283,ukd_base,-0.3289151191711426,0.7950357794761658,0.0,0.0,0.0,0.9715093913222013,0.2370010602777255
1753093967.6602368,15923,1753108367,680613215,ukd_base,-0.31663548946380615,0.8127726316452026,0.0,0.0,0.0,0.9681987011802463,0.250182483465338
1753093967.680359,15924,1753108367,700613263,ukd_base,-0.3033744990825653,0.8138872981071472,0.0,0.0,0.0,0.9650932966223807,0.26190633595723745
1753093967.6907759,15925,1753108367,710718064,ukd_base,-0.29231056571006775,0.8088120222091675,0.0,0.0,0.0,0.962209582108528,0.2723099706190207
1753093967.7105014,15926,1753108367,730712742,ukd_base,-0.2854073643684387,0.8208041191101074,0.0,0.0,0.0,0.962247910050623,0.2721745021180492
1753093967.7203684,15927,1753108367,740723636,ukd_base,-0.29466569423675537,0.8082692623138428,0.0,0.0,0.0,0.9601044049098237,0.2796417917135299
1753093967.7403712,15928,1753108367,760720203,ukd_base,-0.29032453894615173,0.8129273056983948,0.0,0.0,0.0,0.9601437317720042,0.2795067339777875
1753093967.751616,15929,1753108367,770726690,ukd_base,-0.296186625957489,0.8129767775535583,0.0,0.0,0.0,0.9531967867069251,0.302350600812356
1753093967.7705204,15930,1753108367,790730090,ukd_base,-0.26189765334129333,0.8167105913162231,0.0,0.0,0.0,0.9532393440436245,0.3022164008906208
1753093967.78053,15931,1753108367,800721910,ukd_base,-0.23301753401756287,0.8199034929275513,0.0,0.0,0.0,0.9495089126518617,0.3137400592762731
1753093967.8014705,15932,1753108367,820813032,ukd_base,-0.2047502100467682,0.8359511494636536,0.0,0.0,0.0,0.9448108201039084,0.3276164132252534
1753093967.810681,15933,1753108367,830722279,ukd_base,-0.19764608144760132,0.831289529800415,0.0,0.0,0.0,0.9392193794734522,0.3433175748800277
1753093967.830279,15934,1753108367,850726105,ukd_base,-0.1999034285545349,0.8324581384658813,0.0,0.0,0.0,0.9393396461213726,0.34298838059703207
1753093967.840488,15935,1753108367,860726388,ukd_base,-0.1898503303527832,0.8390768766403198,0.0,0.0,0.0,0.9340895149694376,0.35703890267611
1753093967.860364,15936,1753108367,880718955,ukd_base,-0.1710308939218521,0.827715277671814,0.0,0.0,0.0,0.9292174381323597,0.3695334256474429
1753093967.8708878,15937,1753108367,890707108,ukd_base,-0.16033071279525757,0.8129816055297852,0.0,0.0,0.0,0.9293949917139912,0.36908664210040193
1753093967.8909068,15938,1753108367,910711008,ukd_base,-0.16044001281261444,0.8256036043167114,0.0,0.0,0.0,0.9257238297656484,0.3782001996350887
1753093967.9007447,15939,1753108367,920718995,ukd_base,-0.14444339275360107,0.8343226313591003,0.0,0.0,0.0,0.9200639337048018,0.3917682451343473
1753093967.9204068,15940,1753108367,940724951,ukd_base,-0.17604684829711914,0.8322988152503967,0.0,0.0,0.0,0.9155663337498579,0.40216699081829677
1753093967.930524,15941,1753108367,950730790,ukd_base,-0.1602965146303177,0.8413658738136292,0.0,0.0,0.0,0.9109506194717005,0.4125154165411579
1753093967.9509988,15942,1753108367,970616376,ukd_base,-0.15567927062511444,0.8249894976615906,0.0,0.0,0.0,0.9111012329541502,0.4121826577009606
1753093967.9607995,15943,1753108367,980793584,ukd_base,-0.14816729724407196,0.8204125761985779,0.0,0.0,0.0,0.9056891652021256,0.4239423734842707
1753093967.980361,15944,1753108368,731003,ukd_base,-0.1422334909439087,0.8233847618103027,0.0,0.0,0.0,0.9057783444930894,0.4237518031198904
1753093967.9907362,15945,1753108368,10714601,ukd_base,-0.13840638101100922,0.8253814578056335,0.0,0.0,0.0,0.8998396613813183,0.4362207970800502
1753093968.0008674,15946,1753108368,20741143,ukd_base,-0.15812796354293823,0.8227764964103699,0.0,0.0,0.0,0.8947717689613846,0.4465237748090405
1753093968.0203621,15947,1753108368,40710118,ukd_base,-0.16172026097774506,0.8227401971817017,0.0,0.0,0.0,0.889768091008954,0.4564129097892408
1753093968.0404093,15948,1753108368,60711925,ukd_base,-0.13941174745559692,0.8272740244865417,0.0,0.0,0.0,0.889875577832144,0.45620330553154453
1753093968.0516136,15949,1753108368,70720430,ukd_base,-0.1335308700799942,0.8164089918136597,0.0,0.0,0.0,0.8799031445168624,0.4751530871933146
1753093968.0711012,15950,1753108368,90931051,ukd_base,-0.13901694118976593,0.8345810174942017,0.0,0.0,0.0,0.8799584217992141,0.4750507087718493
1753093968.0803118,15951,1753108368,100731725,ukd_base,-0.15692897140979767,0.8203814625740051,0.0,0.0,0.0,0.8752232282549051,0.4837192374953289
1753093968.100338,15952,1753108368,120717569,ukd_base,-0.1504037082195282,0.8108479976654053,0.0,0.0,0.0,0.8699255423310795,0.493183080407243
1753093968.1107538,15953,1753108368,130715853,ukd_base,-0.15530923008918762,0.8146021962165833,0.0,0.0,0.0,0.8699775096327494,0.4930914040349915
1753093968.1306043,15954,1753108368,150724160,ukd_base,-0.11940977722406387,0.8238844275474548,0.0,0.0,0.0,0.8631932694400948,0.5048736273497754
1753093968.1403642,15955,1753108368,160718480,ukd_base,-0.11247017979621887,0.8210777044296265,0.0,0.0,0.0,0.8557904926046894,0.5173225616261319
1753093968.1602411,15956,1753108368,180612511,ukd_base,-0.11184750497341156,0.8336519002914429,0.0,0.0,0.0,0.8490488484181242,0.5283143505526394
1753093968.1705222,15957,1753108368,190719682,ukd_base,-0.11421170085668564,0.8329916596412659,0.0,0.0,0.0,0.8434879135211895,0.5371481543705335
1753093968.190487,15958,1753108368,210714786,ukd_base,-0.10970763862133026,0.8273071646690369,0.0,0.0,0.0,0.8434947009571339,0.5371374958585886
1753093968.2007651,15959,1753108368,220718588,ukd_base,-0.11974133551120758,0.8275668025016785,0.0,0.0,0.0,0.8392167079701384,0.5437971285909512
1753093968.2204413,15960,1753108368,240729895,ukd_base,-0.11845631152391434,0.8289079070091248,0.0,0.0,0.0,0.8391458139706919,0.5439065203649106
1753093968.2308605,15961,1753108368,250714123,ukd_base,-0.1237097755074501,0.8289502859115601,0.0,0.0,0.0,0.833393774346513,0.5526796693207318
1753093968.2515104,15962,1753108368,270764022,ukd_base,-0.12809257209300995,0.8288518786430359,0.0,0.0,0.0,0.8294639656541778,0.558560229233379
1753093968.2602277,15963,1753108368,280725806,ukd_base,-0.1257856786251068,0.8296021819114685,0.0,0.0,0.0,0.8266417931437706,0.5627284832208617
1753093968.280574,15964,1753108368,300802798,ukd_base,-0.1260501593351364,0.8298400044441223,0.0,0.0,0.0,0.8244053532084135,0.5659998353368232
1753093968.290468,15965,1753108368,310711675,ukd_base,-0.1303437203168869,0.841516375541687,0.0,0.0,0.0,0.8228725750841321,0.568225945530833
1753093968.3107886,15966,1753108368,330714408,ukd_base,-0.1732921153306961,0.8393841981887817,0.0,0.0,0.0,0.8228191263113241,0.5683033392267454
1753093968.3203595,15967,1753108368,340715025,ukd_base,-0.19773460924625397,0.837945818901062,0.0,0.0,0.0,0.8232051282823312,0.5677440592112529
1753093968.3404891,15968,1753108368,360724369,ukd_base,-0.24936188757419586,0.8300235271453857,0.0,0.0,0.0,0.8231375774514265,0.5678419926241779
1753093968.3515112,15969,1753108368,370719189,ukd_base,-0.26540330052375793,0.8260829448699951,0.0,0.0,0.0,0.8233362708615927,0.5675538609539417
1753093968.3703818,15970,1753108368,390615053,ukd_base,-0.27438589930534363,0.8302012085914612,0.0,0.0,0.0,0.823638042998146,0.5671158383665406
1753093968.3803515,15971,1753108368,400615429,ukd_base,-0.2919190227985382,0.8132529854774475,0.0,0.0,0.0,0.8238689150075914,0.5667803903490435
1753093968.4010153,15972,1753108368,420727328,ukd_base,-0.3287126421928406,0.8301282525062561,0.0,0.0,0.0,0.8236190453972383,0.5671434281193268
1753093968.4107351,15973,1753108368,430829999,ukd_base,-0.3233281075954437,0.831325888633728,0.0,0.0,0.0,0.8227073955497469,0.568465074835519
1753093968.4307451,15974,1753108368,450718623,ukd_base,-0.32732507586479187,0.8291188478469849,0.0,0.0,0.0,0.8227139010623727,0.5684556596593374
1753093968.4407408,15975,1753108368,460829220,ukd_base,-0.3606877028942108,0.8179820775985718,0.0,0.0,0.0,0.8214833295766615,0.5702325308395183
1753093968.4605882,15976,1753108368,480722454,ukd_base,-0.37559568881988525,0.809930682182312,0.0,0.0,0.0,0.8215640780320682,0.5701161861299132
1753093968.4709735,15977,1753108368,490722145,ukd_base,-0.38873574137687683,0.8027794361114502,0.0,0.0,0.0,0.8209920271330057,0.5709396565172523
1753093968.490143,15978,1753108368,510711249,ukd_base,-0.45582810044288635,0.7729693055152893,0.0,0.0,0.0,0.8213573481271713,0.5704139783328427
1753093968.500741,15979,1753108368,520725235,ukd_base,-0.4722532331943512,0.7780473232269287,0.0,0.0,0.0,0.82202202016586,0.5694557035998836
1753093968.510449,15980,1753108368,530616575,ukd_base,-0.48766082525253296,0.7861371636390686,0.0,0.0,0.0,0.8222161896497273,0.5691753134824838
1753093968.5303621,15981,1753108368,550614068,ukd_base,-0.4926387369632721,0.8059343099594116,0.0,0.0,0.0,0.822051956054665,0.56941248804948
1753093968.551261,15982,1753108368,570615468,ukd_base,-0.47564032673835754,0.8179646730422974,0.0,0.0,0.0,0.8214555939829526,0.5702724849702241
1753093968.560242,15983,1753108368,580615233,ukd_base,-0.5155896544456482,0.8125696778297424,0.0,0.0,0.0,0.8207133544722699,0.5713401699433309
1753093968.5804694,15984,1753108368,600724335,ukd_base,-0.5271854400634766,0.8328028321266174,0.0,0.0,0.0,0.8209820900572782,0.5709539454327146
1753093968.5901747,15985,1753108368,610722211,ukd_base,-0.5245057940483093,0.811140239238739,0.0,0.0,0.0,0.8206578757777585,0.5714198552062546
1753093968.6104708,15986,1753108368,630729537,ukd_base,-0.5501465797424316,0.8063706159591675,0.0,0.0,0.0,0.8206342379370692,0.571453801742053
1753093968.6208527,15987,1753108368,640979152,ukd_base,-0.5437768697738647,0.8264681100845337,0.0,0.0,0.0,0.8208928834591401,0.571082195385339
1753093968.6403718,15988,1753108368,660723721,ukd_base,-0.5514354705810547,0.8252362608909607,0.0,0.0,0.0,0.8210948544545288,0.5707917658728935
1753093968.6514804,15989,1753108368,670716282,ukd_base,-0.6310464143753052,0.7805911898612976,0.0,0.0,0.0,0.8222026870724064,0.5691948184680835
1753093968.670472,15990,1753108368,690727237,ukd_base,-0.6512875556945801,0.7740991115570068,0.0,0.0,0.0,0.8224116537504284,0.5688928473583452
1753093968.6803682,15991,1753108368,700722595,ukd_base,-0.6655746698379517,0.777068018913269,0.0,0.0,0.0,0.822997091286285,0.5680455859649949
1753093968.7007468,15992,1753108368,720718032,ukd_base,-0.687447726726532,0.7726495862007141,0.0,0.0,0.0,0.8233285916381257,0.5675650008511628
1753093968.7108407,15993,1753108368,730924980,ukd_base,-0.7040616273880005,0.7761939167976379,0.0,0.0,0.0,0.8235223528964642,0.5672838216271212
1753093968.7312412,15994,1753108368,750816473,ukd_base,-0.7127934098243713,0.7853087782859802,0.0,0.0,0.0,0.8236226286453519,0.5671382244068203
1753093968.7402394,15995,1753108368,760613221,ukd_base,-0.711117684841156,0.8067077398300171,0.0,0.0,0.0,0.8230346381825524,0.5679911833397725
1753093968.761082,15996,1753108368,780645732,ukd_base,-0.7165848612785339,0.8077235817909241,0.0,0.0,0.0,0.8232890767749586,0.5676223181509307
1753093968.7702649,15997,1753108368,790612720,ukd_base,-0.7493084073066711,0.7941378355026245,0.0,0.0,0.0,0.819593466368523,0.5729455034172348
1753093968.7908676,15998,1753108368,810614527,ukd_base,-0.7507655024528503,0.8084540963172913,0.0,0.0,0.0,0.8198643907583067,0.5725577532149142
1753093968.8007476,15999,1753108368,820726587,ukd_base,-0.7403208613395691,0.8207426071166992,0.0,0.0,0.0,0.8182219429055732,0.5749024718574699
1753093968.8203669,16000,1753108368,840716691,ukd_base,-0.7543898224830627,0.8179383873939514,0.0,0.0,0.0,0.8165783632333079,0.5772345941635965
1753093968.8304846,16001,1753108368,850719141,ukd_base,-0.7859672904014587,0.8283639550209045,0.0,0.0,0.0,0.8152660511818227,0.5790865788380849
1753093968.840368,16002,1753108368,860722591,ukd_base,-0.7671166658401489,0.8410257697105408,0.0,0.0,0.0,0.815532809743039,0.5787108399128394
1753093968.8605907,16003,1753108368,880714472,ukd_base,-0.758296012878418,0.8416004180908203,0.0,0.0,0.0,0.8130729807048784,0.5821617713726008
1753093968.8804758,16004,1753108368,900716594,ukd_base,-0.7724111080169678,0.8356925249099731,0.0,0.0,0.0,0.8133555820277288,0.5817668752896941
1753093968.8907387,16005,1753108368,910735248,ukd_base,-0.7947731018066406,0.8361209034919739,0.0,0.0,0.0,0.8091265143125433,0.5876344814903509
1753093968.910753,16006,1753108368,930717204,ukd_base,-0.7817863821983337,0.8304063677787781,0.0,0.0,0.0,0.8094119486549446,0.5872412599388818
1753093968.9203694,16007,1753108368,940797727,ukd_base,-0.7951042652130127,0.8382483124732971,0.0,0.0,0.0,0.8073591511489205,0.5900603367928525
1753093968.9404407,16008,1753108368,960722535,ukd_base,-0.8079463839530945,0.8403549194335938,0.0,0.0,0.0,0.8051446616737341,0.5930784718553593
1753093968.9522238,16009,1753108368,970728429,ukd_base,-0.8229755163192749,0.844281792640686,0.0,0.0,0.0,0.8036140837925064,0.5951507408466619
1753093968.9707186,16010,1753108368,990719292,ukd_base,-0.8437774181365967,0.857912003993988,0.0,0.0,0.0,0.8038340725229917,0.594853581859521
1753093968.9800954,16011,1753108369,722576,ukd_base,-0.8619339466094971,0.8638613820075989,0.0,0.0,0.0,0.8026118071535572,0.5965017074725781
1753093969.0005567,16012,1753108369,20718013,ukd_base,-0.8706823587417603,0.8719474077224731,0.0,0.0,0.0,0.802817085523689,0.5962253996528911
1753093969.0105412,16013,1753108369,30713167,ukd_base,-0.8750390410423279,0.8793694376945496,0.0,0.0,0.0,0.8000455177107436,0.5999393049225464
1753093969.0301278,16014,1753108369,50736659,ukd_base,-0.890674889087677,0.8718873858451843,0.0,0.0,0.0,0.8002530160503897,0.5996624969949803
1753093969.0404713,16015,1753108369,60725739,ukd_base,-0.9072059392929077,0.8606166839599609,0.0,0.0,0.0,0.7979182813600135,0.6027656395909461
1753093969.0603466,16016,1753108369,80717953,ukd_base,-0.9427486658096313,0.8529410362243652,0.0,0.0,0.0,0.7942517231457835,0.6075888414709026
1753093969.0704484,16017,1753108369,90709904,ukd_base,-0.9415490031242371,0.8581305742263794,0.0,0.0,0.0,0.7888855208388932,0.6145401817706864
1753093969.0812767,16018,1753108369,100799279,ukd_base,-0.9419669508934021,0.8603734374046326,0.0,0.0,0.0,0.7891130821200922,0.6142479496318475
1753093969.1007671,16019,1753108369,120727050,ukd_base,-0.9513301849365234,0.8786722421646118,0.0,0.0,0.0,0.7827731188980782,0.6223071945033056
1753093969.12034,16020,1753108369,140721950,ukd_base,-0.9463251233100891,0.8818498849868774,0.0,0.0,0.0,0.7828329824082007,0.6222318873650576
1753093969.130725,16021,1753108369,150714307,ukd_base,-0.9479479193687439,0.8873562216758728,0.0,0.0,0.0,0.7698845335818404,0.6381832064160511
1753093969.1513407,16022,1753108369,170613782,ukd_base,-0.9419804215431213,0.8943583369255066,0.0,0.0,0.0,0.7699521620373175,0.6381016127342575
1753093969.160252,16023,1753108369,180610714,ukd_base,-0.9343964457511902,0.9070557355880737,0.0,0.0,0.0,0.7648454869749238,0.644213769686811
1753093969.180684,16024,1753108369,200716187,ukd_base,-0.9410004019737244,0.9165106415748596,0.0,0.0,0.0,0.7648382296792737,0.6442223858428661
1753093969.1905143,16025,1753108369,210710674,ukd_base,-0.9379467368125916,0.9138099551200867,0.0,0.0,0.0,0.7563815502201865,0.6541306830339848
1753093969.2101974,16026,1753108369,230724500,ukd_base,-0.944429874420166,0.9202672243118286,0.0,0.0,0.0,0.7495717814493003,0.6619230653595042
1753093969.2205086,16027,1753108369,240727375,ukd_base,-0.9648300409317017,0.9082263112068176,0.0,0.0,0.0,0.7425967950996972,0.6697387549691732
1753093969.240816,16028,1753108369,260800812,ukd_base,-0.954280436038971,0.9257550239562988,0.0,0.0,0.0,0.7346919849596126,0.678400830804403
1753093969.2514489,16029,1753108369,270719337,ukd_base,-0.9433772563934326,0.9540110230445862,0.0,0.0,0.0,0.7259434790871361,0.6877543639780593
1753093969.2708354,16030,1753108369,290717126,ukd_base,-0.9433440566062927,0.9448766112327576,0.0,0.0,0.0,0.7259424542524662,0.6877554457173757
1753093969.2810001,16031,1753108369,300718168,ukd_base,-0.9488760232925415,0.9498777389526367,0.0,0.0,0.0,0.7181617401019244,0.6958762210722365
1753093969.300589,16032,1753108369,320712290,ukd_base,-0.9362566471099854,0.9612208604812622,0.0,0.0,0.0,0.7095805574129953,0.7046243201461776
1753093969.3107312,16033,1753108369,330718333,ukd_base,-0.9046782851219177,0.9739378690719604,0.0,0.0,0.0,0.70957950744015,0.7046253775028218
1753093969.3305643,16034,1753108369,350714270,ukd_base,-0.8985522985458374,0.9839502573013306,0.0,0.0,0.0,0.7027215016038194,0.7114650315958425
1753093969.3404312,16035,1753108369,360744034,ukd_base,-0.8885687589645386,0.99599289894104,0.0,0.0,0.0,0.6898645501394226,0.7239384659354219
1753093969.3603492,16036,1753108369,380716601,ukd_base,-0.889477550983429,0.9972929954528809,0.0,0.0,0.0,0.6778496055261058,0.7352005932316041
1753093969.3704286,16037,1753108369,390724255,ukd_base,-0.8973374366760254,0.9917142987251282,0.0,0.0,0.0,0.6639178956826599,0.7478054745669549
1753093969.3904543,16038,1753108369,410715914,ukd_base,-0.8812334537506104,0.9910759925842285,0.0,0.0,0.0,0.6638375273075067,0.7478768196289114
1753093969.4017053,16039,1753108369,420784123,ukd_base,-0.8732384443283081,0.9956552982330322,0.0,0.0,0.0,0.6467567015026379,0.7626963806531586
1753093969.4203517,16040,1753108369,440716690,ukd_base,-0.8728435635566711,1.0022399425506592,0.0,0.0,0.0,0.6467555649957488,0.7626973443948981
1753093969.4321172,16041,1753108369,450719048,ukd_base,-0.8484336733818054,1.0272554159164429,0.0,0.0,0.0,0.6278657368901538,0.7783216664332198
1753093969.4510128,16042,1753108369,470721059,ukd_base,-0.8372617363929749,1.0508711338043213,0.0,0.0,0.0,0.6088749509742664,0.7932662189177633
1753093969.4602478,16043,1753108369,480714527,ukd_base,-0.8227387070655823,1.0798219442367554,0.0,0.0,0.0,0.5907311382169994,0.806868466567413
1753093969.480436,16044,1753108369,500727927,ukd_base,-0.8071300983428955,1.0924558639526367,0.0,0.0,0.0,0.5762310674881351,0.8172868265556984
1753093969.5007064,16045,1753108369,520724809,ukd_base,-0.7520628571510315,1.1063885688781738,0.0,0.0,0.0,0.5549767671140963,0.8318658473357264
1753093969.5105107,16046,1753108369,530718166,ukd_base,-0.6999529004096985,1.1267439126968384,0.0,0.0,0.0,0.5551757280893301,0.8317330767382539
1753093969.5202181,16047,1753108369,540618117,ukd_base,-0.6424610614776611,1.1753959655761719,0.0,0.0,0.0,0.5375928059877854,0.8432045866515311
1753093969.540162,16048,1753108369,560610498,ukd_base,-0.5998244285583496,1.207933783531189,0.0,0.0,0.0,0.5377825197621781,0.8430836028759203
1753093969.5525084,16049,1753108369,570616078,ukd_base,-0.5527295470237732,1.2404955625534058,0.0,0.0,0.0,0.5191423999294624,0.8546877608784849
1753093969.5719464,16050,1753108369,590615534,ukd_base,-0.5064424276351929,1.26719069480896,0.0,0.0,0.0,0.496328776523207,0.8681346356383763
1753093969.580219,16051,1753108369,600615187,ukd_base,-0.4687379002571106,1.2801326513290405,0.0,0.0,0.0,0.4731661163086563,0.8809732268221226
1753093969.600321,16052,1753108369,620616606,ukd_base,-0.4823920726776123,1.2675893306732178,0.0,0.0,0.0,0.47335477423229616,0.8808718736067647
1753093969.6120265,16053,1753108369,630615204,ukd_base,-0.38755327463150024,1.3040215969085693,0.0,0.0,0.0,0.4346804826492628,0.9005847422668252
1753093969.6318157,16054,1753108369,650613937,ukd_base,-0.3283252418041229,1.3262393474578857,0.0,0.0,0.0,0.4347762972639164,0.9005384896479876
1753093969.6399794,16055,1753108369,660614758,ukd_base,-0.2816086411476135,1.3288819789886475,0.0,0.0,0.0,0.4174628110643312,0.9086940086620284
1753093969.659977,16056,1753108369,680616398,ukd_base,-0.2517140507698059,1.3139822483062744,0.0,0.0,0.0,0.4175913883832019,0.9086349279816344
1753093969.671796,16057,1753108369,690616941,ukd_base,-0.19893856346607208,1.3175784349441528,0.0,0.0,0.0,0.39973899507265975,0.9166290066424366
1753093969.6920538,16058,1753108369,712441103,ukd_base,-0.17408716678619385,1.3233572244644165,0.0,0.0,0.0,0.38199267887024235,0.9241653495395377
1753093969.7002885,16059,1753108369,720621420,ukd_base,-0.14992821216583252,1.3218556642532349,0.0,0.0,0.0,0.36268830121211,0.9319105086669395
1753093969.7240322,16060,1753108369,742355935,ukd_base,-0.08014822006225586,1.3248096704483032,0.0,0.0,0.0,0.34098365617710163,0.9400692241638889
1753093969.7320952,16061,1753108369,750732362,ukd_base,-0.057992007583379745,1.2937631607055664,0.0,0.0,0.0,0.3410943179862406,0.9400290773361755
1753093969.756966,16062,1753108369,770732299,ukd_base,-0.03161225840449333,1.2781527042388916,0.0,0.0,0.0,0.3192207987544528,0.9476803689232827
1753093969.7603045,16063,1753108369,780728323,ukd_base,0.029662081971764565,1.2906397581100464,0.0,0.0,0.0,0.2992745052690285,0.9541670558638976
1753093969.780414,16064,1753108369,800723816,ukd_base,0.09602314233779907,1.290117859840393,0.0,0.0,0.0,0.2822404132782933,0.9593437074961706
1753093969.7923112,16065,1753108369,810724377,ukd_base,0.1426146924495697,1.2756330966949463,0.0,0.0,0.0,0.26683048118285013,0.9637434795171009
1753093969.812219,16066,1753108369,830717721,ukd_base,0.1721419245004654,1.270901083946228,0.0,0.0,0.0,0.2670711614916775,0.9636768102945542
1753093969.8325732,16067,1753108369,850731029,ukd_base,0.18033312261104584,1.2720353603363037,0.0,0.0,0.0,0.25430589715785884,0.9671238341963952
1753093969.8404336,16068,1753108369,860731423,ukd_base,0.17067989706993103,1.2719273567199707,0.0,0.0,0.0,0.2546535957917385,0.9670323397644661
1753093969.8523512,16069,1753108369,870712077,ukd_base,0.15035827457904816,1.2765048742294312,0.0,0.0,0.0,0.24312471891021065,0.9699950366135031
1753093969.8719387,16070,1753108369,890614052,ukd_base,0.2114461064338684,1.2479442358016968,0.0,0.0,0.0,0.23263966279643916,0.9725629991388522
1753093969.8840528,16071,1753108369,902396894,ukd_base,0.2626117169857025,1.2364304065704346,0.0,0.0,0.0,0.22214632639521137,0.9750133382006178
1753093969.900815,16072,1753108369,920933880,ukd_base,0.2586117684841156,1.2207149267196655,0.0,0.0,0.0,0.21279551542676034,0.9770967549911623
1753093969.9161844,16073,1753108369,930725129,ukd_base,0.2522810101509094,1.207390546798706,0.0,0.0,0.0,0.20698659650813991,0.9783437784674549
1753093969.920229,16074,1753108369,940725338,ukd_base,0.24316585063934326,1.202077865600586,0.0,0.0,0.0,0.20723144980913874,0.9782919432408724
1753093969.940572,16075,1753108369,960722719,ukd_base,0.24330121278762817,1.2184442281723022,0.0,0.0,0.0,0.20077870120027425,0.9796366230109668
1753093969.9604383,16076,1753108369,980730527,ukd_base,0.24523939192295074,1.208108901977539,0.0,0.0,0.0,0.20089454732768067,0.9796128729523751
1753093969.972435,16077,1753108369,990721680,ukd_base,0.2637859284877777,1.1941357851028442,0.0,0.0,0.0,0.196432926344144,0.9805172642273445
1753093969.9922893,16078,1753108370,10731969,ukd_base,0.2701253294944763,1.1948941946029663,0.0,0.0,0.0,0.18881430567918642,0.9820128094739329
1753093970.0123913,16079,1753108370,32468910,ukd_base,0.2878411114215851,1.2107887268066406,0.0,0.0,0.0,0.1822213916551117,0.9832575270107391
1753093970.0201838,16080,1753108370,40727412,ukd_base,0.29250848293304443,1.2020964622497559,0.0,0.0,0.0,0.17358775627455136,0.984818405022757
1753093970.0324407,16081,1753108370,50728436,ukd_base,0.28995630145072937,1.1974143981933594,0.0,0.0,0.0,0.17372757733186314,0.9847937494086777
1753093970.0523093,16082,1753108370,70720243,ukd_base,0.28324222564697266,1.1983972787857056,0.0,0.0,0.0,0.16176499050915427,0.9868293103903902
1753093970.060436,16083,1753108370,80723749,ukd_base,0.30108150839805603,1.2028824090957642,0.0,0.0,0.0,0.1477126825680461,0.9890303147065572
1753093970.080413,16084,1753108370,100727982,ukd_base,0.30296406149864197,1.1869378089904785,0.0,0.0,0.0,0.14785475247296584,0.9890090859901935
1753093970.0922146,16085,1753108370,110737450,ukd_base,0.32989954948425293,1.181294560432434,0.0,0.0,0.0,0.1235701801806868,0.9923358355769042
1753093970.112285,16086,1753108370,130726036,ukd_base,0.3621067404747009,1.1729235649108887,0.0,0.0,0.0,0.12370136897624583,0.9923194905439491
1753093970.1325696,16087,1753108370,150717195,ukd_base,0.3713136911392212,1.1645175218582153,0.0,0.0,0.0,0.11615256111899057,0.9932313841927767
1753093970.1404302,16088,1753108370,160727978,ukd_base,0.37169626355171204,1.1605268716812134,0.0,0.0,0.0,0.11625882661487565,0.9932189513063735
1753093970.1526823,16089,1753108370,170729595,ukd_base,0.37169626355171204,1.1605268716812134,0.0,0.0,0.0,0.11625882661487565,0.9932189513063735
1753093970.1714637,16090,1753108370,191103695,ukd_base,0.505951464176178,1.1090623140335083,0.0,0.0,0.0,0.1020574487437274,0.9947785065811995
1753093970.180705,16091,1753108370,200726445,ukd_base,0.45114433765411377,1.1295512914657593,0.0,0.0,0.0,0.09878550694684973,0.9951087496436025
1753093970.2015643,16092,1753108370,220801529,ukd_base,0.44455963373184204,1.1397899389266968,0.0,0.0,0.0,0.09626047014765553,0.9953561784039683
1753093970.2104578,16093,1753108370,230715758,ukd_base,0.46328356862068176,1.1441570520401,0.0,0.0,0.0,0.09429801567374861,0.9955440142153402
1753093970.2313285,16094,1753108370,250827361,ukd_base,0.49295541644096375,1.1335242986679077,0.0,0.0,0.0,0.09429801567374861,0.9955440142153402
1753093970.2404366,16095,1753108370,260723052,ukd_base,0.5414609313011169,1.1191502809524536,0.0,0.0,0.0,0.09333210977254783,0.9956350321706268
1753093970.2605736,16096,1753108370,280721341,ukd_base,0.518060564994812,1.1290992498397827,0.0,0.0,0.0,0.09346373499637511,0.9956226846755388
1753093970.2704551,16097,1753108370,290723347,ukd_base,0.4773048758506775,1.1591711044311523,0.0,0.0,0.0,0.09236071518475836,0.9957256139572588
1753093970.290882,16098,1753108370,310717710,ukd_base,0.457564115524292,1.1691683530807495,0.0,0.0,0.0,0.09246896880434378,0.9957155667198647
1753093970.3005357,16099,1753108370,320716808,ukd_base,0.4066542088985443,1.1955962181091309,0.0,0.0,0.0,0.09307366145366906,0.9956592256106543
1753093970.320553,16100,1753108370,340721986,ukd_base,0.3554617464542389,1.2234090566635132,0.0,0.0,0.0,0.09333691667372596,0.9956345815538158
1753093970.3306637,16101,1753108370,350726028,ukd_base,0.3146551251411438,1.2394863367080688,0.0,0.0,0.0,0.09370146333796217,0.995600339377365
1753093970.3508055,16102,1753108370,370722336,ukd_base,0.29245156049728394,1.2237001657485962,0.0,0.0,0.0,0.09327585106372792,0.9956403043310055
1753093970.3613262,16103,1753108370,380664193,ukd_base,0.34076252579689026,1.1930001974105835,0.0,0.0,0.0,0.09210823786502897,0.9957490007614365
1753093970.3802073,16104,1753108370,400609816,ukd_base,0.3435773551464081,1.1857244968414307,0.0,0.0,0.0,0.09168897237358659,0.9957876944133602
1753093970.39042,16105,1753108370,410710136,ukd_base,0.3186096251010895,1.2067993879318237,0.0,0.0,0.0,0.09192763045010664,0.9957656906922575
1753093970.4103942,16106,1753108370,430721684,ukd_base,0.2252504676580429,1.2190691232681274,0.0,0.0,0.0,0.09238006322543436,0.9957238190976777
1753093970.4204383,16107,1753108370,440722060,ukd_base,0.18610641360282898,1.213606357574463,0.0,0.0,0.0,0.09202615475202024,0.9957565901572317
1753093970.4404404,16108,1753108370,460718534,ukd_base,0.06651315838098526,1.2176399230957031,0.0,0.0,0.0,0.09106099339425107,0.9958453170458011
1753093970.45146,16109,1753108370,470727687,ukd_base,0.03087797574698925,1.2222286462783813,0.0,0.0,0.0,0.09021809138773516,0.9959220330861017
1753093970.4702117,16110,1753108370,490713384,ukd_base,0.04276970773935318,1.2390950918197632,0.0,0.0,0.0,0.0903266631794155,0.9959121918717897
1753093970.4803321,16111,1753108370,500717426,ukd_base,0.04298493638634682,1.233134150505066,0.0,0.0,0.0,0.08830209004045551,0.9960937410176249
1753093970.5013692,16112,1753108370,520806048,ukd_base,0.01450795866549015,1.2476338148117065,0.0,0.0,0.0,0.08840925565274933,0.9960842351502843
1753093970.5108593,16113,1753108370,530719869,ukd_base,0.004922357853502035,1.2633931636810303,0.0,0.0,0.0,0.08667791680474576,0.996236386977704
1753093970.530413,16114,1753108370,550619121,ukd_base,0.16403022408485413,1.25167977809906,0.0,0.0,0.0,0.08570308820066519,0.99632072179237
1753093970.540295,16115,1753108370,560612479,ukd_base,0.037432264536619186,1.2791197299957275,0.0,0.0,0.0,0.08606658017140326,0.9962893875664838
1753093970.560465,16116,1753108370,580717971,ukd_base,-0.1442289650440216,1.2897276878356934,0.0,0.0,0.0,0.08619852949771857,0.9962779800399238
1753093970.5709763,16117,1753108370,590715309,ukd_base,-0.25808918476104736,1.2847704887390137,0.0,0.0,0.0,0.08753741451075359,0.9961612324622819
1753093970.590682,16118,1753108370,610720006,ukd_base,-0.3027760088443756,1.2655922174453735,0.0,0.0,0.0,0.08916633218376459,0.9960167494600152
1753093970.6002765,16119,1753108370,620725456,ukd_base,-0.3998829126358032,1.190551996231079,0.0,0.0,0.0,0.09033348969142223,0.995911572701196
1753093970.6207123,16120,1753108370,640715411,ukd_base,-0.538208544254303,1.149368405342102,0.0,0.0,0.0,0.09046544830218171,0.9958995946698067
1753093970.6306741,16121,1753108370,650722843,ukd_base,-0.6261716485023499,1.11110258102417,0.0,0.0,0.0,0.09011509856592596,0.9959313575796545
1753093970.651119,16122,1753108370,670719909,ukd_base,-0.7236239314079285,1.0555574893951416,0.0,0.0,0.0,0.08725484138739155,0.9961860231174001
1753093970.660185,16123,1753108370,680610286,ukd_base,-0.7993012070655823,1.0225062370300293,0.0,0.0,0.0,0.08293599818546686,0.9965548756616367
1753093970.670292,16124,1753108370,690613940,ukd_base,-0.8825386762619019,0.9483795166015625,0.0,0.0,0.0,0.08306643833603826,0.996544011482767
1753093970.6904547,16125,1753108370,710617895,ukd_base,-0.9497159123420715,0.9093154072761536,0.0,0.0,0.0,0.07796409727391822,0.9969561673094074
1753093970.710395,16126,1753108370,730716239,ukd_base,-1.2108497619628906,0.5315642356872559,0.0,0.0,0.0,0.07194421079023279,0.9974086577395298
1753093970.7203097,16127,1753108370,740722930,ukd_base,-0.9589827060699463,0.9181880354881287,0.0,0.0,0.0,0.06660689818118518,0.9977792947915292
1753093970.7301533,16128,1753108370,750716602,ukd_base,-1.2383015155792236,0.5436155796051025,0.0,0.0,0.0,0.06673910447550126,0.9977704605438107
1753093970.751779,16129,1753108370,770716928,ukd_base,-1.3549091815948486,0.08638326823711395,0.0,0.0,0.0,0.06168287302724965,0.9980957985960587
1753093970.770427,16130,1753108370,790613773,ukd_base,-1.3549091815948486,0.08638326823711395,0.0,0.0,0.0,0.06168287302724965,0.9980957985960587
1753093970.7806754,16131,1753108370,800695982,ukd_base,-1.3549091815948486,0.08638326823711395,0.0,0.0,0.0,0.06168287302724965,0.9980957985960587
1753093970.8004477,16132,1753108370,820614827,ukd_base,-1.3549091815948486,0.08638326823711395,0.0,0.0,0.0,0.06168287302724965,0.9980957985960587
1753093970.8102846,16133,1753108370,830608962,ukd_base,-1.3504735231399536,-0.07144424319267273,0.0,0.0,0.0,0.04060464592541485,0.9991752912924097
1753093970.8304064,16134,1753108370,850616955,ukd_base,-1.3504735231399536,-0.07144424319267273,0.0,0.0,0.0,0.04060464592541485,0.9991752912924097
1753093970.8402145,16135,1753108370,860610386,ukd_base,-1.3504735231399536,-0.07144424319267273,0.0,0.0,0.0,0.04060464592541485,0.9991752912924097
1753093970.8603158,16136,1753108370,880714952,ukd_base,-1.3504735231399536,-0.07144424319267273,0.0,0.0,0.0,0.04060464592541485,0.9991752912924097
1753093970.8703961,16137,1753108370,890726920,ukd_base,-1.2981555461883545,0.39751091599464417,0.0,0.0,0.0,0.029483472622876792,0.9995652679250595
1753093970.890794,16138,1753108370,910719413,ukd_base,-1.1549489498138428,0.8728076815605164,0.0,0.0,0.0,0.0234272074565238,0.9997255453127069
1753093970.9005575,16139,1753108370,920723844,ukd_base,-0.8681554794311523,1.269127368927002,0.0,0.0,0.0,0.016396400569944354,0.999865569988461
1753093970.9238243,16140,1753108370,942728653,ukd_base,-0.8681554794311523,1.269127368927002,0.0,0.0,0.0,0.016396400569944354,0.999865569988461
1753093970.931981,16141,1753108370,950614047,ukd_base,-0.8681554794311523,1.269127368927002,0.0,0.0,0.0,0.016396400569944354,0.999865569988461
1753093970.9532034,16142,1753108370,973218110,ukd_base,-1.0775837898254395,1.2198642492294312,0.0,0.0,0.0,-0.00758311242114832,0.9999712477896593
1753093970.9602222,16143,1753108370,980617878,ukd_base,-0.9160267114639282,1.4530067443847656,0.0,0.0,0.0,-0.022636787672824055,0.9997437550912011
1753093970.9802244,16144,1753108371,611390,ukd_base,-1.058485984802246,1.465338945388794,0.0,0.0,0.0,-0.03768753855665205,0.9992895723650582
1753093970.9921925,16145,1753108371,10612358,ukd_base,-0.4673629403114319,1.6528476476669312,0.0,0.0,0.0,-0.052449333715997006,0.9986235864392289
1753093971.0119524,16146,1753108371,30615369,ukd_base,0.13442248106002808,1.8026484251022339,0.0,0.0,0.0,-0.053513805967885145,0.9985671096981071
1753093971.0203257,16147,1753108371,40615449,ukd_base,0.7814592719078064,1.7292802333831787,0.0,0.0,0.0,-0.06453417673952949,0.997915497440816
1753093971.0403154,16148,1753108371,60616423,ukd_base,1.1140261888504028,1.4235718250274658,0.0,0.0,0.0,-0.06535825556482285,0.997861863400703
1753093971.052598,16149,1753108371,70614780,ukd_base,0.841758131980896,1.5392248630523682,0.0,0.0,0.0,-0.07981573775678162,0.9968096347880776
1753093971.0720253,16150,1753108371,90615162,ukd_base,1.2544071674346924,1.1009955406188965,0.0,0.0,0.0,-0.09438129769661571,0.9955361222201347
1753093971.0804656,16151,1753108371,100616667,ukd_base,1.5225913524627686,0.591184675693512,0.0,0.0,0.0,-0.11055697487051551,0.9938697879035665
1753093971.100439,16152,1753108371,120615049,ukd_base,1.295206069946289,1.1368048191070557,0.0,0.0,0.0,-0.1104597627232796,0.9938805968621768
1753093971.1122086,16153,1753108371,130614943,ukd_base,1.295206069946289,1.1368048191070557,0.0,0.0,0.0,-0.1104597627232796,0.9938805968621768
1753093971.131965,16154,1753108371,150615362,ukd_base,1.295206069946289,1.1368048191070557,0.0,0.0,0.0,-0.1104597627232796,0.9938805968621768
1753093971.152464,16155,1753108371,170611410,ukd_base,1.295206069946289,1.1368048191070557,0.0,0.0,0.0,-0.1104597627232796,0.9938805968621768
1753093971.1802056,16156,1753108371,200615186,ukd_base,1.6903868913650513,0.6563355922698975,0.0,0.0,0.0,-0.17171844471373443,0.9851460682280045
1753093971.192336,16157,1753108371,212414898,ukd_base,1.9029407501220703,0.03874587640166283,0.0,0.0,0.0,-0.17067572917746263,0.9853272529823487
1753093971.2004323,16158,1753108371,220612104,ukd_base,1.8581825494766235,0.7214864492416382,0.0,0.0,0.0,-0.18252584480213377,0.9832010557252608
1753093971.2122622,16159,1753108371,230614573,ukd_base,1.5657711029052734,1.3742802143096924,0.0,0.0,0.0,-0.1812572823635949,0.9834357109593712
1753093971.232465,16160,1753108371,250616195,ukd_base,1.3316657543182373,1.717571496963501,0.0,0.0,0.0,-0.19554047309727143,0.9806956323859586
1753093971.2564096,16161,1753108371,270614502,ukd_base,1.3561584949493408,1.8120485544204712,0.0,0.0,0.0,-0.21052843814919503,0.9775877335208644
1753093971.2601917,16162,1753108371,280613934,ukd_base,0.6785406470298767,2.2533905506134033,0.0,0.0,0.0,-0.22392957110039377,0.9746053289341249
1753093971.2802894,16163,1753108371,300614223,ukd_base,0.011916916817426682,2.4433059692382812,0.0,0.0,0.0,-0.23640828459103383,0.971653808193394
1753093971.2922564,16164,1753108371,310615895,ukd_base,-0.6616945266723633,2.4453930854797363,0.0,0.0,0.0,-0.2352664996198856,0.9719308998877474
1753093971.3118677,16165,1753108371,330613295,ukd_base,-1.22745680809021,2.3105316162109375,0.0,0.0,0.0,-0.24482431467794008,0.9695674576544311
1753093971.3205254,16166,1753108371,340802262,ukd_base,-1.3511348962783813,2.3449268341064453,0.0,0.0,0.0,-0.2584143153504453,0.9660341824293592
1753093971.3404405,16167,1753108371,360646663,ukd_base,-1.2985132932662964,2.476560115814209,0.0,0.0,0.0,-0.2576168578518864,0.9662471498278901
1753093971.3603654,16168,1753108371,380613082,ukd_base,-1.2985132932662964,2.476560115814209,0.0,0.0,0.0,-0.2576168578518864,0.9662471498278901
1753093971.3717473,16169,1753108371,390613810,ukd_base,-0.37350964546203613,2.7935750484466553,0.0,0.0,0.0,-0.27968323692489455,0.9600923325301652
1753093971.3840358,16170,1753108371,402401114,ukd_base,-0.28304970264434814,2.8946280479431152,0.0,0.0,0.0,-0.2929409313311964,0.9561305406432802
1753093971.400432,16171,1753108371,420615863,ukd_base,-1.1428191661834717,2.576341390609741,0.0,0.0,0.0,-0.3076093154906932,0.9515127476935593
1753093971.4157548,16172,1753108371,430611924,ukd_base,-2.0194456577301025,2.0930428504943848,0.0,0.0,0.0,-0.31934450070680587,0.9476386916268884
1753093971.4321802,16173,1753108371,450613991,ukd_base,-1.704825520515442,2.4666125774383545,0.0,0.0,0.0,-0.31891451417480915,0.9477834840556388
1753093971.4403148,16174,1753108371,460607441,ukd_base,-2.437851905822754,1.7258254289627075,0.0,0.0,0.0,-0.33034779934060177,0.9438592752475453
1753093971.4523194,16175,1753108371,470610835,ukd_base,-2.437851905822754,1.7258254289627075,0.0,0.0,0.0,-0.33034779934060177,0.9438592752475453
1753093971.4720943,16176,1753108371,490614180,ukd_base,-2.794999122619629,0.7615981698036194,0.0,0.0,0.0,-0.33823291160960894,0.9410624301841437
1753093971.492148,16177,1753108371,510719301,ukd_base,-2.7992043495178223,-0.20776136219501495,0.0,0.0,0.0,-0.35111141294587184,0.9363336882218611
1753093971.5122743,16178,1753108371,530722146,ukd_base,-2.7992043495178223,-0.20776136219501495,0.0,0.0,0.0,-0.35111141294587184,0.9363336882218611
1753093971.5204012,16179,1753108371,540718818,ukd_base,-2.7992043495178223,-0.20776136219501495,0.0,0.0,0.0,-0.35111141294587184,0.9363336882218611
1753093971.5322049,16180,1753108371,550716694,ukd_base,-2.7992043495178223,-0.20776136219501495,0.0,0.0,0.0,-0.35111141294587184,0.9363336882218611
1753093971.5521533,16181,1753108371,570612039,ukd_base,-2.7992043495178223,-0.20776136219501495,0.0,0.0,0.0,-0.35111141294587184,0.9363336882218611
1753093971.5602767,16182,1753108371,580617748,ukd_base,-2.6350295543670654,0.6619559526443481,0.0,0.0,0.0,-0.40221458979875807,0.915545424188782
1753093971.5802813,16183,1753108371,600616685,ukd_base,-2.4962575435638428,0.818121612071991,0.0,0.0,0.0,-0.40200262619144245,0.9156385141174346
1753093971.5920184,16184,1753108371,610616802,ukd_base,-2.4962575435638428,0.818121612071991,0.0,0.0,0.0,-0.40200262619144245,0.9156385141174346
1753093971.6118963,16185,1753108371,630617202,ukd_base,-2.7153983116149902,-0.09043588489294052,0.0,0.0,0.0,-0.4280542186523607,0.9037530558144282
1753093971.6201935,16186,1753108371,640614356,ukd_base,-2.6032302379608154,-1.0497150421142578,0.0,0.0,0.0,-0.4378743777888783,0.8990361668342396
1753093971.640284,16187,1753108371,660615367,ukd_base,-2.7153983116149902,-0.09043588489294052,0.0,0.0,0.0,-0.4528900042250741,0.8915663991386241
1753093971.6525652,16188,1753108371,670614557,ukd_base,-2.4962575435638428,0.818121612071991,0.0,0.0,0.0,-0.4524922482034543,0.8917683361253547
1753093971.672654,16189,1753108371,692807790,ukd_base,-1.9936565160751343,1.5688260793685913,0.0,0.0,0.0,-0.46477989625908595,0.8854262521708928
1753093971.6801436,16190,1753108371,700618370,ukd_base,-1.2874842882156372,2.080798625946045,0.0,0.0,0.0,-0.4772869974555843,0.8787474734301277
1753093971.7040129,16191,1753108371,722527606,ukd_base,-0.5923236608505249,2.2812602519989014,0.0,0.0,0.0,-0.49116938809931093,0.8710640804178235
1753093971.712404,16192,1753108371,730615517,ukd_base,-0.1828681379556656,2.2595160007476807,0.0,0.0,0.0,-0.4917097751459076,0.870759149837635
1753093971.7356582,16193,1753108371,750614269,ukd_base,0.02742363139986992,2.1767311096191406,0.0,0.0,0.0,-0.5061300094624045,0.8624571951822225
1753093971.752538,16194,1753108371,770615094,ukd_base,0.18171584606170654,2.078977584838867,0.0,0.0,0.0,-0.5174773011403501,0.8556969339693228
1753093971.760398,16195,1753108371,780617044,ukd_base,0.3951508700847626,1.9574168920516968,0.0,0.0,0.0,-0.5287684109698729,0.8487661442119352
1753093971.7717824,16196,1753108371,790615346,ukd_base,0.3476010859012604,1.8749549388885498,0.0,0.0,0.0,-0.5300731187527431,0.8479519377746243
1753093971.791658,16197,1753108371,810621005,ukd_base,0.32674962282180786,1.7872812747955322,0.0,0.0,0.0,-0.5384241283369574,0.8426739927306334
1753093971.812257,16198,1753108371,830618517,ukd_base,0.35634690523147583,1.6897379159927368,0.0,0.0,0.0,-0.5515873941925358,0.8341171060276178
1753093971.8202999,16199,1753108371,840616911,ukd_base,0.36452844738960266,1.5957987308502197,0.0,0.0,0.0,-0.5528634866200175,0.8332718434954812
1753093971.840234,16200,1753108371,860610089,ukd_base,0.34255439043045044,1.5084986686706543,0.0,0.0,0.0,-0.5635215835566539,0.8261013405544148
1753093971.8518333,16201,1753108371,870617039,ukd_base,0.28901055455207825,1.4279502630233765,0.0,0.0,0.0,-0.5751923593859773,0.8180181842135251
1753093971.8640094,16202,1753108371,882754655,ukd_base,0.29459148645401,1.3541595935821533,0.0,0.0,0.0,-0.5890394183684795,0.80810430243139
1753093971.880396,16203,1753108371,900615259,ukd_base,0.27103391289711,1.3021756410598755,0.0,0.0,0.0,-0.6031959063615365,0.797593065760156
1753093971.8957663,16204,1753108371,910612079,ukd_base,0.24329103529453278,1.2465380430221558,0.0,0.0,0.0,-0.6046159264400528,0.7965171570625686
1753093971.9120684,16205,1753108371,930724534,ukd_base,0.21773165464401245,1.2360097169876099,0.0,0.0,0.0,-0.6172346486373852,0.7867791230844167
1753093971.9204295,16206,1753108371,940732002,ukd_base,0.20048941671848297,1.2161128520965576,0.0,0.0,0.0,-0.6286863329930765,0.7776589835575222
1753093971.9402978,16207,1753108371,960616552,ukd_base,0.21833936870098114,1.1939704418182373,0.0,0.0,0.0,-0.6297675819983897,0.7767836202340401
1753093971.952199,16208,1753108371,970615724,ukd_base,0.22754210233688354,1.181935429573059,0.0,0.0,0.0,-0.6389440837898863,0.7692531818523098
1753093971.971706,16209,1753108371,990611179,ukd_base,0.20722654461860657,1.1571381092071533,0.0,0.0,0.0,-0.652001347439428,0.7582178070562379
1753093971.9801762,16210,1753108372,614611,ukd_base,0.19372570514678955,1.139533281326294,0.0,0.0,0.0,-0.6632072414515652,0.7484358054544193
1753093972.0002224,16211,1753108372,20611289,ukd_base,0.20130696892738342,1.130332112312317,0.0,0.0,0.0,-0.663982389880722,0.7477482102474635
1753093972.0119395,16212,1753108372,30613609,ukd_base,0.21867884695529938,1.1185061931610107,0.0,0.0,0.0,-0.6750899789440663,0.737735399943164
1753093972.024463,16213,1753108372,42590486,ukd_base,0.22310009598731995,1.099368929862976,0.0,0.0,0.0,-0.6869482490144416,0.7267063390228495
1753093972.0403032,16214,1753108372,60646162,ukd_base,0.22851793467998505,1.0793182849884033,0.0,0.0,0.0,-0.6989926865315534,0.7151288164907086
1753093972.0603049,16215,1753108372,80617526,ukd_base,0.2210426926612854,1.0645650625228882,0.0,0.0,0.0,-0.69967249479508,0.7144637149829436
1753093972.0720322,16216,1753108372,90611031,ukd_base,0.2323569804430008,1.053776502609253,0.0,0.0,0.0,-0.7151438456352252,0.6989773101110374
1753093972.0923386,16217,1753108372,110619653,ukd_base,0.21249327063560486,1.055179476737976,0.0,0.0,0.0,-0.7157247041063158,0.6983825226420881
1753093972.1128714,16218,1753108372,130723738,ukd_base,0.20731277763843536,1.0512064695358276,0.0,0.0,0.0,-0.7216798246152228,0.6922270081001906
1753093972.1204267,16219,1753108372,140717928,ukd_base,0.18776415288448334,1.0452877283096313,0.0,0.0,0.0,-0.7221704714624314,0.6917151221042731
1753093972.1305566,16220,1753108372,150723841,ukd_base,0.19117669761180878,1.034902572631836,0.0,0.0,0.0,-0.7386849705953757,0.6740508246538304
1753093972.1514425,16221,1753108372,170718686,ukd_base,0.1851336807012558,1.020024061203003,0.0,0.0,0.0,-0.7389870241125591,0.6737196584583709
1753093972.1605234,16222,1753108372,180713247,ukd_base,0.17143042385578156,1.0355887413024902,0.0,0.0,0.0,-0.7482987276173585,0.6633619029204514
1753093972.170549,16223,1753108372,190722789,ukd_base,0.19649706780910492,1.0159494876861572,0.0,0.0,0.0,-0.7486054736989515,0.6630157198347325
1753093972.1904278,16224,1753108372,210725504,ukd_base,0.226387158036232,0.9990144968032837,0.0,0.0,0.0,-0.7597202534021783,0.6502500569554224
1753093972.2106853,16225,1753108372,230712145,ukd_base,0.2308739423751831,0.975081205368042,0.0,0.0,0.0,-0.7708575411394128,0.6370075755189246
1753093972.220427,16226,1753108372,240716891,ukd_base,0.2240256369113922,0.9852809906005859,0.0,0.0,0.0,-0.7805771118673839,0.6250594951112843
1753093972.2404296,16227,1753108372,260717254,ukd_base,0.24925486743450165,0.966682493686676,0.0,0.0,0.0,-0.7891297403039267,0.6142265485697092
1753093972.250792,16228,1753108372,270717371,ukd_base,0.26662904024124146,0.9345179200172424,0.0,0.0,0.0,-0.7975182312654943,0.6032948456593655
1753093972.2704058,16229,1753108372,290723752,ukd_base,0.23416991531848907,0.9333393573760986,0.0,0.0,0.0,-0.7975751870440407,0.6032195462778568
1753093972.280428,16230,1753108372,300724850,ukd_base,0.23612627387046814,0.9383330345153809,0.0,0.0,0.0,-0.8054506167546942,0.5926628923506876
1753093972.2902815,16231,1753108372,310735097,ukd_base,0.22365900874137878,0.9174419045448303,0.0,0.0,0.0,-0.8053809493814805,0.592757561211483
1753093972.3107662,16232,1753108372,330717497,ukd_base,0.2362876832485199,0.8881224393844604,0.0,0.0,0.0,-0.813353778871409,0.5817693962349678
1753093972.3305473,16233,1753108372,350712860,ukd_base,0.19175109267234802,0.8837490081787109,0.0,0.0,0.0,-0.8207587806180291,0.5712749110878281
1753093972.3414006,16234,1753108372,360794568,ukd_base,0.22142916917800903,0.8630662560462952,0.0,0.0,0.0,-0.828748624009066,0.5596210487491331
1753093972.360775,16235,1753108372,380722302,ukd_base,0.23232267796993256,0.8536646366119385,0.0,0.0,0.0,-0.828603030329982,0.5598365994895038
1753093972.3707876,16236,1753108372,390729382,ukd_base,0.25572434067726135,0.8486054539680481,0.0,0.0,0.0,-0.8370447538192534,0.5471344259902364
1753093972.390197,16237,1753108372,410717467,ukd_base,0.25023311376571655,0.8263529539108276,0.0,0.0,0.0,-0.8445836146837217,0.5354236806565233
1753093972.4011917,16238,1753108372,420717361,ukd_base,0.2242770493030548,0.8264972567558289,0.0,0.0,0.0,-0.8513776571159419,0.5245532241477213
1753093972.4204276,16239,1753108372,440712873,ukd_base,0.21216289699077606,0.809116780757904,0.0,0.0,0.0,-0.8572447789479077,0.5149091074806823
1753093972.4305453,16240,1753108372,450716119,ukd_base,0.2002367526292801,0.8132408857345581,0.0,0.0,0.0,-0.8626994555474193,0.5057169657013557
1753093972.4510357,16241,1753108372,470728185,ukd_base,0.18951188027858734,0.8073257803916931,0.0,0.0,0.0,-0.8624525412759985,0.5061379397422922
1753093972.4604287,16242,1753108372,480724561,ukd_base,0.1704256385564804,0.7964597344398499,0.0,0.0,0.0,-0.8675711546630477,0.4973130720146276
1753093972.4804323,16243,1753108372,500711721,ukd_base,0.16970185935497284,0.7860321402549744,0.0,0.0,0.0,-0.8674471048506851,0.4975294165033506
