Time,header.seq,header.stamp.secs,header.stamp.nsecs,header.frame_id,pose.position.x,pose.position.y,pose.position.z,pose.orientation.x,pose.orientation.y,pose.orientation.z,pose.orientation.w
1753093919.5429618,12822,1753108319,562717547,ukd_base,-0.46262937784194946,0.6293654441833496,0.0,0.0,0.0,-0.9999999999999971,7.549789954891874e-08
1753093919.5526378,12823,1753108319,572719089,ukd_base,-0.46653494238853455,0.6185631155967712,0.0,0.0,0.0,-0.9999999999999971,7.549789954891874e-08
1753093919.5727994,12824,1753108319,592710045,ukd_base,-0.4763128161430359,0.6206328272819519,0.0,0.0,0.0,-0.9999999999999971,7.549789954891874e-08
1753093919.5828319,12825,1753108319,602729365,ukd_base,-0.4757627844810486,0.6314747929573059,0.0,0.0,0.0,-0.9999999999999971,7.549789954891874e-08
1753093919.6028936,12826,1753108319,622714265,ukd_base,-0.4820020794868469,0.6226938962936401,0.0,0.0,0.0,-0.9999999999999971,7.549789954891874e-08
1753093919.6128006,12827,1753108319,632734622,ukd_base,-0.4784963130950928,0.6149915456771851,0.0,0.0,0.0,-0.9999999999999971,7.549789954891874e-08
1753093919.6333766,12828,1753108319,652837688,ukd_base,-0.46698060631752014,0.6127978563308716,0.0,0.0,0.0,-0.9999999999999971,7.549789954891874e-08
1753093919.652876,12829,1753108319,672729237,ukd_base,-0.44194144010543823,0.6382413506507874,0.0,0.0,0.0,-0.9999999999999971,7.549789954891874e-08
1753093919.6630754,12830,1753108319,682794890,ukd_base,-0.4375821053981781,0.6316577196121216,0.0,0.0,0.0,0.9999997551995965,0.0006997147611762599
1753093919.672913,12831,1753108319,692719045,ukd_base,-0.4594864249229431,0.6127527952194214,0.0,0.0,0.0,0.9999991432681345,0.0013089931233482921
1753093919.6927872,12832,1753108319,712711667,ukd_base,-0.45388948917388916,0.6221560835838318,0.0,0.0,0.0,0.9999979719082531,0.0020139958740465393
1753093919.7033036,12833,1753108319,722715302,ukd_base,-0.44300007820129395,0.6408815979957581,0.0,0.0,0.0,0.9999968564630212,0.002507401857647674
1753093919.7233744,12834,1753108319,742829757,ukd_base,-0.44385769963264465,0.633307695388794,0.0,0.0,0.0,0.9999951025650089,0.0031296718673446957
1753093919.7328923,12835,1753108319,752712874,ukd_base,-0.4543828070163727,0.6282585263252258,0.0,0.0,0.0,0.9999939176956341,0.0034877746110339707
1753093919.7531662,12836,1753108319,772718552,ukd_base,-0.46232742071151733,0.6279005408287048,0.0,0.0,0.0,0.9999921508308669,0.003962105078965805
1753093919.7631578,12837,1753108319,782713280,ukd_base,-0.46010860800743103,0.6221753358840942,0.0,0.0,0.0,0.9999901213901731,0.004444898431559701
1753093919.783155,12838,1753108319,802720865,ukd_base,-0.4696033000946045,0.6098147630691528,0.0,0.0,0.0,0.9999884655323058,0.004802999307135209
1753093919.7928977,12839,1753108319,812718704,ukd_base,-0.46969085931777954,0.613652229309082,0.0,0.0,0.0,0.9999867250839427,0.00515263581976257
1753093919.8127308,12840,1753108319,832710011,ukd_base,-0.46486058831214905,0.6200311779975891,0.0,0.0,0.0,0.9999847038986203,0.005531000704098766
1753093919.8227804,12841,1753108319,842710276,ukd_base,-0.45871543884277344,0.6190210580825806,0.0,0.0,0.0,0.999982583200077,0.005901973949530655
1753093919.8428144,12842,1753108319,862718121,ukd_base,-0.48321956396102905,0.6114249229431152,0.0,0.0,0.0,0.9999814087808813,0.0060977120794634175
1753093919.8528264,12843,1753108319,872716533,ukd_base,-0.47406890988349915,0.6112277507781982,0.0,0.0,0.0,0.9999792194912295,0.00644675001156334
1753093919.8727438,12844,1753108319,892713267,ukd_base,-0.4856564700603485,0.608398973941803,0.0,0.0,0.0,0.9999765807391332,0.006843827384716468
1753093919.8825152,12845,1753108319,902718661,ukd_base,-0.4809671640396118,0.6050512790679932,0.0,0.0,0.0,0.999974126734655,0.007193459617190462
1753093919.902911,12846,1753108319,922714839,ukd_base,-0.4797053337097168,0.6201739311218262,0.0,0.0,0.0,0.9999707946932397,0.007642627857656825
1753093919.9229128,12847,1753108319,942723683,ukd_base,-0.48360416293144226,0.6079462170600891,0.0,0.0,0.0,0.9999668622662051,0.008140907165681818
1753093919.9327352,12848,1753108319,952726615,ukd_base,-0.4867117702960968,0.5989676117897034,0.0,0.0,0.0,0.9999628338149484,0.00862154213454932
1753093919.943257,12849,1753108319,962932619,ukd_base,-0.4766892194747925,0.6024729609489441,0.0,0.0,0.0,0.9999584831505809,0.009112188276661331
1753093919.962932,12850,1753108319,982712132,ukd_base,-0.47001227736473083,0.6045647263526917,0.0,0.0,0.0,0.9999550610348028,0.009480290653967821
1753093919.9832034,12851,1753108320,2764327,ukd_base,-0.4673765003681183,0.6044164896011353,0.0,0.0,0.0,0.9999516969338718,0.009828723165815423
1753093919.9925075,12852,1753108320,12716352,ukd_base,-0.45559221506118774,0.611836850643158,0.0,0.0,0.0,0.999946788387884,0.010316026015692049
1753093920.012762,12853,1753108320,32725048,ukd_base,-0.45456328988075256,0.6264328360557556,0.0,0.0,0.0,0.999943183917235,0.010659687493669526
1753093920.022869,12854,1753108320,42722943,ukd_base,-0.4486352801322937,0.6329066753387451,0.0,0.0,0.0,0.9999394193553774,0.011007162178814069
1753093920.0329027,12855,1753108320,52715004,ukd_base,-0.45961666107177734,0.6190891265869141,0.0,0.0,0.0,0.9999351653491267,0.011387058365292005
1753093920.0528226,12856,1753108320,72714144,ukd_base,-0.4468623697757721,0.6242848038673401,0.0,0.0,0.0,0.9999311074568993,0.011737987051408405
1753093920.0630953,12857,1753108320,82717743,ukd_base,-0.44139719009399414,0.6363070607185364,0.0,0.0,0.0,0.999928183366744,0.011984494519296328
1753093920.082874,12858,1753108320,102714217,ukd_base,-0.44696229696273804,0.6271074414253235,0.0,0.0,0.0,0.9999235610010758,0.01236414796610954
1753093920.10313,12859,1753108320,122726042,ukd_base,-0.47578421235084534,0.6169026494026184,0.0,0.0,0.0,0.999918686590775,0.012752262802320094
1753093920.1133115,12860,1753108320,132723418,ukd_base,-0.4638582170009613,0.618786633014679,0.0,0.0,0.0,0.9999139870510656,0.013115582321859122
1753093920.1228936,12861,1753108320,142716609,ukd_base,-0.45008584856987,0.6239457130432129,0.0,0.0,0.0,0.9999073761667456,0.013610256696118936
1753093920.1432326,12862,1753108320,162721305,ukd_base,-0.4574796259403229,0.6000341773033142,0.0,0.0,0.0,0.9999009522190676,0.014074293993018079
1753093920.1525161,12863,1753108320,172716941,ukd_base,-0.4563627541065216,0.6029401421546936,0.0,0.0,0.0,0.9998958962027632,0.014429024806719431
1753093920.173114,12864,1753108320,192568897,ukd_base,-0.4492191672325134,0.6171430945396423,0.0,0.0,0.0,0.9998885608040027,0.014928696302766713
1753093920.1831348,12865,1753108320,202734531,ukd_base,-0.4398193955421448,0.6226564049720764,0.0,0.0,0.0,0.9998834402252506,0.015267808071814814
1753093920.2028096,12866,1753108320,222568951,ukd_base,-0.4573332369327545,0.609035849571228,0.0,0.0,0.0,0.9998794165071627,0.015529083852427038
1753093920.2128272,12867,1753108320,232711826,ukd_base,-0.4620075225830078,0.6161695122718811,0.0,0.0,0.0,0.9998755521773158,0.015775936045376165
1753093920.2328582,12868,1753108320,252571283,ukd_base,-0.45293429493904114,0.6191042065620422,0.0,0.0,0.0,0.9998715180073233,0.0160295813336155
1753093920.2425158,12869,1753108320,262727416,ukd_base,-0.4512498080730438,0.6176978945732117,0.0,0.0,0.0,0.9998698174715874,0.016135306298128236
1753093920.2628114,12870,1753108320,282709687,ukd_base,-0.4899228811264038,0.6049823760986328,0.0,0.0,0.0,0.999867386492439,0.016285251879522754
1753093920.272786,12871,1753108320,292720581,ukd_base,-0.47710081934928894,0.619513213634491,0.0,0.0,0.0,0.9998671359396367,0.016300627836618307
1753093920.2927861,12872,1753108320,312710592,ukd_base,-0.48015645146369934,0.6087889671325684,0.0,0.0,0.0,0.9998651836914921,0.016419940364651924
1753093920.303143,12873,1753108320,322926115,ukd_base,-0.4814915657043457,0.6018457412719727,0.0,0.0,0.0,0.9998625460296315,0.016579778259763176
1753093920.3227866,12874,1753108320,342704016,ukd_base,-0.4607970416545868,0.6138066053390503,0.0,0.0,0.0,0.999860201917132,0.016720544914327673
1753093920.3327203,12875,1753108320,352713503,ukd_base,-0.4435792565345764,0.6309432983398438,0.0,0.0,0.0,0.9998578540664022,0.016860357698730687
1753093920.352834,12876,1753108320,372729163,ukd_base,-0.44403696060180664,0.6264829635620117,0.0,0.0,0.0,0.9998559099098425,0.016975259007183448
1753093920.3625624,12877,1753108320,382715242,ukd_base,-0.45224636793136597,0.6176527738571167,0.0,0.0,0.0,0.9998535652045166,0.017112806544147943
1753093920.3828971,12878,1753108320,402720235,ukd_base,-0.4599774181842804,0.6173426508903503,0.0,0.0,0.0,0.999853220240677,0.01713294996047826
1753093920.4028838,12879,1753108320,422720301,ukd_base,-0.46483710408210754,0.6212528944015503,0.0,0.0,0.0,0.9998528626019165,0.017153808520355546
1753093920.4127789,12880,1753108320,432714196,ukd_base,-0.45960375666618347,0.619202196598053,0.0,0.0,0.0,0.9998528728262056,0.017153212561605468
1753093920.4231129,12881,1753108320,442716405,ukd_base,-0.46498581767082214,0.6072044968605042,0.0,0.0,0.0,0.9998507385269372,0.017277171850111444
1753093920.4428997,12882,1753108320,462731157,ukd_base,-0.47478413581848145,0.6091904044151306,0.0,0.0,0.0,0.9998465240869336,0.017519368461128452
1753093920.4527814,12883,1753108320,472722551,ukd_base,-0.4669758379459381,0.6255766749382019,0.0,0.0,0.0,0.9998444978918417,0.01763462603547182
1753093920.4727716,12884,1753108320,492705155,ukd_base,-0.4497518837451935,0.6415011286735535,0.0,0.0,0.0,0.99984037582558,0.01786680914329536
1753093920.4828198,12885,1753108320,502722272,ukd_base,-0.44997867941856384,0.6400757431983948,0.0,0.0,0.0,0.9998358522893588,0.01811818083615003
1753093920.502848,12886,1753108320,522568747,ukd_base,-0.4333075284957886,0.6433843970298767,0.0,0.0,0.0,0.9998335113590525,0.01824690558498341
1753093920.5228438,12887,1753108320,542720535,ukd_base,-0.4454115629196167,0.6439516544342041,0.0,0.0,0.0,0.9998312129955227,0.018372411923908195
1753093920.5328083,12888,1753108320,552720540,ukd_base,-0.4449131488800049,0.6358985304832458,0.0,0.0,0.0,0.9998310684138733,0.01838027840846521
1753093920.542884,12889,1753108320,562724046,ukd_base,-0.4335704743862152,0.6450997591018677,0.0,0.0,0.0,0.9998312567959244,0.01837002814048454
1753093920.5631433,12890,1753108320,582721075,ukd_base,-0.4380943179130554,0.63575679063797,0.0,0.0,0.0,0.9998336396711611,0.01823987340742122
1753093920.5727477,12891,1753108320,592723766,ukd_base,-0.4432566165924072,0.6423700451850891,0.0,0.0,0.0,0.9998330498972214,0.01827217374097597
1753093920.592843,12892,1753108320,612728666,ukd_base,-0.4437587261199951,0.6345480680465698,0.0,0.0,0.0,0.9998372553444725,0.01804058827289502
1753093920.6128838,12893,1753108320,632725288,ukd_base,-0.4294210374355316,0.6463837623596191,0.0,0.0,0.0,0.9998388407622993,0.01795250687512446
1753093920.6229084,12894,1753108320,642726294,ukd_base,-0.4421752691268921,0.6318680047988892,0.0,0.0,0.0,0.9998409184854775,0.017836415618524108
1753093920.6328325,12895,1753108320,652718410,ukd_base,-0.4488901197910309,0.6303528547286987,0.0,0.0,0.0,0.999840790883916,0.017843567037601187
1753093920.6523795,12896,1753108320,672714940,ukd_base,-0.4530678689479828,0.6222235560417175,0.0,0.0,0.0,0.9998406908936319,0.01784916898190731
1753093920.6628845,12897,1753108320,682715760,ukd_base,-0.4391578435897827,0.6285725831985474,0.0,0.0,0.0,0.9998358868452276,0.018116273800571174
1753093920.6832614,12898,1753108320,702575902,ukd_base,-0.4539833962917328,0.6265701055526733,0.0,0.0,0.0,0.9998314231856187,0.01836096976252245
1753093920.7031832,12899,1753108320,722713098,ukd_base,-0.46636179089546204,0.6235101819038391,0.0,0.0,0.0,0.9998252633672623,0.018693387402622545
1753093920.71386,12900,1753108320,732799713,ukd_base,-0.46271151304244995,0.6192624568939209,0.0,0.0,0.0,0.9998140333045283,0.019284678045833087
1753093920.7228892,12901,1753108320,742720849,ukd_base,-0.44106578826904297,0.6300927400588989,0.0,0.0,0.0,0.9998077861374234,0.01960588633508367
1753093920.7430942,12902,1753108320,762711897,ukd_base,-0.4319300055503845,0.6403286457061768,0.0,0.0,0.0,0.9997930272457436,0.020344598073977913
1753093920.7528617,12903,1753108320,772715884,ukd_base,-0.44921404123306274,0.6237495541572571,0.0,0.0,0.0,0.999780980366105,0.020928241641143843
1753093920.772865,12904,1753108320,792713710,ukd_base,-0.44711822271347046,0.6220524311065674,0.0,0.0,0.0,0.9997693025742472,0.021478864732644244
1753093920.783111,12905,1753108320,802755104,ukd_base,-0.4390142560005188,0.62557452917099,0.0,0.0,0.0,0.9997571324128252,0.022038062294239096
1753093920.8028898,12906,1753108320,822730005,ukd_base,-0.4550023078918457,0.6124565601348877,0.0,0.0,0.0,0.9997444581815738,0.022605714658723238
1753093920.8231905,12907,1753108320,842716646,ukd_base,-0.4557114243507385,0.6108161211013794,0.0,0.0,0.0,0.9997321794074004,0.023142373632134908
1753093920.832666,12908,1753108320,852716281,ukd_base,-0.45030802488327026,0.6251619458198547,0.0,0.0,0.0,0.9997212417388319,0.02361014223099986
1753093920.8430395,12909,1753108320,862725842,ukd_base,-0.4478503167629242,0.6230653524398804,0.0,0.0,0.0,0.999710392246043,0.024065153963002083
1753093920.8628826,12910,1753108320,882727205,ukd_base,-0.46612125635147095,0.6067503690719604,0.0,0.0,0.0,0.9996999813027648,0.024493823369407183
1753093920.8728607,12911,1753108320,892724284,ukd_base,-0.4745822846889496,0.5981944799423218,0.0,0.0,0.0,0.9996916848013208,0.02483012966330943
1753093920.892773,12912,1753108320,912718166,ukd_base,-0.4476638436317444,0.6283518671989441,0.0,0.0,0.0,0.9996843123387746,0.025125199775350635
1753093920.9029124,12913,1753108320,922915114,ukd_base,-0.4365059733390808,0.6392399072647095,0.0,0.0,0.0,0.9996760917221578,0.025450179549699973
1753093920.922911,12914,1753108320,942714682,ukd_base,-0.4474012851715088,0.6153942346572876,0.0,0.0,0.0,0.9996695237498322,0.025706872345417055
1753093920.932865,12915,1753108320,952719632,ukd_base,-0.46631237864494324,0.6084490418434143,0.0,0.0,0.0,0.9996637961188786,0.02592864688319114
1753093920.9528337,12916,1753108320,972711255,ukd_base,-0.4501533508300781,0.6254633665084839,0.0,0.0,0.0,0.9996635518906382,0.02593806124970427
1753093920.9632459,12917,1753108320,982737316,ukd_base,-0.4799949526786804,0.6102832555770874,0.0,0.0,0.0,0.9996625028667379,0.025978459581147043
1753093920.9828665,12918,1753108321,2718475,ukd_base,-0.4769645035266876,0.6178063750267029,0.0,0.0,0.0,0.9996634745847524,0.025941040479134342
1753093920.992649,12919,1753108321,12722592,ukd_base,-0.4852416515350342,0.6149613857269287,0.0,0.0,0.0,0.9996636817445382,0.02593305614374313
1753093921.0133562,12920,1753108321,32718380,ukd_base,-0.49446776509284973,0.606271505355835,0.0,0.0,0.0,0.9996680296546824,0.025764908040301206
1753093921.0227652,12921,1753108321,42711368,ukd_base,-0.49942976236343384,0.6051710844039917,0.0,0.0,0.0,0.9996549856215402,0.026266132604520973
1753093921.0432572,12922,1753108321,62780971,ukd_base,-0.5031431317329407,0.6041808128356934,0.0,0.0,0.0,0.9996395683785085,0.026846477087863488
1753093921.0526905,12923,1753108321,72724958,ukd_base,-0.5076947212219238,0.5900107026100159,0.0,0.0,0.0,0.9996391009760826,0.026863875366918435
1753093921.0725667,12924,1753108321,92714358,ukd_base,-0.482976496219635,0.6033650636672974,0.0,0.0,0.0,0.9996107421921153,0.02789917730199911
1753093921.0828855,12925,1753108321,102755493,ukd_base,-0.4835878312587738,0.5979205965995789,0.0,0.0,0.0,0.9995895279822463,0.02864918058566555
1753093921.103316,12926,1753108321,123030205,ukd_base,-0.4696016013622284,0.6055523753166199,0.0,0.0,0.0,0.999594074680654,0.028490101146312327
1753093921.114377,12927,1753108321,134303404,ukd_base,-0.4757305979728699,0.5983356833457947,0.0,0.0,0.0,0.9996108752143953,0.02789441078622579
1753093921.1347,12928,1753108321,154070806,ukd_base,-0.4829828441143036,0.5907885432243347,0.0,0.0,0.0,0.9996233170867561,0.027444925514031493
1753093921.154144,12929,1753108321,174028521,ukd_base,-0.4733186960220337,0.5973775386810303,0.0,0.0,0.0,0.9996264513633234,0.02733052752453152
1753093921.165823,12930,1753108321,184321005,ukd_base,-0.4853131175041199,0.5868334770202637,0.0,0.0,0.0,0.9996740497351649,0.025530262162678063
1753093921.1827533,12931,1753108321,202585569,ukd_base,-0.49737024307250977,0.5878894925117493,0.0,0.0,0.0,0.9997107249300892,0.02405132968789016
1753093921.198081,12932,1753108321,216112395,ukd_base,-0.49509817361831665,0.5819253921508789,0.0,0.0,0.0,0.9997167997150355,0.02379748658004822
1753093921.2029984,12933,1753108321,222770819,ukd_base,-0.48194560408592224,0.5757366418838501,0.0,0.0,0.0,0.9997404760275389,0.022781145542530665
1753093921.222645,12934,1753108321,242581461,ukd_base,-0.47749072313308716,0.5945850610733032,0.0,0.0,0.0,0.9997492965028054,0.022390715534473284
1753093921.234471,12935,1753108321,254109916,ukd_base,-0.46321359276771545,0.6047990322113037,0.0,0.0,0.0,0.9997542207474034,0.022169756375571597
1753093921.2541134,12936,1753108321,274031317,ukd_base,-0.4751766622066498,0.6138350367546082,0.0,0.0,0.0,0.9997406606639359,0.022773041413854268
1753093921.274159,12937,1753108321,292578674,ukd_base,-0.4656781256198883,0.6149624586105347,0.0,0.0,0.0,0.9997216412614539,0.02359321922724329
1753093921.282947,12938,1753108321,302708808,ukd_base,-0.4597241282463074,0.6263667941093445,0.0,0.0,0.0,0.9997056075884033,0.02426310277564034
1753093921.2928596,12939,1753108321,312569333,ukd_base,-0.4301263093948364,0.6409274935722351,0.0,0.0,0.0,0.9997113524934859,0.02402523039734156
1753093921.3134239,12940,1753108321,332935693,ukd_base,-0.441153347492218,0.6290403604507446,0.0,0.0,0.0,0.9996939981123985,0.02473681745997021
1753093921.3332798,12941,1753108321,352741113,ukd_base,-0.43156278133392334,0.6326410174369812,0.0,0.0,0.0,0.9996665198768243,0.025823420326493398
1753093921.3428142,12942,1753108321,362706730,ukd_base,-0.4329010546207428,0.636876106262207,0.0,0.0,0.0,0.9996505092850962,0.026435946853624822
1753093921.3535388,12943,1753108321,372715995,ukd_base,-0.46276068687438965,0.6304426789283752,0.0,0.0,0.0,0.9996476830831194,0.026542601729133784
1753093921.3727922,12944,1753108321,392713265,ukd_base,-0.4492693543434143,0.6283431649208069,0.0,0.0,0.0,0.9996402561253125,0.026820856319656663
1753093921.382869,12945,1753108321,402715326,ukd_base,-0.4213835299015045,0.6285214424133301,0.0,0.0,0.0,0.9996523158544396,0.026367544573885567
1753093921.402791,12946,1753108321,422715986,ukd_base,-0.44926881790161133,0.6286599636077881,0.0,0.0,0.0,0.9996754542903672,0.025475205383824334
1753093921.4128873,12947,1753108321,432720343,ukd_base,-0.466349333524704,0.6338039040565491,0.0,0.0,0.0,0.9996695819727298,0.025704608117370593
1753093921.432606,12948,1753108321,452715076,ukd_base,-0.4661291241645813,0.6201776266098022,0.0,0.0,0.0,0.9996878724735042,0.02498314690744297
1753093921.453148,12949,1753108321,472719625,ukd_base,-0.4359779953956604,0.6323454976081848,0.0,0.0,0.0,0.9996926046687267,0.024793066987708404
1753093921.462733,12950,1753108321,482719963,ukd_base,-0.4197557866573334,0.63674396276474,0.0,0.0,0.0,0.9997079544041446,0.024166214041110586
1753093921.4839988,12951,1753108321,502752622,ukd_base,-0.4011433720588684,0.6476951241493225,0.0,0.0,0.0,0.9997312267807615,0.023183489802733902
1753093921.4925246,12952,1753108321,512723795,ukd_base,-0.37770843505859375,0.6471366882324219,0.0,0.0,0.0,0.9997545879650392,0.022153190353865884
1753093921.5131423,12953,1753108321,532575511,ukd_base,-0.3699648976325989,0.6552836298942566,0.0,0.0,0.0,0.9997545879650392,0.022153190353865884
1753093921.5228114,12954,1753108321,542706682,ukd_base,-0.38145962357521057,0.6582091450691223,0.0,0.0,0.0,0.9997578517163468,0.02200540687001972
1753093921.5327642,12955,1753108321,552711095,ukd_base,-0.4081856608390808,0.6381502151489258,0.0,0.0,0.0,0.9997554929463643,0.022112311583642734
1753093921.5528667,12956,1753108321,572724087,ukd_base,-0.40613019466400146,0.6403380632400513,0.0,0.0,0.0,0.9997481955943125,0.022439817421634395
1753093921.5628097,12957,1753108321,582719463,ukd_base,-0.41466769576072693,0.63546222448349,0.0,0.0,0.0,0.9997218184227072,0.023585711131861985
1753093921.5828905,12958,1753108321,602718363,ukd_base,-0.42453259229660034,0.6257307529449463,0.0,0.0,0.0,0.999693986316851,0.02473729415121253
1753093921.6030996,12959,1753108321,622712097,ukd_base,-0.44262272119522095,0.6144906878471375,0.0,0.0,0.0,0.9996750198711132,0.025492246776020275
1753093921.6128633,12960,1753108321,632707250,ukd_base,-0.4287484884262085,0.6252301931381226,0.0,0.0,0.0,0.9996518945305606,0.02638351306139847
1753093921.6332452,12961,1753108321,652726780,ukd_base,-0.4062272608280182,0.630079448223114,0.0,0.0,0.0,0.999654694361575,0.026277215241845325
1753093921.6433575,12962,1753108321,662752415,ukd_base,-0.3795149624347687,0.6501080393791199,0.0,0.0,0.0,0.9996147527521723,0.027755109083078194
1753093921.6534183,12963,1753108321,672729698,ukd_base,-0.3772832453250885,0.653908908367157,0.0,0.0,0.0,0.999617932411513,0.027640354580428468
1753093921.6733074,12964,1753108321,692728987,ukd_base,-0.3877595365047455,0.6599788665771484,0.0,0.0,0.0,0.9996073190619257,0.028021557376945543
1753093921.6928384,12965,1753108321,712726295,ukd_base,-0.4023727476596832,0.6598109006881714,0.0,0.0,0.0,0.9996235558822808,0.02743622651285468
1753093921.7027888,12966,1753108321,722720282,ukd_base,-0.39016157388687134,0.6591604948043823,0.0,0.0,0.0,0.9996703598283977,0.025674338950826138
1753093921.7227674,12967,1753108321,742714256,ukd_base,-0.3966541886329651,0.6426248550415039,0.0,0.0,0.0,0.999721829669137,0.023585234427348414
1753093921.73323,12968,1753108321,752718743,ukd_base,-0.4006105959415436,0.6418700218200684,0.0,0.0,0.0,0.9997247012775587,0.02346319789576702
1753093921.7427974,12969,1753108321,762715582,ukd_base,-0.38229116797447205,0.6541187167167664,0.0,0.0,0.0,0.9997651462870312,0.02167146210275337
1753093921.7628753,12970,1753108321,782803499,ukd_base,-0.3911481499671936,0.6461836695671082,0.0,0.0,0.0,0.9997805984891653,0.02094647666425932
1753093921.7735412,12971,1753108321,792928319,ukd_base,-0.3700167238712311,0.6428614854812622,0.0,0.0,0.0,0.9997903093611258,0.020477727109825702
1753093921.794381,12972,1753108321,812580314,ukd_base,-0.36880260705947876,0.6394950747489929,0.0,0.0,0.0,0.999798728046858,0.020062487280615007
1753093921.814267,12973,1753108321,832575085,ukd_base,-0.3666170537471771,0.6482675671577454,0.0,0.0,0.0,0.9997912505808931,0.020431721951265795
1753093921.822792,12974,1753108321,842583831,ukd_base,-0.3614403307437897,0.6426612138748169,0.0,0.0,0.0,0.9997957563150192,0.020210038458124618
1753093921.8380995,12975,1753108321,852581892,ukd_base,-0.35238882899284363,0.6519932150840759,0.0,0.0,0.0,0.9997889254027578,0.020545185372704697
1753093921.8541121,12976,1753108321,872578792,ukd_base,-0.3470211625099182,0.6612659692764282,0.0,0.0,0.0,0.9997796511002248,0.020991647050974453
1753093921.8741271,12977,1753108321,892578507,ukd_base,-0.343304306268692,0.6744019389152527,0.0,0.0,0.0,0.9997686030337132,0.0215114013494631
1753093921.8825767,12978,1753108321,902570883,ukd_base,-0.3596598505973816,0.6669300198554993,0.0,0.0,0.0,0.9997532710519885,0.022212541971803147
1753093921.8941727,12979,1753108321,912579573,ukd_base,-0.3903806507587433,0.6502211093902588,0.0,0.0,0.0,0.9997479761937028,0.022449590120876505
1753093921.9138541,12980,1753108321,932580770,ukd_base,-0.3690688908100128,0.6424179673194885,0.0,0.0,0.0,0.9997311272788109,0.023187780183494707
1753093921.9342306,12981,1753108321,952581281,ukd_base,-0.35238614678382874,0.641165018081665,0.0,0.0,0.0,0.9997150779562375,0.02386970688873327
1753093921.9427602,12982,1753108321,962618045,ukd_base,-0.3556062877178192,0.6285079121589661,0.0,0.0,0.0,0.9996977727357936,0.02458379928110303
1753093921.9661264,12983,1753108321,984229653,ukd_base,-0.34200820326805115,0.6386877298355103,0.0,0.0,0.0,0.9996601513553237,0.026068789619988497
1753093921.9741929,12984,1753108321,992578433,ukd_base,-0.3330589830875397,0.6418812870979309,0.0,0.0,0.0,0.9996539860564593,0.026304147228761496
1753093921.982689,12985,1753108322,2594345,ukd_base,-0.328888863325119,0.6294593811035156,0.0,0.0,0.0,0.9996290272857989,0.027236148913666266
1753093922.0027907,12986,1753108322,22595690,ukd_base,-0.32232388854026794,0.6395044326782227,0.0,0.0,0.0,0.9996269366554974,0.027312771971117734
1753093922.0227857,12987,1753108322,42584090,ukd_base,-0.2894333004951477,0.6497496962547302,0.0,0.0,0.0,0.999645791569132,0.026613744534046777
1753093922.0347495,12988,1753108322,52581040,ukd_base,-0.28574344515800476,0.6542302370071411,0.0,0.0,0.0,0.9996364252144515,0.026963259900694262
1753093922.0425816,12989,1753108322,62597101,ukd_base,-0.26654765009880066,0.6513044238090515,0.0,0.0,0.0,0.9996591063857473,0.026108830307948337
1753093922.0627344,12990,1753108322,82647630,ukd_base,-0.274283766746521,0.6631293296813965,0.0,0.0,0.0,0.9996748983032431,0.025497013597686465
1753093922.0747557,12991,1753108322,94294806,ukd_base,-0.2636048197746277,0.6649892926216125,0.0,0.0,0.0,0.9996572426214488,0.026180093095362685
1753093922.0945961,12992,1753108322,114189022,ukd_base,-0.25595787167549133,0.6598254442214966,0.0,0.0,0.0,0.9996586705084127,0.02612551391557261
1753093922.114465,12993,1753108322,134031424,ukd_base,-0.2625980079174042,0.6643997430801392,0.0,0.0,0.0,0.9996738397036824,0.02553848492170865
1753093922.1265018,12994,1753108322,146031504,ukd_base,-0.28627797961235046,0.6563746333122253,0.0,0.0,0.0,0.9996920280636651,0.024816305646816108
1753093922.1459243,12995,1753108322,164209198,ukd_base,-0.2728307545185089,0.6568537950515747,0.0,0.0,0.0,0.9997109485239424,0.024042034052039103
1753093922.157714,12996,1753108322,176023373,ukd_base,-0.2776122987270355,0.6706997156143188,0.0,0.0,0.0,0.9997175113247617,0.02376757351150881
1753093922.1741266,12997,1753108322,192583655,ukd_base,-0.2613559663295746,0.6688699722290039,0.0,0.0,0.0,0.9997118820960424,0.024003183038684792
1753093922.1825876,12998,1753108322,202585086,ukd_base,-0.25749021768569946,0.6645416617393494,0.0,0.0,0.0,0.9997014831628026,0.02443244895815068
1753093922.1941924,12999,1753108322,214027690,ukd_base,-0.26896053552627563,0.662352442741394,0.0,0.0,0.0,0.9996957001794894,0.024667935516382553
1753093922.2143137,13000,1753108322,234032905,ukd_base,-0.25989076495170593,0.657945454120636,0.0,0.0,0.0,0.9996421528125271,0.02675007140805957
1753093922.2343173,13001,1753108322,252581466,ukd_base,-0.2484285533428192,0.6503568887710571,0.0,0.0,0.0,0.9996358464155292,0.02698470976513585
1753093922.242651,13002,1753108322,262579268,ukd_base,-0.27146288752555847,0.6520847082138062,0.0,0.0,0.0,0.999609613915736,0.02793957349769766
1753093922.2625945,13003,1753108322,282583075,ukd_base,-0.2656998634338379,0.6621106863021851,0.0,0.0,0.0,0.9996027763790626,0.028183141330762496
1753093922.2741134,13004,1753108322,292580155,ukd_base,-0.2538503408432007,0.6624296307563782,0.0,0.0,0.0,0.9995931265643491,0.028523347021503942
1753093922.2869766,13005,1753108322,306046074,ukd_base,-0.22614686191082,0.6757448315620422,0.0,0.0,0.0,0.9995639295776827,0.029528811137962234
1753093922.3025656,13006,1753108322,322583690,ukd_base,-0.20770806074142456,0.6745529770851135,0.0,0.0,0.0,0.9995598437679729,0.029666795016408485
1753093922.318242,13007,1753108322,336149775,ukd_base,-0.20345915853977203,0.6708926558494568,0.0,0.0,0.0,0.9995559662737282,0.029797152323561556
1753093922.3344057,13008,1753108322,352577706,ukd_base,-0.2086647003889084,0.6532275676727295,0.0,0.0,0.0,0.9995685322331128,0.02937259554994284
1753093922.3541718,13009,1753108322,372582977,ukd_base,-0.23074400424957275,0.6534804701805115,0.0,0.0,0.0,0.999601370786705,0.028232950985337377
1753093922.3625019,13010,1753108322,382585779,ukd_base,-0.21671098470687866,0.6509920954704285,0.0,0.0,0.0,0.9996367015892297,0.02695301162774441
1753093922.3827608,13011,1753108322,402612938,ukd_base,-0.19680510461330414,0.6553685665130615,0.0,0.0,0.0,0.9996331844694423,0.027083140650262752
1753093922.3941753,13012,1753108322,412583888,ukd_base,-0.22095374763011932,0.6526068449020386,0.0,0.0,0.0,0.9996864144238368,0.025041422012595675
1753093922.4144719,13013,1753108322,434288051,ukd_base,-0.20423316955566406,0.6614867448806763,0.0,0.0,0.0,0.9996831461477574,0.025171557522755846
1753093922.4228594,13014,1753108322,442726570,ukd_base,-0.19289176166057587,0.6672881245613098,0.0,0.0,0.0,0.999709177476914,0.02411556485824072
1753093922.4438004,13015,1753108322,462802636,ukd_base,-0.18225325644016266,0.6563934087753296,0.0,0.0,0.0,0.9997366163190426,0.022949901763436774
1753093922.4525917,13016,1753108322,472728809,ukd_base,-0.18796086311340332,0.6637580990791321,0.0,0.0,0.0,0.9997392361802249,0.022835490837303723
1753093922.462468,13017,1753108322,482718851,ukd_base,-0.1730402708053589,0.674043595790863,0.0,0.0,0.0,0.9997421841143554,0.02270606311666922
1753093922.4827182,13018,1753108322,502718399,ukd_base,-0.1843899041414261,0.6723029017448425,0.0,0.0,0.0,0.9997741089054051,0.021253968156634693
1753093922.4925082,13019,1753108322,512713090,ukd_base,-0.17851927876472473,0.6809806227684021,0.0,0.0,0.0,0.9997763330341918,0.021149087561992498
1753093922.5128975,13020,1753108322,532720509,ukd_base,-0.18386578559875488,0.6689868569374084,0.0,0.0,0.0,0.9997673010777455,0.021571826434512557
1753093922.5328367,13021,1753108322,552704094,ukd_base,-0.1909988969564438,0.6533082127571106,0.0,0.0,0.0,0.9997667555873075,0.021597092916152628
1753093922.5430758,13022,1753108322,562930338,ukd_base,-0.19891537725925446,0.663273811340332,0.0,0.0,0.0,0.9997548915706926,0.022139484647856603
1753093922.5529554,13023,1753108322,572721772,ukd_base,-0.20123521983623505,0.6712039709091187,0.0,0.0,0.0,0.9997523831944275,0.022252467212931448
1753093922.5730233,13024,1753108322,592722635,ukd_base,-0.20191240310668945,0.6676409840583801,0.0,0.0,0.0,0.9997546090915133,0.02215223691358256
1753093922.5827084,13025,1753108322,602715177,ukd_base,-0.18937170505523682,0.6627281904220581,0.0,0.0,0.0,0.9997492831567214,0.02239131143148613
1753093922.6035323,13026,1753108322,622779947,ukd_base,-0.16520918905735016,0.6663011312484741,0.0,0.0,0.0,0.9997295271987333,0.023256664571628307
1753093922.61286,13027,1753108322,632726842,ukd_base,-0.14932507276535034,0.658823549747467,0.0,0.0,0.0,0.9997265079831351,0.02338609064906811
1753093922.633346,13028,1753108322,652735575,ukd_base,-0.1485925018787384,0.6726570725440979,0.0,0.0,0.0,0.9997195956199637,0.023679740992170316
1753093922.6527748,13029,1753108322,672717086,ukd_base,-0.14910520613193512,0.6759620904922485,0.0,0.0,0.0,0.9997130397988808,0.023954917158724453
1753093922.6627378,13030,1753108322,682723981,ukd_base,-0.18054698407649994,0.6520124673843384,0.0,0.0,0.0,0.9997273325611746,0.02335081433523496
1753093922.6725836,13031,1753108322,692723634,ukd_base,-0.17288465797901154,0.642738401889801,0.0,0.0,0.0,0.9997218184227072,0.023585711131861985
1753093922.692978,13032,1753108322,712712572,ukd_base,-0.1823461651802063,0.6352559328079224,0.0,0.0,0.0,0.9997386560287806,0.02286087578740888
1753093922.7128649,13033,1753108322,732725360,ukd_base,-0.1735333353281021,0.6249918937683105,0.0,0.0,0.0,0.9997525317233956,0.022245793145241326
1753093922.7230854,13034,1753108322,742710681,ukd_base,-0.1888304054737091,0.6366310715675354,0.0,0.0,0.0,0.9997640522210122,0.021721875762036776
1753093922.742851,13035,1753108322,762709970,ukd_base,-0.1779937595129013,0.6540443301200867,0.0,0.0,0.0,0.9997925953234772,0.020365812931128865
1753093922.752826,13036,1753108322,772721771,ukd_base,-0.16372047364711761,0.6336738467216492,0.0,0.0,0.0,0.9998106130328661,0.01946119386996731
1753093922.7729392,13037,1753108322,792697931,ukd_base,-0.15917202830314636,0.6241613626480103,0.0,0.0,0.0,0.9998065172860574,0.019670485309838035
1753093922.7827358,13038,1753108322,802710529,ukd_base,-0.15870848298072815,0.6229985952377319,0.0,0.0,0.0,0.9998227339307095,0.01882818937980219
1753093922.7934306,13039,1753108322,812716497,ukd_base,-0.1684923768043518,0.6195235848426819,0.0,0.0,0.0,0.9998183028843076,0.01906203602826377
1753093922.812446,13040,1753108322,832726249,ukd_base,-0.19000670313835144,0.6314515471458435,0.0,0.0,0.0,0.9998210307769003,0.01891841473846187
1753093922.8226926,13041,1753108322,842709773,ukd_base,-0.17881999909877777,0.6317739486694336,0.0,0.0,0.0,0.999819215229703,0.019014122579308016
1753093922.842864,13042,1753108322,862744395,ukd_base,-0.15361735224723816,0.6332489848136902,0.0,0.0,0.0,0.9998035467022633,0.019820898102134017
1753093922.8628445,13043,1753108322,882704370,ukd_base,-0.14110611379146576,0.6325840353965759,0.0,0.0,0.0,0.9997836739466506,0.020799166082741984
1753093922.8728583,13044,1753108322,892722412,ukd_base,-0.14311859011650085,0.6265536546707153,0.0,0.0,0.0,0.9997752956342789,0.02119807159602694
1753093922.892797,13045,1753108322,912719386,ukd_base,-0.16439834237098694,0.6204742789268494,0.0,0.0,0.0,0.9997754876457833,0.021189013724951647
1753093922.9027154,13046,1753108322,922723966,ukd_base,-0.17594163119792938,0.6198316812515259,0.0,0.0,0.0,0.9997730206533905,0.02130509736178814
1753093922.9233327,13047,1753108322,942812698,ukd_base,-0.16480101644992828,0.6215460300445557,0.0,0.0,0.0,0.9997542656736459,0.0221677303156896
1753093922.9333987,13048,1753108322,952925555,ukd_base,-0.1802113652229309,0.6163092851638794,0.0,0.0,0.0,0.9997364849822847,0.022955622301865958
1753093922.9428296,13049,1753108322,962759765,ukd_base,-0.19193562865257263,0.6215196847915649,0.0,0.0,0.0,0.9997420487579138,0.022712022044040957
1753093922.9628723,13050,1753108322,982748888,ukd_base,-0.19811411201953888,0.613123893737793,0.0,0.0,0.0,0.9997353837519051,0.02300353178168579
1753093922.9724255,13051,1753108322,992731171,ukd_base,-0.20251750946044922,0.607151210308075,0.0,0.0,0.0,0.9997379933787331,0.022889836064599087
1753093922.9929845,13052,1753108323,12718164,ukd_base,-0.21006163954734802,0.6077461242675781,0.0,0.0,0.0,0.9997498673822831,0.02236521113487
1753093923.0128846,13053,1753108323,32721304,ukd_base,-0.21933475136756897,0.616248369216919,0.0,0.0,0.0,0.9997702515346305,0.02143464826820251
1753093923.0228262,13054,1753108323,42708403,ukd_base,-0.1939620077610016,0.6171186566352844,0.0,0.0,0.0,0.9997906143920392,0.020462829070992932
1753093923.0425315,13055,1753108323,62710303,ukd_base,-0.22214512526988983,0.6053439378738403,0.0,0.0,0.0,0.9998091626147292,0.01953556632488352
1753093923.052842,13056,1753108323,72710512,ukd_base,-0.22641761600971222,0.6022151112556458,0.0,0.0,0.0,0.9998348377544857,0.01817408078724292
1753093923.0730731,13057,1753108323,92713153,ukd_base,-0.20130176842212677,0.6036823987960815,0.0,0.0,0.0,0.9998409588819751,0.017834151002292787
1753093923.083876,13058,1753108323,102853083,ukd_base,-0.21350079774856567,0.6006355285644531,0.0,0.0,0.0,0.9998532651701879,0.017130327740994464
1753093923.093007,13059,1753108323,112726275,ukd_base,-0.21075059473514557,0.5833120346069336,0.0,0.0,0.0,0.9998572665665625,0.016895161853084054
1753093923.112752,13060,1753108323,132718416,ukd_base,-0.17542362213134766,0.5979503393173218,0.0,0.0,0.0,0.9998595134022503,0.016761666355565745
1753093923.1227782,13061,1753108323,142718199,ukd_base,-0.20041091740131378,0.5890467166900635,0.0,0.0,0.0,0.9998609483846758,0.01667584766351514
1753093923.1427453,13062,1753108323,162719728,ukd_base,-0.20304885506629944,0.5937870144844055,0.0,0.0,0.0,0.9998630909923929,0.016546881009357157
1753093923.1539655,13063,1753108323,174113833,ukd_base,-0.22652389109134674,0.5860238671302795,0.0,0.0,0.0,0.9998652384933862,0.016416602954451017
1753093923.174219,13064,1753108323,194069474,ukd_base,-0.21586602926254272,0.5809903740882874,0.0,0.0,0.0,0.9998639948923644,0.01649217141196924
1753093923.1827278,13065,1753108323,202577067,ukd_base,-0.20721504092216492,0.5810123682022095,0.0,0.0,0.0,0.999863774609002,0.016505521035064485
1753093923.2025712,13066,1753108323,222582467,ukd_base,-0.18512533605098724,0.586266279220581,0.0,0.0,0.0,0.9998715409368003,0.016028151005919457
1753093923.2227802,13067,1753108323,242583015,ukd_base,-0.17661453783512115,0.5842490792274475,0.0,0.0,0.0,0.9998715543113836,0.016027316648081616
1753093923.2344697,13068,1753108323,254100507,ukd_base,-0.16586831212043762,0.5872780084609985,0.0,0.0,0.0,0.9998488086635816,0.017388496600237176
1753093923.2544723,13069,1753108323,274215628,ukd_base,-0.16517944633960724,0.5873935222625732,0.0,0.0,0.0,0.9998488086635816,0.017388496600237176
1753093923.2626746,13070,1753108323,282583296,ukd_base,-0.1767617166042328,0.5839572548866272,0.0,0.0,0.0,0.999823460401348,0.01878957240264435
1753093923.2780693,13071,1753108323,292579209,ukd_base,-0.1613946557044983,0.5976787209510803,0.0,0.0,0.0,0.9998236305920741,0.018780514095299645
1753093923.2943466,13072,1753108323,312580461,ukd_base,-0.14167670905590057,0.5998566746711731,0.0,0.0,0.0,0.9997986897788818,0.020064394245315538
1753093923.3139162,13073,1753108323,332577991,ukd_base,-0.13113486766815186,0.5910805463790894,0.0,0.0,0.0,0.9998014809081973,0.019924828073927096
1753093923.3225944,13074,1753108323,342580737,ukd_base,-0.13626542687416077,0.5913190245628357,0.0,0.0,0.0,0.9998062756855189,0.01968276148949017
1753093923.3344152,13075,1753108323,352580113,ukd_base,-0.12326249480247498,0.5859469771385193,0.0,0.0,0.0,0.9998090112113507,0.019543313449394483
1753093923.354072,13076,1753108323,374209128,ukd_base,-0.11686030775308609,0.5876330733299255,0.0,0.0,0.0,0.9998395654416631,0.01791210142407731
1753093923.3731,13077,1753108323,392724504,ukd_base,-0.10620789974927902,0.5960090160369873,0.0,0.0,0.0,0.9998415917980332,0.017798632272596197
1753093923.3828235,13078,1753108323,402713695,ukd_base,-0.1043921634554863,0.5977312326431274,0.0,0.0,0.0,0.9998690758793386,0.01618119588279325
1753093923.3926218,13079,1753108323,412731404,ukd_base,-0.10857917368412018,0.5857667922973633,0.0,0.0,0.0,0.9998707716854759,0.016076066965863466
1753093923.4130936,13080,1753108323,432716156,ukd_base,-0.10256116837263107,0.5668174624443054,0.0,0.0,0.0,0.9998998367235448,0.014153321879632827
1753093923.4333165,13081,1753108323,452717019,ukd_base,-0.08788784593343735,0.5613769888877869,0.0,0.0,0.0,0.9998994804064647,0.014178472515825189
1753093923.4428518,13082,1753108323,462738654,ukd_base,-0.08569394797086716,0.5531520843505859,0.0,0.0,0.0,0.9999056025102165,0.013739944275026584
1753093923.452855,13083,1753108323,472719715,ukd_base,-0.0811963751912117,0.5417746901512146,0.0,0.0,0.0,0.9999070416366272,0.013634811531086085
1753093923.473115,13084,1753108323,492721856,ukd_base,-0.06005605310201645,0.5421616435050964,0.0,0.0,0.0,0.9999079027187394,0.013571517255336922
1753093923.482791,13085,1753108323,502719676,ukd_base,-0.0598549023270607,0.549584686756134,0.0,0.0,0.0,0.9999038632814906,0.013865936490191398
1753093923.5027008,13086,1753108323,522709854,ukd_base,-0.03798109292984009,0.5596969127655029,0.0,0.0,0.0,0.9999005087882377,0.014105762121326703
1753093923.513059,13087,1753108323,532729878,ukd_base,-0.03520471230149269,0.5746114253997803,0.0,0.0,0.0,0.9999005087882377,0.014105762121326703
1753093923.5324512,13088,1753108323,552733445,ukd_base,-0.03105851076543331,0.5641279220581055,0.0,0.0,0.0,0.9998971856805269,0.01433938869554441
1753093923.5531096,13089,1753108323,572713252,ukd_base,-0.026860030367970467,0.5538365840911865,0.0,0.0,0.0,0.9998897853725877,0.014846451008932515
1753093923.5636826,13090,1753108323,582762794,ukd_base,-0.004710463806986809,0.5501211285591125,0.0,0.0,0.0,0.999859207519553,0.01677990281173997
1753093923.5827887,13091,1753108323,602705806,ukd_base,0.013730532489717007,0.5469265580177307,0.0,0.0,0.0,0.9998262313880351,0.01864154039770746
1753093923.5934448,13092,1753108323,612722959,ukd_base,0.05654275044798851,0.560122549533844,0.0,0.0,0.0,0.9998045684779685,0.019769290593828388
1753093923.6125553,13093,1753108323,632722545,ukd_base,0.08610880374908447,0.5615143775939941,0.0,0.0,0.0,0.9998024843570877,0.01987441252956703
1753093923.6228404,13094,1753108323,642709291,ukd_base,0.06178157031536102,0.5532158017158508,0.0,0.0,0.0,0.9998024962029831,0.01987381660084424
1753093923.6331174,13095,1753108323,652722945,ukd_base,0.04993100091814995,0.5614425539970398,0.0,0.0,0.0,0.9998003820381233,0.019979891802075718
1753093923.6533177,13096,1753108323,672734400,ukd_base,0.059174202382564545,0.5564232468605042,0.0,0.0,0.0,0.9998202337881333,0.01896048806972825
1753093923.662559,13097,1753108323,682749405,ukd_base,0.06302076578140259,0.559152364730835,0.0,0.0,0.0,0.9998476456282748,0.017455243670479303
1753093923.6831055,13098,1753108323,702705750,ukd_base,0.07476617395877838,0.5538612604141235,0.0,0.0,0.0,0.999864936945114,0.01643495870829159
1753093923.6929018,13099,1753108323,712960402,ukd_base,0.0970006063580513,0.5659671425819397,0.0,0.0,0.0,0.9998813487733634,0.01540416746077184
1753093923.7133214,13100,1753108323,732718063,ukd_base,0.11010413616895676,0.5500417947769165,0.0,0.0,0.0,0.9999050809303347,0.013777849240749757
1753093923.734324,13101,1753108323,752581316,ukd_base,0.13589324057102203,0.5501318573951721,0.0,0.0,0.0,0.9999050694328532,0.013778683626565171
1753093923.742672,13102,1753108323,762579803,ukd_base,0.12148645520210266,0.5483713746070862,0.0,0.0,0.0,0.9999267461558731,0.0121038143627571
1753093923.7625628,13103,1753108323,782583981,ukd_base,0.13085602223873138,0.5580297708511353,0.0,0.0,0.0,0.9999256745287654,0.012192022727736505
1753093923.7740178,13104,1753108323,792586042,ukd_base,0.159013569355011,0.540303647518158,0.0,0.0,0.0,0.9999243768389119,0.012297991840688846
1753093923.7942224,13105,1753108323,814038392,ukd_base,0.14436140656471252,0.5340855717658997,0.0,0.0,0.0,0.9999150733584584,0.013032500548583546
1753093923.8025408,13106,1753108323,822582040,ukd_base,0.16913743317127228,0.5288897156715393,0.0,0.0,0.0,0.9999001688276847,0.014129839997948064
1753093923.8228643,13107,1753108323,842607829,ukd_base,0.20562410354614258,0.5302178263664246,0.0,0.0,0.0,0.9998825777452125,0.015324187469132618
1753093923.8327081,13108,1753108323,852593631,ukd_base,0.20044082403182983,0.5326177477836609,0.0,0.0,0.0,0.9998825777452125,0.015324187469132618
1753093923.8426948,13109,1753108323,862595377,ukd_base,0.21318162977695465,0.5408629775047302,0.0,0.0,0.0,0.9998713402345011,0.016040666372147426
1753093923.862676,13110,1753108323,882602184,ukd_base,0.21282121539115906,0.5373411178588867,0.0,0.0,0.0,0.9998646546730315,0.01645212252505357
1753093923.8740728,13111,1753108323,892577857,ukd_base,0.21938666701316833,0.5321146845817566,0.0,0.0,0.0,0.9998668053926524,0.01632089071992613
1753093923.8942215,13112,1753108323,912579497,ukd_base,0.2500797510147095,0.5298440456390381,0.0,0.0,0.0,0.999833452623456,0.01825012369983796
1753093923.9185612,13113,1753108323,936217255,ukd_base,0.23762381076812744,0.5270354151725769,0.0,0.0,0.0,0.9998176865498226,0.019094335865923594
1753093923.922557,13114,1753108323,942586736,ukd_base,0.2575197219848633,0.5315988659858704,0.0,0.0,0.0,0.9998198561255316,0.01898039243854764
1753093923.934374,13115,1753108323,954057988,ukd_base,0.27636370062828064,0.5285966992378235,0.0,0.0,0.0,0.9998239998026005,0.01876084802799588
1753093923.9542005,13116,1753108323,972580364,ukd_base,0.2856825292110443,0.5248207449913025,0.0,0.0,0.0,0.9998462190186633,0.01753677034356835
1753093923.9742248,13117,1753108323,994045288,ukd_base,0.2935936450958252,0.5247247815132141,0.0,0.0,0.0,0.9998798751705444,0.015499523506755134
1753093923.9825578,13118,1753108324,2585584,ukd_base,0.2748665511608124,0.5140167474746704,0.0,0.0,0.0,0.9999107631676982,0.013359105561048006
1753093923.9942763,13119,1753108324,14053410,ukd_base,0.29408350586891174,0.5230157375335693,0.0,0.0,0.0,0.999915394648216,0.01300782631735839
1753093924.0141728,13120,1753108324,32577731,ukd_base,0.29316484928131104,0.5303884744644165,0.0,0.0,0.0,0.9999380364124639,0.011132085859618482
1753093924.0227735,13121,1753108324,42605514,ukd_base,0.30649492144584656,0.5207048654556274,0.0,0.0,0.0,0.9999517578417652,0.00982252458199504
1753093924.0460997,13122,1753108324,64362343,ukd_base,0.3091903626918793,0.5176374316215515,0.0,0.0,0.0,0.9999621731332101,0.00869783321914093
1753093924.062688,13123,1753108324,82583981,ukd_base,0.3176725208759308,0.504357635974884,0.0,0.0,0.0,0.9999681271018662,0.007984032839726532
1753093924.0779734,13124,1753108324,96115770,ukd_base,0.28749510645866394,0.5371460318565369,0.0,0.0,0.0,0.9999723034663898,0.007442600360251897
1753093924.0941713,13125,1753108324,112585312,ukd_base,0.3078944981098175,0.5363840460777283,0.0,0.0,0.0,0.9999740271658905,0.007207287536307445
1753093924.114407,13126,1753108324,134365271,ukd_base,0.2555106580257416,0.5739456415176392,0.0,0.0,0.0,0.999975438831476,0.007008689877357155
1753093924.1330783,13127,1753108324,152738296,ukd_base,0.2704397737979889,0.56432044506073,0.0,0.0,0.0,0.9999740452054452,0.007204784206224562
1753093924.1535842,13128,1753108324,172728344,ukd_base,0.30984652042388916,0.5416869521141052,0.0,0.0,0.0,0.9999710074950898,0.0076147336956133484
1753093924.1626043,13129,1753108324,182584314,ukd_base,0.3038214147090912,0.5368164777755737,0.0,0.0,0.0,0.9999693701263038,0.007826800700360927
1753093924.182396,13130,1753108324,202596843,ukd_base,0.3176608681678772,0.5263528823852539,0.0,0.0,0.0,0.999965163079993,0.00834701302281957
1753093924.194406,13131,1753108324,212569053,ukd_base,0.33168843388557434,0.5123533606529236,0.0,0.0,0.0,0.9999417504962158,0.010793313419139744
1753093924.2144322,13132,1753108324,234063403,ukd_base,0.3178780674934387,0.5173947215080261,0.0,0.0,0.0,0.9999405958400724,0.010899761052463703
1753093924.2226915,13133,1753108324,242605921,ukd_base,0.33914777636528015,0.5083160400390625,0.0,0.0,0.0,0.9999266191267869,0.012114304011107965
1753093924.2387514,13134,1753108324,258450579,ukd_base,0.31820395588874817,0.5248180627822876,0.0,0.0,0.0,0.999926789436092,0.012100238345969343
1753093924.254356,13135,1753108324,274081128,ukd_base,0.3390675485134125,0.5066309571266174,0.0,0.0,0.0,0.9999271611180516,0.012069484595210955
1753093924.274179,13136,1753108324,292577727,ukd_base,0.3303624987602234,0.5267043709754944,0.0,0.0,0.0,0.9999412450324471,0.010840040726840252
1753093924.2826705,13137,1753108324,302597917,ukd_base,0.316181480884552,0.5347321033477783,0.0,0.0,0.0,0.9999579786902428,0.009167379872338908
1753093924.30277,13138,1753108324,322586428,ukd_base,0.3432484269142151,0.5137319564819336,0.0,0.0,0.0,0.9999727778584147,0.007378586729561431
1753093924.3144054,13139,1753108324,332578730,ukd_base,0.33778145909309387,0.5181126594543457,0.0,0.0,0.0,0.9999848827152331,0.005498576270414022
1753093924.3344336,13140,1753108324,354048155,ukd_base,0.3327440321445465,0.5076082348823547,0.0,0.0,0.0,0.999984240882168,0.005614088288791851
1753093924.342397,13141,1753108324,362585043,ukd_base,0.3240509629249573,0.5213623046875,0.0,0.0,0.0,0.9999908666171716,0.0042739539349407945
1753093924.354207,13142,1753108324,372582641,ukd_base,0.34130585193634033,0.5124468803405762,0.0,0.0,0.0,0.9999904059719624,0.004380406833807253
1753093924.3742995,13143,1753108324,394221490,ukd_base,0.3340998589992523,0.5043744444847107,0.0,0.0,0.0,0.9999858023479417,0.005328705522307278
1753093924.3984075,13144,1753108324,416221206,ukd_base,0.3494832217693329,0.49567899107933044,0.0,0.0,0.0,0.9999859316394111,0.005304387170933991
1753093924.4026804,13145,1753108324,422581780,ukd_base,0.36891400814056396,0.49024662375450134,0.0,0.0,0.0,0.9999832327555918,0.0057908727905309695
1753093924.4225507,13146,1753108324,442584773,ukd_base,0.40759289264678955,0.465175986289978,0.0,0.0,0.0,0.9999845657848,0.005555915062797221
1753093924.4344337,13147,1753108324,454046414,ukd_base,0.398306280374527,0.45795804262161255,0.0,0.0,0.0,0.999986447236188,0.005206279280498838
1753093924.4427397,13148,1753108324,462584784,ukd_base,0.41946980357170105,0.4440615475177765,0.0,0.0,0.0,0.9999876405377109,0.0049717976448880015
1753093924.4656858,13149,1753108324,483996061,ukd_base,0.4355846047401428,0.43216943740844727,0.0,0.0,0.0,0.9999885871656782,0.004777608019793641
1753093924.4742107,13150,1753108324,494038695,ukd_base,0.4301719665527344,0.44859644770622253,0.0,0.0,0.0,0.9999896842825108,0.0045421722297104665
1753093924.494099,13151,1753108324,514083854,ukd_base,0.4213846027851105,0.4521480202674866,0.0,0.0,0.0,0.99999334083963,0.0036494213782019658
1753093924.5142698,13152,1753108324,534049032,ukd_base,0.433000385761261,0.4376402497291565,0.0,0.0,0.0,0.9999943748506404,0.0033541417795033513
1753093924.5258439,13153,1753108324,544231832,ukd_base,0.4732852280139923,0.4004255533218384,0.0,0.0,0.0,0.9999887336328144,0.004746852371847838
1753093924.5461829,13154,1753108324,564570304,ukd_base,0.47760123014450073,0.39997944235801697,0.0,0.0,0.0,0.9999825937520302,0.005900185841321624
1753093924.557947,13155,1753108324,572579789,ukd_base,0.508497953414917,0.3635243773460388,0.0,0.0,0.0,0.9999816218764819,0.006062665196173994
1753093924.5745032,13156,1753108324,592581726,ukd_base,0.5371131300926208,0.3226119875907898,0.0,0.0,0.0,0.9999837736785747,0.0056966990053063694
1753093924.582907,13157,1753108324,602601991,ukd_base,0.5462200045585632,0.3090461790561676,0.0,0.0,0.0,0.999987829469153,0.004933651140099614
1753093924.5942612,13158,1753108324,614034317,ukd_base,0.5580247044563293,0.28876158595085144,0.0,0.0,0.0,0.9999888915190468,0.004713474144191086
1753093924.6143453,13159,1753108324,634231864,ukd_base,0.5847190618515015,0.2834903299808502,0.0,0.0,0.0,0.9999960574293097,0.002808046622954944
1753093924.6346471,13160,1753108324,652581760,ukd_base,0.5750913619995117,0.3153388798236847,0.0,0.0,0.0,0.9999972929964905,0.002326800311797221
1753093924.6424127,13161,1753108324,662583599,ukd_base,0.5857143402099609,0.2912035882472992,0.0,0.0,0.0,0.9999998801709686,0.0004895488212410021
1753093924.6659298,13162,1753108324,683994857,ukd_base,0.6152716875076294,0.28214162588119507,0.0,0.0,0.0,0.999999999464084,3.2738843230614556e-05
1753093924.674342,13163,1753108324,694018029,ukd_base,0.622513473033905,0.26048266887664795,0.0,0.0,0.0,-0.9999971377197754,0.002392603656413738
1753093924.6940331,13164,1753108324,712578478,ukd_base,0.6435819864273071,0.2267841100692749,0.0,0.0,0.0,-0.9999958061721678,0.0028961419295992267
1753093924.7032418,13165,1753108324,722652057,ukd_base,0.6654109954833984,0.18503519892692566,0.0,0.0,0.0,-0.999994673850543,0.0032637816327455694
1753093924.7180593,13166,1753108324,736199958,ukd_base,0.6708906888961792,0.1754828691482544,0.0,0.0,0.0,-0.9999911145637299,0.004215541909306906
1753093924.7344341,13167,1753108324,752577574,ukd_base,0.6710895895957947,0.15793251991271973,0.0,0.0,0.0,-0.9999859992176103,0.005291631955968373
1753093924.7543237,13168,1753108324,772581789,ukd_base,0.6797894239425659,0.1735607385635376,0.0,0.0,0.0,-0.9999759168953425,0.006940146203007777
1753093924.762719,13169,1753108324,782586313,ukd_base,0.6596567034721375,0.1887056678533554,0.0,0.0,0.0,-0.9999600997450229,0.008933024007802099
1753093924.7740388,13170,1753108324,794058954,ukd_base,0.6671422123908997,0.17723028361797333,0.0,0.0,0.0,-0.9999477213441713,0.010225193328226875
1753093924.7940652,13171,1753108324,812581200,ukd_base,0.6887612342834473,0.0782986432313919,0.0,0.0,0.0,-0.999927794244737,0.012016917111099283
1753093924.814178,13172,1753108324,834063328,ukd_base,0.6922142505645752,0.0057548098266124725,0.0,0.0,0.0,-0.9999058987426058,0.013718369427224613
1753093924.8226008,13173,1753108324,842584384,ukd_base,0.6977040767669678,-0.06326758116483688,0.0,0.0,0.0,-0.9998953864384353,0.01446430707403501
1753093924.8458145,13174,1753108324,864266417,ukd_base,0.6686922907829285,-0.20834150910377502,0.0,0.0,0.0,-0.999912777369751,0.013207484723095051
1753093924.8540363,13175,1753108324,872583567,ukd_base,0.6168081164360046,-0.3440580666065216,0.0,0.0,0.0,-0.999918624251116,0.012757149985613477
1753093924.8783004,13176,1753108324,896342619,ukd_base,0.5784333348274231,-0.41754812002182007,0.0,0.0,0.0,-0.9998957275672978,0.014440706099916807
1753093924.8826654,13177,1753108324,902584269,ukd_base,0.5371243357658386,-0.47703421115875244,0.0,0.0,0.0,-0.9998784073458522,0.015593925853421559
1753093924.9025402,13178,1753108324,922570798,ukd_base,0.5019521117210388,-0.5103961825370789,0.0,0.0,0.0,-0.9998395611710569,0.017912339804405326
1753093924.9143872,13179,1753108324,934303733,ukd_base,0.4526462256908417,-0.5484347343444824,0.0,0.0,0.0,-0.9997913942595766,0.020424690070884325
1753093924.9343157,13180,1753108324,954041265,ukd_base,0.43168574571609497,-0.5494825839996338,0.0,0.0,0.0,-0.9997215203094909,0.02359834379951724
1753093924.9424136,13181,1753108324,962578543,ukd_base,0.4297458529472351,-0.559054970741272,0.0,0.0,0.0,-0.9996082404795404,0.027988668517763944
1753093924.9543054,13182,1753108324,974037832,ukd_base,0.4357071816921234,-0.571439802646637,0.0,0.0,0.0,-0.9995192251547983,0.03100513741223489
1753093924.9746647,13183,1753108324,994270804,ukd_base,0.44490376114845276,-0.5686583518981934,0.0,0.0,0.0,-0.9993439494198234,0.036216995430176084
1753093924.9945128,13184,1753108325,14219149,ukd_base,0.42908424139022827,-0.5947957038879395,0.0,0.0,0.0,-0.9991676912637176,0.04079123355247106
1753093925.0064054,13185,1753108325,24388153,ukd_base,0.4185807704925537,-0.5863028168678284,0.0,0.0,0.0,-0.9989919014152732,0.044890766385718886
1753093925.0142186,13186,1753108325,34076365,ukd_base,0.4121544659137726,-0.5906956195831299,0.0,0.0,0.0,-0.9988112278507519,0.0487455753814974
1753093925.0384014,13187,1753108325,52575722,ukd_base,0.3939112424850464,-0.5957368612289429,0.0,0.0,0.0,-0.9986060191843054,0.05278274764423309
1753093925.0541015,13188,1753108325,72584270,ukd_base,0.4169103503227234,-0.5857057571411133,0.0,0.0,0.0,-0.9983956761556962,0.0566222026559371
1753093925.0625033,13189,1753108325,82584646,ukd_base,0.40517082810401917,-0.5796931385993958,0.0,0.0,0.0,-0.9981035739210505,0.06155693077165287
1753093925.0741098,13190,1753108325,94029176,ukd_base,0.4092612564563751,-0.5667579174041748,0.0,0.0,0.0,-0.9978577884903351,0.0654204398424354
1753093925.0928102,13191,1753108325,112726643,ukd_base,0.40602102875709534,-0.562038242816925,0.0,0.0,0.0,-0.9975130585779123,0.07048189814795401
1753093925.1128397,13192,1753108325,132712228,ukd_base,0.4275338053703308,-0.5292335748672485,0.0,0.0,0.0,-0.9972125899072751,0.07461267003951007
1753093925.122805,13193,1753108325,142712734,ukd_base,0.3889578580856323,-0.5580708980560303,0.0,0.0,0.0,-0.9968169212485863,0.07972468571584118
1753093925.142658,13194,1753108325,162706523,ukd_base,0.39621007442474365,-0.5675540566444397,0.0,0.0,0.0,-0.9965552908100104,0.08293100963195697
1753093925.1529267,13195,1753108325,172719343,ukd_base,0.3545148968696594,-0.5797117352485657,0.0,0.0,0.0,-0.9963906869630779,0.08488579936152903
1753093925.1727855,13196,1753108325,192725836,ukd_base,0.34814074635505676,-0.597659170627594,0.0,0.0,0.0,-0.9961344455104898,0.08784171257158536
1753093925.1827755,13197,1753108325,202716971,ukd_base,0.32153499126434326,-0.594822347164154,0.0,0.0,0.0,-0.9960431569444738,0.08887085857628688
1753093925.2030087,13198,1753108325,222753982,ukd_base,0.31103312969207764,-0.6050512790679932,0.0,0.0,0.0,-0.9959113356991444,0.09033610256119162
1753093925.212617,13199,1753108325,232732154,ukd_base,0.3505054712295532,-0.5899530649185181,0.0,0.0,0.0,-0.995675636522072,0.09289793774011698
1753093925.2330582,13200,1753108325,252740091,ukd_base,0.3505054712295532,-0.5899530649185181,0.0,0.0,0.0,-0.995675636522072,0.09289793774011698
1753093925.2428076,13201,1753108325,262753800,ukd_base,0.3505054712295532,-0.5899530649185181,0.0,0.0,0.0,-0.995675636522072,0.09289793774011698
1753093925.2627614,13202,1753108325,282710034,ukd_base,0.3505054712295532,-0.5899530649185181,0.0,0.0,0.0,-0.995675636522072,0.09289793774011698
1753093925.2733877,13203,1753108325,292717465,ukd_base,0.3505054712295532,-0.5899530649185181,0.0,0.0,0.0,-0.995675636522072,0.09289793774011698
1753093925.2826571,13204,1753108325,302580065,ukd_base,0.3505054712295532,-0.5899530649185181,0.0,0.0,0.0,-0.995675636522072,0.09289793774011698
1753093925.3026798,13205,1753108325,322591668,ukd_base,0.3505054712295532,-0.5899530649185181,0.0,0.0,0.0,-0.995675636522072,0.09289793774011698
1753093925.3266616,13206,1753108325,344231758,ukd_base,0.3505054712295532,-0.5899530649185181,0.0,0.0,0.0,-0.995675636522072,0.09289793774011698
1753093925.3348556,13207,1753108325,354659982,ukd_base,0.3505054712295532,-0.5899530649185181,0.0,0.0,0.0,-0.995675636522072,0.09289793774011698
1753093925.3587697,13208,1753108325,376216387,ukd_base,0.3505054712295532,-0.5899530649185181,0.0,0.0,0.0,-0.995675636522072,0.09289793774011698
1753093925.3625207,13209,1753108325,382599813,ukd_base,0.3505054712295532,-0.5899530649185181,0.0,0.0,0.0,-0.995675636522072,0.09289793774011698
1753093925.382541,13210,1753108325,402587805,ukd_base,0.3505054712295532,-0.5899530649185181,0.0,0.0,0.0,-0.995675636522072,0.09289793774011698
1753093925.3943117,13211,1753108325,414071520,ukd_base,0.3505054712295532,-0.5899530649185181,0.0,0.0,0.0,-0.995675636522072,0.09289793774011698
1753093925.4145093,13212,1753108325,432583100,ukd_base,0.3505054712295532,-0.5899530649185181,0.0,0.0,0.0,-0.995675636522072,0.09289793774011698
1753093925.4232893,13213,1753108325,443244211,ukd_base,0.3505054712295532,-0.5899530649185181,0.0,0.0,0.0,-0.995675636522072,0.09289793774011698
1753093925.4425933,13214,1753108325,462585153,ukd_base,0.3505054712295532,-0.5899530649185181,0.0,0.0,0.0,-0.995675636522072,0.09289793774011698
1753093925.4626696,13215,1753108325,482606683,ukd_base,0.3505054712295532,-0.5899530649185181,0.0,0.0,0.0,-0.995675636522072,0.09289793774011698
1753093925.4743931,13216,1753108325,494045676,ukd_base,0.3505054712295532,-0.5899530649185181,0.0,0.0,0.0,-0.995675636522072,0.09289793774011698
1753093925.486813,13217,1753108325,504586140,ukd_base,0.3487752676010132,-0.693450927734375,0.0,0.0,0.0,-0.9923796483311526,0.1232178297899212
1753093925.4941638,13218,1753108325,514057594,ukd_base,0.10026460140943527,-0.8603982329368591,0.0,0.0,0.0,-0.9923202203483946,0.12369551442034371
1753093925.5181398,13219,1753108325,536140550,ukd_base,0.10026460140943527,-0.8603982329368591,0.0,0.0,0.0,-0.9923202203483946,0.12369551442034371
1753093925.534418,13220,1753108325,552583314,ukd_base,-0.13191565871238708,-0.9470776319503784,0.0,0.0,0.0,-0.992569438828414,0.12167953444950143
1753093925.5426195,13221,1753108325,562587283,ukd_base,0.19237825274467468,-1.02838134765625,0.0,0.0,0.0,-0.9925217563661909,0.12206786284592519
1753093925.5543034,13222,1753108325,572580566,ukd_base,0.19237825274467468,-1.02838134765625,0.0,0.0,0.0,-0.9925217563661909,0.12206786284592519
1753093925.5742064,13223,1753108325,592578985,ukd_base,0.0036037382669746876,-1.1253485679626465,0.0,0.0,0.0,-0.9924183334256684,0.12290586430524283
1753093925.5941117,13224,1753108325,612580514,ukd_base,-0.10878926515579224,-1.2104755640029907,0.0,0.0,0.0,-0.9923037701779885,0.12382741090142227
1753093925.6026995,13225,1753108325,622614797,ukd_base,-0.186437726020813,-1.2919718027114868,0.0,0.0,0.0,-0.9921034309421466,0.1254224155118273
1753093925.6143088,13226,1753108325,634363047,ukd_base,-0.05900372192263603,-1.3941062688827515,0.0,0.0,0.0,-0.9918162596523015,0.12767343924763055
1753093925.6345031,13227,1753108325,653920617,ukd_base,-0.5678706765174866,-1.37251615524292,0.0,0.0,0.0,-0.9918051758593,0.12775951290883625
1753093925.6544368,13228,1753108325,672584103,ukd_base,-0.5678706765174866,-1.37251615524292,0.0,0.0,0.0,-0.9918051758593,0.12775951290883625
1753093925.6626866,13229,1753108325,682586553,ukd_base,-0.5678706765174866,-1.37251615524292,0.0,0.0,0.0,-0.9918051758593,0.12775951290883625
