Time,header.seq,header.stamp.secs,header.stamp.nsecs,header.frame_id,pose.position.x,pose.position.y,pose.position.z,pose.orientation.x,pose.orientation.y,pose.orientation.z,pose.orientation.w
1753093757.0768418,5099,1753108157,12014459,ukd_base,-0.5014516711235046,0.5908306241035461,0.0,0.0,0.0,-0.9999999999999971,7.549789954891874e-08
1753093757.0780592,5100,1753108157,40252899,ukd_base,-0.493419885635376,0.5927219390869141,0.0,0.0,0.0,-0.9999999999999971,7.549789954891874e-08
1753093757.1392083,5101,1753108157,54265443,ukd_base,-0.4913102388381958,0.5900979042053223,0.0,0.0,0.0,-0.9999999999999971,7.549789954891874e-08
1753093757.1465204,5102,1753108157,86160925,ukd_base,-0.5082398653030396,0.5945159196853638,0.0,0.0,0.0,-0.9999999999999971,7.549789954891874e-08
1753093757.1965497,5103,1753108157,116142331,ukd_base,-0.49202147126197815,0.6065959334373474,0.0,0.0,0.0,-0.9999999999999971,7.549789954891874e-08
1753093757.1983533,5104,1753108157,162129190,ukd_base,-0.5030386447906494,0.5709230899810791,0.0,0.0,0.0,-0.9999999999999971,7.549789954891874e-08
1753093757.2265365,5105,1753108157,190276908,ukd_base,-0.49458274245262146,0.5589528679847717,0.0,0.0,0.0,-0.9999999999999971,7.549789954891874e-08
1753093757.262482,5106,1753108157,230107265,ukd_base,-0.4701301157474518,0.5792419910430908,0.0,0.0,0.0,-0.9999999999999971,7.549789954891874e-08
1753093757.3206673,5107,1753108157,250262719,ukd_base,-0.447406142950058,0.5871849656105042,0.0,0.0,0.0,-0.9999999999999971,7.549789954891874e-08
1753093757.3220026,5108,1753108157,276307381,ukd_base,-0.4184947609901428,0.5868985056877136,0.0,0.0,0.0,-0.9999999999999971,7.549789954891874e-08
1753093757.3945184,5109,1753108157,294244892,ukd_base,-0.4398585855960846,0.5745329856872559,0.0,0.0,0.0,-0.9999999999999971,7.549789954891874e-08
1753093757.3957057,5110,1753108157,316272459,ukd_base,-0.4238162338733673,0.5739927291870117,0.0,0.0,0.0,-0.9999999999999971,7.549789954891874e-08
1753093757.45477,5111,1753108157,350263052,ukd_base,-0.3936896026134491,0.5933060646057129,0.0,0.0,0.0,-0.9999999999999971,7.549789954891874e-08
1753093757.4646738,5113,1753108157,400224284,ukd_base,-0.3699086904525757,0.6103570461273193,0.0,0.0,0.0,-0.9999999999999971,7.549789954891874e-08
1753093757.5067277,5114,1753108157,430210134,ukd_base,-0.38710299134254456,0.6066253781318665,0.0,0.0,0.0,-0.9999999999999971,7.549789954891874e-08
1753093757.5267367,5116,1753108157,486165110,ukd_base,-0.3698161244392395,0.6367233395576477,0.0,0.0,0.0,-0.9999999999999971,7.549789954891874e-08
1753093757.576729,5117,1753108157,514125959,ukd_base,-0.34016335010528564,0.6305246949195862,0.0,0.0,0.0,-0.9999999999999971,7.549789954891874e-08
1753093757.586765,5118,1753108157,536317266,ukd_base,-0.3028128445148468,0.6390358209609985,0.0,0.0,0.0,-0.9999999999999971,7.549789954891874e-08
1753093757.6407132,5119,1753108157,566150247,ukd_base,-0.30811870098114014,0.6371088624000549,0.0,0.0,0.0,-0.9999999999999971,7.549789954891874e-08
1753093757.6433928,5120,1753108157,592142391,ukd_base,-0.30930468440055847,0.6301582455635071,0.0,0.0,0.0,-0.9999999999999971,7.549789954891874e-08
1753093757.6665318,5121,1753108157,614289328,ukd_base,-0.2857688367366791,0.6405259370803833,0.0,0.0,0.0,-0.9999999999999971,7.549789954891874e-08
1753093757.6679173,5123,1753108157,660500666,ukd_base,-0.23216648399829865,0.6498363614082336,0.0,0.0,0.0,-0.9999999999999971,7.549789954891874e-08
1753093757.71078,5124,1753108157,680107866,ukd_base,-0.2020438015460968,0.6691960096359253,0.0,0.0,0.0,-0.9999999999999971,7.549789954891874e-08
1753093757.7545292,5125,1753108157,696272929,ukd_base,-0.18461191654205322,0.6745144128799438,0.0,0.0,0.0,-0.9999999999999971,7.549789954891874e-08
1753093757.7558656,5126,1753108157,724328537,ukd_base,-0.1692459136247635,0.6943384408950806,0.0,0.0,0.0,-0.9999999999999971,7.549789954891874e-08
1753093757.8006349,5127,1753108157,746271753,ukd_base,-0.1540122628211975,0.7025851607322693,0.0,0.0,0.0,-0.9999999999999971,7.549789954891874e-08
1753093757.8666663,5128,1753108157,776270344,ukd_base,-0.1592904031276703,0.7131683230400085,0.0,0.0,0.0,-0.9999999999999971,7.549789954891874e-08
1753093757.8680406,5129,1753108157,810101809,ukd_base,-0.13871268928050995,0.7088178992271423,0.0,0.0,0.0,-0.9999999999999971,7.549789954891874e-08
1753093757.9106486,5130,1753108157,836138323,ukd_base,-0.09589963406324387,0.7147036790847778,0.0,0.0,0.0,-0.9999999999999971,7.549789954891874e-08
1753093757.9120464,5131,1753108157,856330740,ukd_base,-0.07267462462186813,0.7291635274887085,0.0,0.0,0.0,-0.9999999999999971,7.549789954891874e-08
1753093757.958779,5132,1753108157,896246818,ukd_base,-0.07348106801509857,0.7305058240890503,0.0,0.0,0.0,-0.9999999999999971,7.549789954891874e-08
1753093757.966662,5133,1753108157,926267334,ukd_base,-0.056389208883047104,0.7512408494949341,0.0,0.0,0.0,-0.9999999999999971,7.549789954891874e-08
1753093758.0087297,5134,1753108157,960203021,ukd_base,-0.023121356964111328,0.7443845868110657,0.0,0.0,0.0,-0.9999999999999971,7.549789954891874e-08
1753093758.0246685,5135,1753108157,984298070,ukd_base,-7.07293365849182e-05,0.7447243332862854,0.0,0.0,0.0,-0.9999999999999971,7.549789954891874e-08
1753093758.080614,5136,1753108158,16235811,ukd_base,0.020268598571419716,0.7522419095039368,0.0,0.0,0.0,-0.9999999999999971,7.549789954891874e-08
1753093758.0821452,5137,1753108158,36174211,ukd_base,0.018093902617692947,0.7605452537536621,0.0,0.0,0.0,-0.9999999999999971,7.549789954891874e-08
1753093758.1325362,5138,1753108158,66078803,ukd_base,0.04016900435090065,0.7312884330749512,0.0,0.0,0.0,-0.9999999999999971,7.549789954891874e-08
1753093758.1367524,5139,1753108158,90326555,ukd_base,0.04526880383491516,0.7272660732269287,0.0,0.0,0.0,-0.9999999999999971,7.549789954891874e-08
1753093758.1866696,5140,1753108158,126235686,ukd_base,0.08091621100902557,0.7190666198730469,0.0,0.0,0.0,-0.9999999999999971,7.549789954891874e-08
1753093758.194748,5141,1753108158,150268625,ukd_base,0.07075388729572296,0.7280938029289246,0.0,0.0,0.0,-0.9999999999999971,7.549789954891874e-08
1753093758.24873,5142,1753108158,180178384,ukd_base,0.09350024908781052,0.6911507248878479,0.0,0.0,0.0,-0.9999999999999971,7.549789954891874e-08
1753093758.2547553,5143,1753108158,206191120,ukd_base,0.13386963307857513,0.6824426054954529,0.0,0.0,0.0,-0.9999999999999971,7.549789954891874e-08
1753093758.316709,5144,1753108158,236011731,ukd_base,0.15785782039165497,0.679371178150177,0.0,0.0,0.0,-0.9999999999999971,7.549789954891874e-08
1753093758.3306487,5146,1753108158,284181219,ukd_base,0.18676933646202087,0.70340895652771,0.0,0.0,0.0,-0.9999999999999971,7.549789954891874e-08
1753093758.372517,5147,1753108158,310115864,ukd_base,0.18929177522659302,0.6911607384681702,0.0,0.0,0.0,-0.9999999999999971,7.549789954891874e-08
1753093758.3741887,5148,1753108158,330021875,ukd_base,0.2054329365491867,0.6750629544258118,0.0,0.0,0.0,-0.9999999999999971,7.549789954891874e-08
1753093758.4109414,5149,1753108158,356103593,ukd_base,0.2644522786140442,0.6423513293266296,0.0,0.0,0.0,-0.9999999999999971,7.549789954891874e-08
1753093758.4123871,5150,1753108158,384188978,ukd_base,0.2293354570865631,0.6531925201416016,0.0,0.0,0.0,0.9999997960441516,0.000638679618602266
1753093758.4565346,5151,1753108158,400320356,ukd_base,0.2611273527145386,0.6468811631202698,0.0,0.0,0.0,0.9999999564877127,0.0002949992759694839
1753093758.4579244,5152,1753108158,418231645,ukd_base,0.24881379306316376,0.6364085078239441,0.0,0.0,0.0,0.9999998482316668,0.0005509415970418781
1753093758.504506,5153,1753108158,446021829,ukd_base,0.3143392503261566,0.620665431022644,0.0,0.0,0.0,0.9999966721018078,0.0025798808712039004
1753093758.505938,5154,1753108158,464173430,ukd_base,0.3178156614303589,0.6169608235359192,0.0,0.0,0.0,0.999988774338541,0.004738269399525445
1753093758.5446067,5155,1753108158,486225738,ukd_base,0.28350314497947693,0.6087891459465027,0.0,0.0,0.0,0.9999446647119378,0.010519862838001718
1753093758.5459464,5156,1753108158,510239196,ukd_base,0.2818734347820282,0.6156336069107056,0.0,0.0,0.0,0.9999174046195167,0.012852390399057261
1753093758.5987241,5157,1753108158,546163568,ukd_base,0.34948068857192993,0.578622043132782,0.0,0.0,0.0,0.9998079567154419,0.01959718572890269
1753093758.6465876,5158,1753108158,570326858,ukd_base,0.34368571639060974,0.569514274597168,0.0,0.0,0.0,0.9997815911756953,0.020899041753029955
1753093758.6479788,5159,1753108158,600273856,ukd_base,0.29357272386550903,0.5895932912826538,0.0,0.0,0.0,0.9997355318118639,0.02299709618298808
1753093758.7126422,5160,1753108158,640294101,ukd_base,0.3246350884437561,0.5829455256462097,0.0,0.0,0.0,0.9995320672133977,0.030588341114086835
1753093758.7265177,5161,1753108158,658324221,ukd_base,0.3203686773777008,0.6066763997077942,0.0,0.0,0.0,0.9994101624702285,0.034341332985651986
1753093758.7726352,5162,1753108158,696159337,ukd_base,0.32239559292793274,0.5942538976669312,0.0,0.0,0.0,0.9988894155962972,0.04711619052605845
1753093758.776605,5163,1753108158,730244336,ukd_base,0.2980927526950836,0.6040247678756714,0.0,0.0,0.0,0.9988075990699056,0.04881987341453061
1753093758.8105824,5164,1753108158,762079318,ukd_base,0.3090076744556427,0.592065155506134,0.0,0.0,0.0,0.9991500886424469,0.04122014514518971
1753093758.812289,5165,1753108158,786266145,ukd_base,0.35134559869766235,0.5757622122764587,0.0,0.0,0.0,0.9994103057447362,0.034337163121212766
1753093758.846749,5166,1753108158,820062573,ukd_base,0.3533470034599304,0.5989294648170471,0.0,0.0,0.0,0.9996373695962005,0.026928225095412237
1753093758.9106448,5167,1753108158,840242712,ukd_base,0.3741852641105652,0.5948761701583862,0.0,0.0,0.0,-0.9999999999999971,7.549789954891874e-08
1753093758.9264665,5168,1753108158,864233059,ukd_base,0.3541107475757599,0.592506468296051,0.0,0.0,0.0,-0.9999999999999971,7.549789954891874e-08
1753093758.999077,5169,1753108158,880290919,ukd_base,0.33348509669303894,0.6008380651473999,0.0,0.0,0.0,-0.9999999999999971,7.549789954891874e-08
1753093759.0067577,5171,1753108158,942315175,ukd_base,0.3209382891654968,0.5917724370956421,0.0,0.0,0.0,-0.9999999999999971,7.549789954891874e-08
1753093759.0746443,5172,1753108158,962058763,ukd_base,0.3345696032047272,0.5691910982131958,0.0,0.0,0.0,-0.9999999999999971,7.549789954891874e-08
1753093759.0870554,5174,1753108159,36134785,ukd_base,0.3678794205188751,0.5684340596199036,0.0,0.0,0.0,-0.9999999999999971,7.549789954891874e-08
1753093759.1164696,5175,1753108159,64193726,ukd_base,0.3870646059513092,0.565735399723053,0.0,0.0,0.0,-0.9999999999999971,7.549789954891874e-08
1753093759.1608002,5176,1753108159,102091507,ukd_base,0.3070864975452423,0.6051163077354431,0.0,0.0,0.0,-0.9999999999999971,7.549789954891874e-08
1753093759.1624897,5177,1753108159,124278554,ukd_base,0.3328481614589691,0.6021314263343811,0.0,0.0,0.0,-0.9999999999999971,7.549789954891874e-08
1753093759.1965015,5178,1753108159,154139406,ukd_base,0.34181568026542664,0.5861351490020752,0.0,0.0,0.0,-0.9999999999999971,7.549789954891874e-08
1753093759.1979008,5179,1753108159,176166992,ukd_base,0.3569222688674927,0.575476884841919,0.0,0.0,0.0,-0.9999999999999971,7.549789954891874e-08
1753093759.2347462,5180,1753108159,204171044,ukd_base,0.33930322527885437,0.5765979886054993,0.0,0.0,0.0,-0.9999999999999971,7.549789954891874e-08
1753093759.2847648,5181,1753108159,230166559,ukd_base,0.3533856272697449,0.5530608296394348,0.0,0.0,0.0,-0.9999999999999971,7.549789954891874e-08
1753093759.2964942,5182,1753108159,252106423,ukd_base,0.37059006094932556,0.529005229473114,0.0,0.0,0.0,-0.9999999999999971,7.549789954891874e-08
1753093759.3265395,5183,1753108159,274157324,ukd_base,0.37907809019088745,0.5207695364952087,0.0,0.0,0.0,-0.9999999999999971,7.549789954891874e-08
1753093759.3279526,5184,1753108159,314236882,ukd_base,0.37526577711105347,0.5072163343429565,0.0,0.0,0.0,-0.9999999999999971,7.549789954891874e-08
1753093759.3607259,5185,1753108159,330330761,ukd_base,0.379560649394989,0.5036551356315613,0.0,0.0,0.0,-0.9999999999999971,7.549789954891874e-08
1753093759.4066052,5186,1753108159,360313555,ukd_base,0.38796722888946533,0.49944183230400085,0.0,0.0,0.0,-0.9999999999999971,7.549789954891874e-08
1753093759.4080079,5187,1753108159,386260478,ukd_base,0.37767353653907776,0.5004764199256897,0.0,0.0,0.0,-0.9999999999999971,7.549789954891874e-08
1753093759.4467418,5188,1753108159,416147903,ukd_base,0.45064643025398254,0.43208611011505127,0.0,0.0,0.0,-0.9999999999999971,7.549789954891874e-08
1753093759.5266056,5189,1753108159,434243301,ukd_base,0.4578525722026825,0.42253226041793823,0.0,0.0,0.0,-0.9999999999999971,7.549789954891874e-08
1753093759.5279744,5190,1753108159,456108721,ukd_base,0.448216050863266,0.40055736899375916,0.0,0.0,0.0,-0.9999999999999971,7.549789954891874e-08
1753093759.5746043,5191,1753108159,486174256,ukd_base,0.4681971073150635,0.3874911367893219,0.0,0.0,0.0,-0.9999999999999971,7.549789954891874e-08
1753093759.5759423,5193,1753108159,544236880,ukd_base,0.5604051351547241,0.2721635401248932,0.0,0.0,0.0,-0.9999999999999971,7.549789954891874e-08
1753093759.6007006,5194,1753108159,580276511,ukd_base,0.6059696078300476,0.18912924826145172,0.0,0.0,0.0,0.9999869763371875,0.005103641445997071
1753093759.6547012,5195,1753108159,616134588,ukd_base,0.6148083806037903,0.15664933621883392,0.0,0.0,0.0,-0.9999999999999971,7.549789954891874e-08
1753093759.67056,5196,1753108159,632143985,ukd_base,0.6185516119003296,0.13501697778701782,0.0,0.0,0.0,-0.9999999999999971,7.549789954891874e-08
1753093759.712549,5197,1753108159,662053151,ukd_base,0.636772871017456,0.10285820066928864,0.0,0.0,0.0,-0.9999999999999971,7.549789954891874e-08
1753093759.7224658,5198,1753108159,680292918,ukd_base,0.6338494420051575,0.09219088405370712,0.0,0.0,0.0,-0.9999999999999971,7.549789954891874e-08
1753093759.760735,5199,1753108159,710151380,ukd_base,0.6315227746963501,0.028247563168406487,0.0,0.0,0.0,-0.9999999999999971,7.549789954891874e-08
1753093759.766301,5200,1753108159,736307542,ukd_base,0.6248655319213867,-0.015410804189741611,0.0,0.0,0.0,-0.9999999999999971,7.549789954891874e-08
1753093759.7965822,5201,1753108159,762126521,ukd_base,0.6032413244247437,-0.09371424466371536,0.0,0.0,0.0,0.9999999999999971,7.549789954891874e-08
1753093759.826557,5202,1753108159,796194354,ukd_base,0.5776301622390747,-0.23214595019817352,0.0,0.0,0.0,-0.9999999999999971,7.549789954891874e-08
1753093759.8708794,5203,1753108159,814167475,ukd_base,0.5646988153457642,-0.2673151195049286,0.0,0.0,0.0,-0.9999999999999971,7.549789954891874e-08
1753093759.8767023,5204,1753108159,842148250,ukd_base,0.4736601710319519,-0.4114922285079956,0.0,0.0,0.0,-0.9999999999999971,7.549789954891874e-08
1753093759.9348342,5205,1753108159,864282668,ukd_base,0.44196221232414246,-0.450657457113266,0.0,0.0,0.0,-0.9999999999999971,7.549789954891874e-08
1753093759.9424543,5206,1753108159,886296977,ukd_base,0.36802127957344055,-0.545689046382904,0.0,0.0,0.0,-0.9999999999999971,7.549789954891874e-08
1753093759.9806542,5207,1753108159,926271277,ukd_base,0.35682815313339233,-0.5563406944274902,0.0,0.0,0.0,-0.9999999999999971,7.549789954891874e-08
1753093759.996707,5209,1753108159,970189450,ukd_base,0.32472890615463257,-0.5902283787727356,0.0,0.0,0.0,-0.9999999999999971,7.549789954891874e-08
1753093760.0567124,5210,1753108159,994087816,ukd_base,0.348871111869812,-0.5860070586204529,0.0,0.0,0.0,-0.9999999999999971,7.549789954891874e-08
1753093760.1104481,5211,1753108160,24277979,ukd_base,0.36267754435539246,-0.57884281873703,0.0,0.0,0.0,-0.9999999999999971,7.549789954891874e-08
1753093760.111813,5213,1753108160,84249735,ukd_base,0.374794065952301,-0.591372013092041,0.0,0.0,0.0,0.9999312501092433,0.01172582854069517
1753093760.156479,5214,1753108160,110319379,ukd_base,0.38448596000671387,-0.5900530219078064,0.0,0.0,0.0,0.9999999999999971,7.549789954891874e-08
1753093760.1985877,5215,1753108160,140312951,ukd_base,0.37759682536125183,-0.5929728150367737,0.0,0.0,0.0,0.9999999999999971,7.549789954891874e-08
1753093760.1999753,5216,1753108160,160272592,ukd_base,0.3805330693721771,-0.5792868733406067,0.0,0.0,0.0,0.9999999999999971,7.549789954891874e-08
1753093760.258733,5217,1753108160,200248188,ukd_base,0.371067613363266,-0.5796418190002441,0.0,0.0,0.0,0.9999999999999971,7.549789954891874e-08
1753093760.2664473,5218,1753108160,220153534,ukd_base,0.38819241523742676,-0.5834239721298218,0.0,0.0,0.0,-0.9999999999999971,7.549789954891874e-08
1753093760.326556,5219,1753108160,246239307,ukd_base,0.396109402179718,-0.5779664516448975,0.0,0.0,0.0,-0.9999999999999971,7.549789954891874e-08
1753093760.3279128,5220,1753108160,266250669,ukd_base,0.4112180769443512,-0.5744604468345642,0.0,0.0,0.0,-0.9999999999999971,7.549789954891874e-08
1753093760.3626635,5221,1753108160,300150893,ukd_base,0.4208602011203766,-0.6007146239280701,0.0,0.0,0.0,-0.9999999999999971,7.549789954891874e-08
1753093760.3764594,5222,1753108160,320225644,ukd_base,0.4452705979347229,-0.6076158285140991,0.0,0.0,0.0,-0.9999999999999971,7.549789954891874e-08
1753093760.4264693,5223,1753108160,344320545,ukd_base,0.44185125827789307,-0.6125863790512085,0.0,0.0,0.0,-0.9999999999999971,7.549789954891874e-08
1753093760.4277565,5225,1753108160,386301884,ukd_base,0.45448756217956543,-0.6081724762916565,0.0,0.0,0.0,-0.9999999999999971,7.549789954891874e-08
1753093760.4645872,5226,1753108160,416079328,ukd_base,0.45226597785949707,-0.610314130783081,0.0,0.0,0.0,-0.9999999999999971,7.549789954891874e-08
1753093760.4659336,5227,1753108160,436140191,ukd_base,0.43690940737724304,-0.6464104056358337,0.0,0.0,0.0,-0.9999999999999971,7.549789954891874e-08
1753093760.5170186,5228,1753108160,456304219,ukd_base,0.43690940737724304,-0.6464104056358337,0.0,0.0,0.0,-0.9999999999999971,7.549789954891874e-08
1753093760.5195544,5229,1753108160,474242822,ukd_base,0.426529198884964,-0.6675146818161011,0.0,0.0,0.0,-0.9999999999999971,7.549789954891874e-08
1753093760.5825603,5230,1753108160,502141431,ukd_base,0.4180363416671753,-0.6826820969581604,0.0,0.0,0.0,-0.9999999999999971,7.549789954891874e-08
1753093760.5909882,5231,1753108160,534295281,ukd_base,0.3964710235595703,-0.709034264087677,0.0,0.0,0.0,-0.9999999999999971,7.549789954891874e-08
1753093760.6646726,5232,1753108160,564271001,ukd_base,0.3964710235595703,-0.709034264087677,0.0,0.0,0.0,-0.9999999999999971,7.549789954891874e-08
1753093760.6661062,5233,1753108160,594170593,ukd_base,0.3964710235595703,-0.709034264087677,0.0,0.0,0.0,-0.9999999999999971,7.549789954891874e-08
1753093760.7265832,5234,1753108160,624174758,ukd_base,0.3964710235595703,-0.709034264087677,0.0,0.0,0.0,-0.9999999999999971,7.549789954891874e-08
1753093760.7280536,5236,1753108160,670302893,ukd_base,0.3964710235595703,-0.709034264087677,0.0,0.0,0.0,-0.9999999999999971,7.549789954891874e-08
1753093760.762577,5237,1753108160,700331761,ukd_base,-0.10219002515077591,-0.9261326193809509,0.0,0.0,0.0,-0.9999827425443655,0.005874913909952474
1753093760.7828348,5238,1753108160,730090039,ukd_base,-0.7195509672164917,-0.6851323246955872,0.0,0.0,0.0,-0.9998749722668071,0.01581264792663215
1753093760.8306541,5239,1753108160,758283794,ukd_base,-0.9725873470306396,-0.3793322443962097,0.0,0.0,0.0,-0.9999999999999971,7.549789954891874e-08
1753093760.8367193,5241,1753108160,800248243,ukd_base,-1.0649681091308594,-0.17679260671138763,0.0,0.0,0.0,-0.9999999999999971,7.549789954891874e-08
1753093760.8787541,5242,1753108160,820287865,ukd_base,-1.0784088373184204,-0.14919304847717285,0.0,0.0,0.0,-0.9999999999999971,7.549789954891874e-08
1753093760.8947475,5243,1753108160,846303472,ukd_base,-1.0784088373184204,-0.14919304847717285,0.0,0.0,0.0,-0.9999999999999971,7.549789954891874e-08
1753093760.9426723,5244,1753108160,874269673,ukd_base,-1.0784088373184204,-0.14919304847717285,0.0,0.0,0.0,-0.9999999999999971,7.549789954891874e-08
1753093760.950459,5245,1753108160,906234839,ukd_base,-1.0784088373184204,-0.14919304847717285,0.0,0.0,0.0,-0.9999999999999971,7.549789954891874e-08
1753093760.9825985,5246,1753108160,936238411,ukd_base,-1.0784088373184204,-0.14919304847717285,0.0,0.0,0.0,-0.9999999999999971,7.549789954891874e-08
1753093760.996699,5247,1753108160,966181280,ukd_base,-1.0784088373184204,-0.14919304847717285,0.0,0.0,0.0,-0.9999999999999971,7.549789954891874e-08
1753093761.0567248,5248,1753108160,984276345,ukd_base,-1.0784088373184204,-0.14919304847717285,0.0,0.0,0.0,-0.9999999999999971,7.549789954891874e-08
1753093761.0704603,5249,1753108161,14268306,ukd_base,-0.9622197151184082,-0.5101174116134644,0.0,0.0,0.0,-0.9999999999999971,7.549789954891874e-08
1753093761.1006808,5250,1753108161,54162755,ukd_base,-0.9622197151184082,-0.5101174116134644,0.0,0.0,0.0,-0.9999999999999971,7.549789954891874e-08
1753093761.1206322,5251,1753108161,74244895,ukd_base,-0.9622197151184082,-0.5101174116134644,0.0,0.0,0.0,-0.9999999999999971,7.549789954891874e-08
1753093761.1904378,5252,1753108161,100310002,ukd_base,-0.9622197151184082,-0.5101174116134644,0.0,0.0,0.0,-0.9999999999999971,7.549789954891874e-08
1753093761.1918547,5253,1753108161,132152076,ukd_base,-0.7892056107521057,-0.8759992718696594,0.0,0.0,0.0,-0.9999999999999971,7.549789954891874e-08
1753093761.2324643,5254,1753108161,154184107,ukd_base,-1.1212531328201294,-0.5944284200668335,0.0,0.0,0.0,-0.9999999999999971,7.549789954891874e-08
1753093761.2345855,5255,1753108161,180255861,ukd_base,-1.346253752708435,-0.18624821305274963,0.0,0.0,0.0,-0.9999999999999971,7.549789954891874e-08
1753093761.2825654,5256,1753108161,220226458,ukd_base,-1.592423439025879,0.3436222970485687,0.0,0.0,0.0,-0.9999999999999971,7.549789954891874e-08
1753093761.2924547,5257,1753108161,250146716,ukd_base,-1.4541836977005005,0.9168272018432617,0.0,0.0,0.0,-0.9999999999999971,7.549789954891874e-08
1753093761.342468,5258,1753108161,270089283,ukd_base,-1.4541836977005005,0.9168272018432617,0.0,0.0,0.0,-0.9999999999999971,7.549789954891874e-08
1753093761.343836,5259,1753108161,296318647,ukd_base,-0.9965850710868835,1.2886841297149658,0.0,0.0,0.0,-0.9999999999999971,7.549789954891874e-08
1753093761.4167085,5260,1753108161,324294219,ukd_base,-1.1128790378570557,1.0631346702575684,0.0,0.0,0.0,-0.9999999999999971,7.549789954891874e-08
1753093761.4265678,5262,1753108161,374243173,ukd_base,-0.8925759196281433,1.0371589660644531,0.0,0.0,0.0,-0.9999999999999971,7.549789954891874e-08
1753093761.4765756,5263,1753108161,400172447,ukd_base,-0.6076018810272217,1.1168080568313599,0.0,0.0,0.0,-0.9999999999999971,7.549789954891874e-08
1753093761.4779084,5264,1753108161,434261928,ukd_base,-0.746063232421875,1.0103777647018433,0.0,0.0,0.0,-0.9999999999999971,7.549789954891874e-08
1753093761.5325105,5265,1753108161,460189906,ukd_base,-1.1608833074569702,0.5282669067382812,0.0,0.0,0.0,-0.9999999999999971,7.549789954891874e-08
1753093761.5466592,5266,1753108161,492123091,ukd_base,-1.3613766431808472,0.10510287433862686,0.0,0.0,0.0,-0.9999999999999971,7.549789954891874e-08
1753093761.604937,5267,1753108161,516220344,ukd_base,-1.4551500082015991,0.02843664586544037,0.0,0.0,0.0,-0.9999999999999971,7.549789954891874e-08
1753093761.6072524,5269,1753108161,564242408,ukd_base,-1.5062931776046753,-0.6778807640075684,0.0,0.0,0.0,-0.9999999999999971,7.549789954891874e-08
1753093761.6551328,5270,1753108161,586321438,ukd_base,-1.2469581365585327,-1.2161253690719604,0.0,0.0,0.0,-0.9999999999999971,7.549789954891874e-08
1753093761.6651385,5271,1753108161,618311215,ukd_base,-0.3569057881832123,-1.8883674144744873,0.0,0.0,0.0,-0.9999999999999971,7.549789954891874e-08
1753093761.7065504,5272,1753108161,650282770,ukd_base,0.4143761992454529,-1.691791296005249,0.0,0.0,0.0,-0.9999999999999971,7.549789954891874e-08
1753093761.708422,5273,1753108161,676206137,ukd_base,0.6363623738288879,-1.4262750148773193,0.0,0.0,0.0,-0.9999999999999971,7.549789954891874e-08
1753093761.7449727,5274,1753108161,710313859,ukd_base,0.10245008021593094,-1.4682294130325317,0.0,0.0,0.0,-0.9999560042197472,0.009380278507426506
1753093761.7770262,5275,1753108161,736289318,ukd_base,0.10245008021593094,-1.4682294130325317,0.0,0.0,0.0,-0.9999560042197472,0.009380278507426506
1753093761.812841,5276,1753108161,762130352,ukd_base,0.4379010498523712,-1.5485345125198364,0.0,0.0,0.0,-0.9999999999999971,7.549789954891874e-08
1753093761.8249202,5277,1753108161,786269512,ukd_base,0.025263579562306404,-1.6990717649459839,0.0,0.0,0.0,-0.9999999999999971,7.549789954891874e-08
1753093761.8668947,5278,1753108161,816193085,ukd_base,0.3718578517436981,-1.839267611503601,0.0,0.0,0.0,-0.9999999999999971,7.549789954891874e-08
1753093761.8826673,5279,1753108161,840322042,ukd_base,0.30707716941833496,-1.759892225265503,0.0,0.0,0.0,-0.9999999999999971,7.549789954891874e-08
1753093761.936701,5280,1753108161,864224963,ukd_base,0.22548411786556244,-1.6814301013946533,0.0,0.0,0.0,-0.9999999999999971,7.549789954891874e-08
1753093761.9405582,5281,1753108161,894285702,ukd_base,0.18178799748420715,-1.4148509502410889,0.0,0.0,0.0,-0.9999999999999971,7.549789954891874e-08
1753093761.994585,5282,1753108161,926327552,ukd_base,0.18407274782657623,-1.3520647287368774,0.0,0.0,0.0,-0.9999999999999971,7.549789954891874e-08
1753093761.9959896,5283,1753108161,946130491,ukd_base,0.08421101421117783,-1.3245017528533936,0.0,0.0,0.0,-0.9999999999999971,7.549789954891874e-08
1753093762.0605505,5284,1753108161,982054789,ukd_base,0.31692346930503845,-1.3253870010375977,0.0,0.0,0.0,-0.9999999999999971,7.549789954891874e-08
1753093762.0620184,5285,1753108162,16323621,ukd_base,-0.05281776934862137,-1.5418469905853271,0.0,0.0,0.0,-0.9999999999999971,7.549789954891874e-08
1753093762.1165965,5286,1753108162,50107475,ukd_base,-0.2736375033855438,-1.7008806467056274,0.0,0.0,0.0,-0.9999999999999971,7.549789954891874e-08
1753093762.1247032,5287,1753108162,76154544,ukd_base,-0.4557417631149292,-1.5950970649719238,0.0,0.0,0.0,-0.9999999999999971,7.549789954891874e-08
1753093762.169733,5288,1753108162,104210059,ukd_base,-0.535010814666748,-1.3787622451782227,0.0,0.0,0.0,-0.9999999999999971,7.549789954891874e-08
1753093762.1711764,5289,1753108162,124239570,ukd_base,-0.604303240776062,-1.2675687074661255,0.0,0.0,0.0,-0.9999999999999971,7.549789954891874e-08
1753093762.1729605,5290,1753108162,158280107,ukd_base,-0.49137914180755615,-1.266927719116211,0.0,0.0,0.0,-0.9999999999999971,7.549789954891874e-08
1753093762.1742895,5291,1753108162,184329992,ukd_base,-0.4678933918476105,-1.18943190574646,0.0,0.0,0.0,-0.9999999999999971,7.549789954891874e-08
1753093762.1762905,5292,1753108162,194487014,ukd_base,-0.5269697904586792,-1.1518888473510742,0.0,0.0,0.0,-0.9999999999999971,7.549789954891874e-08
1753093762.1960526,5293,1753108162,214410304,ukd_base,-0.570063054561615,-1.115469217300415,0.0,0.0,0.0,-0.9999999999999971,7.549789954891874e-08
1753093762.2060907,5294,1753108162,224415661,ukd_base,-0.6185311079025269,-1.0780469179153442,0.0,0.0,0.0,-0.9999999999999971,7.549789954891874e-08
1753093762.2260861,5295,1753108162,244419858,ukd_base,-0.6358469128608704,-1.0738964080810547,0.0,0.0,0.0,-0.9999999999999971,7.549789954891874e-08
1753093762.2360349,5296,1753108162,254478344,ukd_base,-0.6741846799850464,-1.072281002998352,0.0,0.0,0.0,-0.9999999999999971,7.549789954891874e-08
1753093762.246038,5297,1753108162,264414591,ukd_base,-0.6782664656639099,-1.109771490097046,0.0,0.0,0.0,-0.9999999999999971,7.549789954891874e-08
1753093762.266085,5298,1753108162,284414269,ukd_base,-0.6827490329742432,-1.0642671585083008,0.0,0.0,0.0,-0.9999999999999971,7.549789954891874e-08
1753093762.2760067,5299,1753108162,294414700,ukd_base,-0.6870760321617126,-1.0777236223220825,0.0,0.0,0.0,-0.9999999999999971,7.549789954891874e-08
1753093762.296044,5300,1753108162,314414933,ukd_base,-0.643133282661438,-1.1190282106399536,0.0,0.0,0.0,-0.9999999999999971,7.549789954891874e-08
1753093762.306038,5301,1753108162,324413032,ukd_base,-0.6602433323860168,-1.1192450523376465,0.0,0.0,0.0,-0.9999999999999971,7.549789954891874e-08
1753093762.3262582,5302,1753108162,344418543,ukd_base,-0.6886916160583496,-1.0986157655715942,0.0,0.0,0.0,-0.9999967843164074,0.002536011996172433
1753093762.3365514,5303,1753108162,354792341,ukd_base,-0.6636316776275635,-1.129050374031067,0.0,0.0,0.0,-0.9999861332581378,0.0052662407310929095
1753093762.506773,5304,1753108162,376300913,ukd_base,-0.6515285968780518,-1.1292797327041626,0.0,0.0,0.0,-0.9999748471173373,0.0070926111311655545
1753093762.5083222,5310,1753108162,480130324,ukd_base,-0.5533463358879089,-1.0783939361572266,0.0,0.0,0.0,0.9998351755586009,0.018155487206395787
1753093762.566533,5311,1753108162,494183165,ukd_base,-0.5481101274490356,-1.1038633584976196,0.0,0.0,0.0,0.9997938461737569,0.020304313657105222
1753093762.5679274,5313,1753108162,546311600,ukd_base,-0.5929483771324158,-1.0621399879455566,0.0,0.0,0.0,0.9998956965786022,0.014442851643351106
1753093762.626544,5314,1753108162,570237966,ukd_base,-0.5173227787017822,-1.074064016342163,0.0,0.0,0.0,0.999989210041547,0.004645406385128317
1753093762.6279235,5315,1753108162,596291221,ukd_base,-0.45143619179725647,-1.1026785373687744,0.0,0.0,0.0,0.9999985125406119,0.0017247946439324147
1753093762.6566856,5316,1753108162,624290366,ukd_base,-0.49237436056137085,-1.0537842512130737,0.0,0.0,0.0,0.9999998317833632,0.0005800286590406075
1753093762.684528,5317,1753108162,660282349,ukd_base,-0.47508329153060913,-1.0567021369934082,0.0,0.0,0.0,0.9999718661249472,0.007501130487511967
1753093762.746504,5318,1753108162,694152498,ukd_base,-0.5323309898376465,-1.0220894813537598,0.0,0.0,0.0,0.9999327376504228,0.011598283275151463
1753093762.7479458,5319,1753108162,710292562,ukd_base,-0.5701730847358704,-1.000640630722046,0.0,0.0,0.0,0.999925336957002,0.012219677222659518
1753093762.7964158,5320,1753108162,746308600,ukd_base,-0.5074631571769714,-1.0164867639541626,0.0,0.0,0.0,0.9999282090803775,0.011982348906158603
1753093762.79776,5321,1753108162,780276619,ukd_base,-0.5418416857719421,-0.9868274331092834,0.0,0.0,0.0,0.9999110336923819,0.013338841787518605
1753093762.842941,5322,1753108162,798329554,ukd_base,-0.5729747414588928,-0.9775077700614929,0.0,0.0,0.0,0.999876655536181,0.015705849667599484
1753093762.8568945,5323,1753108162,826204404,ukd_base,-0.5872111320495605,-0.9612268209457397,0.0,0.0,0.0,0.999791182377094,0.020435059114483033
1753093762.896531,5324,1753108162,846269637,ukd_base,-0.6070500016212463,-0.9465429186820984,0.0,0.0,0.0,0.9997524229833413,0.022250679516325964
1753093762.897981,5325,1753108162,866232593,ukd_base,-0.6140889525413513,-0.9439679980278015,0.0,0.0,0.0,0.9997482410678493,0.022437791373962165
1753093762.9725347,5326,1753108162,900270278,ukd_base,-0.6559907793998718,-0.9557843208312988,0.0,0.0,0.0,0.9997629504219122,0.02177252772814993
1753093762.9805136,5327,1753108162,924255643,ukd_base,-0.6660727858543396,-0.963686466217041,0.0,0.0,0.0,0.9997546090915133,0.02215223691358256
1753093763.048654,5328,1753108162,966202038,ukd_base,-0.5655866265296936,-1.039123296737671,0.0,0.0,0.0,0.999692495303138,0.02479747637533857
1753093763.0544214,5330,1753108163,36177780,ukd_base,-0.5482645034790039,-1.0673907995224,0.0,0.0,0.0,0.9999994415173398,0.0010568656530201336
1753093763.0966368,5331,1753108163,64287684,ukd_base,-0.5096694231033325,-1.090012550354004,0.0,0.0,0.0,0.9999996987201712,0.0007762471042088114
1753093763.0979736,5332,1753108163,86205863,ukd_base,-0.5306909680366516,-1.0821787118911743,0.0,0.0,0.0,0.999993379502347,0.0036388118218779546
1753093763.1406693,5333,1753108163,114109158,ukd_base,-0.4729487895965576,-1.1079766750335693,0.0,0.0,0.0,0.9999224411712102,0.012454382449868453
1753093763.2161932,5334,1753108163,142095599,ukd_base,-0.4664735496044159,-1.1302213668823242,0.0,0.0,0.0,0.9997260003610956,0.02340778080055289
1753093763.2305782,5335,1753108163,174214857,ukd_base,-0.4583190083503723,-1.14435613155365,0.0,0.0,0.0,0.999487451664679,0.0320130280486848
1753093763.2766879,5336,1753108163,216082233,ukd_base,-0.5351981520652771,-1.1284832954406738,0.0,0.0,0.0,0.9992841223767767,0.03783176926440521
1753093763.2868283,5338,1753108163,264240684,ukd_base,-0.5135109424591064,-1.1176072359085083,0.0,0.0,0.0,-0.9999999999999971,7.549789954891874e-08
1753093763.3507252,5339,1753108163,300296000,ukd_base,-0.48587822914123535,-1.1269689798355103,0.0,0.0,0.0,-0.9999999999999971,7.549789954891874e-08
1753093763.3568256,5340,1753108163,326302236,ukd_base,-0.48632898926734924,-1.1472501754760742,0.0,0.0,0.0,-0.9999999999999971,7.549789954891874e-08
1753093763.400564,5341,1753108163,354267549,ukd_base,-0.582789421081543,-1.1313976049423218,0.0,0.0,0.0,-0.9999999999999971,7.549789954891874e-08
1753093763.4020102,5342,1753108163,386106734,ukd_base,-0.5712738037109375,-1.1232891082763672,0.0,0.0,0.0,-0.9999999999999971,7.549789954891874e-08
1753093763.454921,5343,1753108163,410305838,ukd_base,-0.5798966288566589,-1.091637134552002,0.0,0.0,0.0,-0.9999999999999971,7.549789954891874e-08
1753093763.4805613,5345,1753108163,456330975,ukd_base,-0.6643727421760559,-1.0258488655090332,0.0,0.0,0.0,-0.9999999999999971,7.549789954891874e-08
1753093763.5166836,5346,1753108163,496091277,ukd_base,-0.6966575384140015,-1.0108041763305664,0.0,0.0,0.0,-0.9999999999999971,7.549789954891874e-08
1753093763.5426774,5347,1753108163,526211811,ukd_base,-0.7145347595214844,-1.0155519247055054,0.0,0.0,0.0,-0.9999999999999971,7.549789954891874e-08
1753093763.6046844,5348,1753108163,546230322,ukd_base,-0.7392880916595459,-1.0267525911331177,0.0,0.0,0.0,-0.9999999999999971,7.549789954891874e-08
1753093763.6066597,5349,1753108163,580267285,ukd_base,-0.8111875057220459,-0.967089831829071,0.0,0.0,0.0,-0.9999999999999971,7.549789954891874e-08
1753093763.6547263,5350,1753108163,618160622,ukd_base,-0.8736542463302612,-0.9398341178894043,0.0,0.0,0.0,-0.9999999999999971,7.549789954891874e-08
1753093763.6664574,5351,1753108163,640247467,ukd_base,-0.9057525396347046,-0.9160484671592712,0.0,0.0,0.0,-0.9999999999999971,7.549789954891874e-08
1753093763.710584,5352,1753108163,666262073,ukd_base,-0.84730464220047,-0.9623895287513733,0.0,0.0,0.0,-0.9999999999999971,7.549789954891874e-08
1753093763.7120185,5353,1753108163,700307833,ukd_base,-0.8073742985725403,-0.9627684354782104,0.0,0.0,0.0,-0.9999999999999971,7.549789954891874e-08
1753093763.7806907,5354,1753108163,726114571,ukd_base,-0.8865349888801575,-0.8759419322013855,0.0,0.0,0.0,-0.9999999999999971,7.549789954891874e-08
1753093763.7821162,5355,1753108163,756313715,ukd_base,-0.8253152370452881,-0.9158838391304016,0.0,0.0,0.0,-0.9999999999999971,7.549789954891874e-08
1753093763.8306973,5356,1753108163,796127943,ukd_base,-0.8235369920730591,-0.9289794564247131,0.0,0.0,0.0,-0.9999999999999971,7.549789954891874e-08
1753093763.8506835,5357,1753108163,816213620,ukd_base,-0.8393827676773071,-0.9222231507301331,0.0,0.0,0.0,-0.9999999999999971,7.549789954891874e-08
1753093763.9007878,5358,1753108163,846072175,ukd_base,-0.8162509799003601,-0.9260540008544922,0.0,0.0,0.0,-0.9999999999999971,7.549789954891874e-08
1753093763.9165635,5360,1753108163,886206900,ukd_base,-0.9163485169410706,-0.8824130892753601,0.0,0.0,0.0,-0.9999999999999971,7.549789954891874e-08
1753093763.9467778,5361,1753108163,924314846,ukd_base,-0.942261278629303,-0.8770154714584351,0.0,0.0,0.0,-0.9999999999999971,7.549789954891874e-08
1753093763.964542,5362,1753108163,946282469,ukd_base,-1.0017122030258179,-0.8025457262992859,0.0,0.0,0.0,-0.9999999999999971,7.549789954891874e-08
1753093764.0265512,5363,1753108163,970274797,ukd_base,-1.0258196592330933,-0.7993496656417847,0.0,0.0,0.0,-0.9999999999999971,7.549789954891874e-08
1753093764.0279071,5364,1753108164,146056,ukd_base,-1.0310953855514526,-0.800469160079956,0.0,0.0,0.0,-0.9999999999999971,7.549789954891874e-08
1753093764.0996628,5365,1753108164,16302915,ukd_base,-1.0372183322906494,-0.7799354791641235,0.0,0.0,0.0,-0.9999999999999971,7.549789954891874e-08
1753093764.1010935,5367,1753108164,86166529,ukd_base,-1.090909481048584,-0.7658528089523315,0.0,0.0,0.0,-0.9999999999999971,7.549789954891874e-08
1753093764.13068,5368,1753108164,110253875,ukd_base,-1.1250911951065063,-0.718657910823822,0.0,0.0,0.0,-0.9999999999999971,7.549789954891874e-08
1753093764.1589246,5370,1753108164,140203892,ukd_base,-1.1244686841964722,-0.6708228588104248,0.0,0.0,0.0,-0.9999999999999971,7.549789954891874e-08
1753093764.2066634,5371,1753108164,174297077,ukd_base,-1.1220283508300781,-0.676927924156189,0.0,0.0,0.0,-0.9999999999999971,7.549789954891874e-08
1753093764.2506595,5372,1753108164,212168266,ukd_base,-1.128986120223999,-0.6648449897766113,0.0,0.0,0.0,-0.9999999999999971,7.549789954891874e-08
1753093764.2520301,5373,1753108164,236223908,ukd_base,-1.1377116441726685,-0.671698272228241,0.0,0.0,0.0,-0.9999999999999971,7.549789954891874e-08
1753093764.3065202,5374,1753108164,264276794,ukd_base,-1.1227327585220337,-0.6861250996589661,0.0,0.0,0.0,-0.9999999999999971,7.549789954891874e-08
1753093764.3078027,5375,1753108164,296127517,ukd_base,-1.1168121099472046,-0.7188014984130859,0.0,0.0,0.0,-0.9999999999999971,7.549789954891874e-08
1753093764.3646505,5376,1753108164,324266012,ukd_base,-1.1371625661849976,-0.6977930068969727,0.0,0.0,0.0,-0.9999999999999971,7.549789954891874e-08
1753093764.3745906,5377,1753108164,346111619,ukd_base,-1.1606389284133911,-0.6615346074104309,0.0,0.0,0.0,-0.9999999999999971,7.549789954891874e-08
1753093764.42697,5378,1753108164,376148172,ukd_base,-1.1580862998962402,-0.6937956809997559,0.0,0.0,0.0,-0.9999999999999971,7.549789954891874e-08
1753093764.4283094,5379,1753108164,410233431,ukd_base,-1.1421703100204468,-0.7501847743988037,0.0,0.0,0.0,-0.9999999999999971,7.549789954891874e-08
1753093764.460633,5380,1753108164,436222742,ukd_base,-1.1519747972488403,-0.7175716757774353,0.0,0.0,0.0,-0.9999999999999971,7.549789954891874e-08
1753093764.5066533,5381,1753108164,476214616,ukd_base,-1.1922894716262817,-0.690700888633728,0.0,0.0,0.0,-0.9999999999999971,7.549789954891874e-08
1753093764.5082633,5382,1753108164,494308440,ukd_base,-1.1874369382858276,-0.676318883895874,0.0,0.0,0.0,-0.9999999999999971,7.549789954891874e-08
1753093764.576627,5383,1753108164,520237029,ukd_base,-1.1974960565567017,-0.6488844156265259,0.0,0.0,0.0,-0.9999999999999971,7.549789954891874e-08
1753093764.594514,5384,1753108164,546183988,ukd_base,-1.1792343854904175,-0.6338297128677368,0.0,0.0,0.0,-0.9999999999999971,7.549789954891874e-08
1753093764.6545026,5385,1753108164,586193362,ukd_base,-1.1700232028961182,-0.5958367586135864,0.0,0.0,0.0,-0.9999999999999971,7.549789954891874e-08
1753093764.6559086,5387,1753108164,630302441,ukd_base,-1.1695135831832886,-0.5868197083473206,0.0,0.0,0.0,-0.9999999999999971,7.549789954891874e-08
1753093764.710515,5388,1753108164,670256001,ukd_base,-1.2344799041748047,-0.5165347456932068,0.0,0.0,0.0,-0.9999999999999971,7.549789954891874e-08
1753093764.7726414,5389,1753108164,712096174,ukd_base,-1.2471195459365845,-0.5364897847175598,0.0,0.0,0.0,-0.9999999999999971,7.549789954891874e-08
1753093764.7903452,5391,1753108164,776190301,ukd_base,-1.2481472492218018,-0.554451048374176,0.0,0.0,0.0,-0.9999999999999971,7.549789954891874e-08
1753093764.8266702,5392,1753108164,800324257,ukd_base,-1.2270437479019165,-0.5818980932235718,0.0,0.0,0.0,-0.9999999999999971,7.549789954891874e-08
1753093764.876729,5393,1753108164,824274993,ukd_base,-1.2159626483917236,-0.6314287781715393,0.0,0.0,0.0,-0.9999999999999971,7.549789954891874e-08
1753093764.8864844,5394,1753108164,864223312,ukd_base,-1.2557979822158813,-0.5761462450027466,0.0,0.0,0.0,-0.9999999999999971,7.549789954891874e-08
1753093764.920511,5395,1753108164,894311902,ukd_base,-1.2566310167312622,-0.5693910717964172,0.0,0.0,0.0,-0.9999999999999971,7.549789954891874e-08
1753093764.9218206,5396,1753108164,916241859,ukd_base,-1.248911738395691,-0.5721434354782104,0.0,0.0,0.0,-0.9999999999999971,7.549789954891874e-08
1753093764.9666498,5397,1753108164,946236672,ukd_base,-1.2590314149856567,-0.5500131249427795,0.0,0.0,0.0,-0.9999999999999971,7.549789954891874e-08
1753093765.004734,5398,1753108164,984283378,ukd_base,-1.289442539215088,-0.5083115696907043,0.0,0.0,0.0,-0.9999999999999971,7.549789954891874e-08
1753093765.0466516,5399,1753108165,18313582,ukd_base,-1.2933520078659058,-0.47768959403038025,0.0,0.0,0.0,-0.9999999999999971,7.549789954891874e-08
1753093765.0644834,5400,1753108165,56317696,ukd_base,-1.288187026977539,-0.4907134175300598,0.0,0.0,0.0,-0.9999999999999971,7.549789954891874e-08
1753093765.1004791,5401,1753108165,80219895,ukd_base,-1.2812961339950562,-0.48228758573532104,0.0,0.0,0.0,-0.9999999999999971,7.549789954891874e-08
1753093765.1366122,5402,1753108165,114206507,ukd_base,-1.2896933555603027,-0.47832784056663513,0.0,0.0,0.0,-0.9999999999999971,7.549789954891874e-08
1753093765.1446142,5403,1753108165,136268740,ukd_base,-1.2657591104507446,-0.4648377001285553,0.0,0.0,0.0,-0.9999999999999971,7.549789954891874e-08
1753093765.1696336,5404,1753108165,160060682,ukd_base,-1.2625869512557983,-0.4485296607017517,0.0,0.0,0.0,-0.9999999999999971,7.549789954891874e-08
1753093765.171067,5405,1753108165,170328481,ukd_base,-1.2528314590454102,-0.44918686151504517,0.0,0.0,0.0,-0.9999999999999971,7.549789954891874e-08
1753093765.1733725,5406,1753108165,189579906,ukd_base,-1.2489840984344482,-0.44696691632270813,0.0,0.0,0.0,-0.9999999999999971,7.549789954891874e-08
1753093765.1917367,5407,1753108165,210204727,ukd_base,-1.2506773471832275,-0.4541659653186798,0.0,0.0,0.0,-0.9999999999999971,7.549789954891874e-08
1753093765.2117386,5408,1753108165,230172886,ukd_base,-1.2554086446762085,-0.4493694305419922,0.0,0.0,0.0,-0.9999999999999971,7.549789954891874e-08
1753093765.2216303,5409,1753108165,240180484,ukd_base,-1.2582478523254395,-0.41008099913597107,0.0,0.0,0.0,-0.9999999999999971,7.549789954891874e-08
1753093765.241727,5410,1753108165,260175347,ukd_base,-1.251617431640625,-0.42675453424453735,0.0,0.0,0.0,-0.9999999999999971,7.549789954891874e-08
1753093765.2520134,5411,1753108165,270176297,ukd_base,-1.2477928400039673,-0.4356580078601837,0.0,0.0,0.0,-0.9999999999999971,7.549789954891874e-08
1753093765.261633,5412,1753108165,280196099,ukd_base,-1.2425938844680786,-0.43989887833595276,0.0,0.0,0.0,-0.9999999999999971,7.549789954891874e-08
1753093765.281758,5413,1753108165,300200110,ukd_base,-1.2360292673110962,-0.4420947730541229,0.0,0.0,0.0,-0.9999999999999971,7.549789954891874e-08
1753093765.29173,5414,1753108165,310202615,ukd_base,-1.2317532300949097,-0.43377044796943665,0.0,0.0,0.0,-0.9999999999999971,7.549789954891874e-08
1753093765.3115594,5415,1753108165,330189719,ukd_base,-1.2392185926437378,-0.4251782298088074,0.0,0.0,0.0,-0.9999999999999971,7.549789954891874e-08
1753093765.3606071,5416,1753108165,364194016,ukd_base,-1.2457658052444458,-0.3604474663734436,0.0,0.0,0.0,-0.9999999820224562,0.00018961826714900088
1753093765.4666781,5417,1753108165,382056860,ukd_base,-1.2606953382492065,-0.3552953898906708,0.0,0.0,0.0,0.9999997832096882,0.0006584683565053228
1753093765.4765115,5420,1753108165,432090610,ukd_base,-1.2258278131484985,-0.36646655201911926,0.0,0.0,0.0,0.9999606314762465,0.008873302520837891
1753093765.5207329,5421,1753108165,452146472,ukd_base,-1.232450246810913,-0.3211434483528137,0.0,0.0,0.0,0.9999450177933528,0.010486247672617926
1753093765.5424495,5424,1753108165,500301887,ukd_base,-1.2012828588485718,-0.3399812877178192,0.0,0.0,0.0,0.9998656276573454,0.01639288349811317
1753093765.6268322,5425,1753108165,520244509,ukd_base,-1.2019190788269043,-0.3282115161418915,0.0,0.0,0.0,0.9998366116782361,0.01807622603820144
1753093765.640476,5427,1753108165,584265804,ukd_base,-1.1973137855529785,-0.3082532286643982,0.0,0.0,0.0,0.9995278937458448,0.030724414135912467
1753093765.7066681,5428,1753108165,620126732,ukd_base,-1.1989984512329102,-0.2969168424606323,0.0,0.0,0.0,0.999239708301676,0.038987246032280744
1753093765.724296,5430,1753108165,676204855,ukd_base,-1.222312331199646,-0.2977336347103119,0.0,0.0,0.0,0.9991132422239337,0.0421037909549613
1753093765.7766485,5431,1753108165,710266781,ukd_base,-1.23457932472229,-0.246998593211174,0.0,0.0,0.0,0.999041144189639,0.04378118564243086
1753093765.7780175,5432,1753108165,740260076,ukd_base,-1.2341480255126953,-0.25159457325935364,0.0,0.0,0.0,0.9990745788732243,0.043011461836231356
1753093765.8404555,5433,1753108165,770225574,ukd_base,-1.2444530725479126,-0.2679384648799896,0.0,0.0,0.0,0.999251905540812,0.038673366456207184
1753093765.8417017,5434,1753108165,812082561,ukd_base,-1.2264604568481445,-0.26010799407958984,0.0,0.0,0.0,0.9994578731382825,0.032923545099226646
1753093765.8804862,5435,1753108165,844293114,ukd_base,-1.2363314628601074,-0.22663387656211853,0.0,0.0,0.0,-0.9999999999999971,7.549789954891874e-08
1753093765.8819005,5436,1753108165,876314373,ukd_base,-1.2299038171768188,-0.2204059362411499,0.0,0.0,0.0,-0.9999999999999971,7.549789954891874e-08
1753093765.9507294,5437,1753108165,916184878,ukd_base,-1.2227272987365723,-0.22682079672813416,0.0,0.0,0.0,-0.9999999999999971,7.549789954891874e-08
1753093765.9906425,5438,1753108165,944236152,ukd_base,-1.231818675994873,-0.22365383803844452,0.0,0.0,0.0,-0.9999999999999971,7.549789954891874e-08
1753093766.0224786,5439,1753108165,966237108,ukd_base,-1.2256951332092285,-0.2204975038766861,0.0,0.0,0.0,-0.9999999999999971,7.549789954891874e-08
1753093766.0924299,5440,1753108166,2055926,ukd_base,-1.2355128526687622,-0.20759320259094238,0.0,0.0,0.0,-0.9999999999999971,7.549789954891874e-08
1753093766.1105812,5441,1753108166,36235110,ukd_base,-1.2504603862762451,-0.13326148688793182,0.0,0.0,0.0,-0.9999999999999971,7.549789954891874e-08
1753093766.1806254,5442,1753108166,86294360,ukd_base,-1.270249843597412,-0.15578174591064453,0.0,0.0,0.0,-0.9999999999999971,7.549789954891874e-08
1753093766.1820009,5443,1753108166,120256157,ukd_base,-1.2628118991851807,-0.16760286688804626,0.0,0.0,0.0,-0.9999999999999971,7.549789954891874e-08
1753093766.270598,5444,1753108166,176201855,ukd_base,-1.2568466663360596,-0.11474736034870148,0.0,0.0,0.0,-0.9999999999999971,7.549789954891874e-08
1753093766.2807374,5445,1753108166,226265715,ukd_base,-1.2426507472991943,-0.11001745611429214,0.0,0.0,0.0,-0.9999999999999971,7.549789954891874e-08
1753093766.3166916,5446,1753108166,280148469,ukd_base,-1.2584319114685059,-0.11033345013856888,0.0,0.0,0.0,-0.9999999999999971,7.549789954891874e-08
1753093766.3386858,5447,1753108166,296249977,ukd_base,-1.2604962587356567,-0.06711184233427048,0.0,0.0,0.0,-0.9999999999999971,7.549789954891874e-08
1753093766.3755467,5448,1753108166,342117225,ukd_base,-1.2523740530014038,0.004624481778591871,0.0,0.0,0.0,-0.9999999999999971,7.549789954891874e-08
1753093766.3768368,5449,1753108166,376063911,ukd_base,-1.2547696828842163,-0.061327043920755386,0.0,0.0,0.0,-0.9999999999999971,7.549789954891874e-08
1753093766.3793805,5450,1753108166,395901165,ukd_base,-1.2518768310546875,-0.08217623829841614,0.0,0.0,0.0,-0.9999999999999971,7.549789954891874e-08
1753093766.388468,5451,1753108166,406150298,ukd_base,-1.2648082971572876,-0.0926857441663742,0.0,0.0,0.0,-0.9999999999999971,7.549789954891874e-08
1753093766.4081092,5452,1753108166,426139494,ukd_base,-1.2505697011947632,-0.089101143181324,0.0,0.0,0.0,-0.9999999999999971,7.549789954891874e-08
1753093766.4183,5453,1753108166,436177870,ukd_base,-1.2464780807495117,-0.08852839469909668,0.0,0.0,0.0,-0.9999999999999971,7.549789954891874e-08
1753093766.4378781,5454,1753108166,456144825,ukd_base,-1.2525811195373535,-0.019471924751996994,0.0,0.0,0.0,-0.9999999999999971,7.549789954891874e-08
1753093766.448374,5455,1753108166,466172349,ukd_base,-1.2427589893341064,-0.019553570076823235,0.0,0.0,0.0,-0.9999999999999971,7.549789954891874e-08
1753093766.468598,5456,1753108166,486147250,ukd_base,-1.2297850847244263,0.024988988414406776,0.0,0.0,0.0,-0.9999999999999971,7.549789954891874e-08
1753093766.487496,5457,1753108166,506148409,ukd_base,-1.2260162830352783,0.04980085417628288,0.0,0.0,0.0,-0.9999999999999971,7.549789954891874e-08
1753093766.508764,5458,1753108166,526156531,ukd_base,-1.2272619009017944,0.040168486535549164,0.0,0.0,0.0,-0.9999999999999971,7.549789954891874e-08
1753093766.5187821,5459,1753108166,536142685,ukd_base,-1.2358827590942383,0.06408878415822983,0.0,0.0,0.0,-0.9999999999999971,7.549789954891874e-08
1753093766.528364,5460,1753108166,546147838,ukd_base,-1.2280243635177612,0.055555641651153564,0.0,0.0,0.0,-0.9999999999999971,7.549789954891874e-08
1753093766.5383377,5461,1753108166,556152603,ukd_base,-1.2196193933486938,0.0462566539645195,0.0,0.0,0.0,-0.9999934547649745,0.0036180695420399297
1753093766.5580888,5462,1753108166,576147281,ukd_base,-1.219064712524414,0.0559370182454586,0.0,0.0,0.0,-0.9999712710477877,0.007580044793526474
1753093766.5687606,5463,1753108166,586145138,ukd_base,-1.2180218696594238,0.07359421998262405,0.0,0.0,0.0,-0.9999177765061947,0.012823424928919216
1753093766.5881376,5464,1753108166,606145705,ukd_base,-1.2162706851959229,0.09747256338596344,0.0,0.0,0.0,-0.9998705914795474,0.01608727118998143
1753093766.5987484,5465,1753108166,616309672,ukd_base,-1.2159669399261475,0.10057426244020462,0.0,0.0,0.0,-0.9998191993627346,0.019014956893469683
1753093766.6181288,5466,1753108166,636143388,ukd_base,-1.2186462879180908,0.10408863425254822,0.0,0.0,0.0,-0.9997673499348609,0.02156956198501335
1753093766.6381314,5467,1753108166,656147140,ukd_base,-1.2195771932601929,0.11681009083986282,0.0,0.0,0.0,-0.9997703843862998,0.02142845080891795
1753093766.6481316,5468,1753108166,666143886,ukd_base,-1.2293606996536255,0.12412349134683609,0.0,0.0,0.0,-0.9997979308446963,0.020102175968386465
1753093766.6583638,5469,1753108166,676147225,ukd_base,-1.236079454421997,0.130294531583786,0.0,0.0,0.0,-0.9997528365985472,0.0222320874674125
1753093766.6778173,5470,1753108166,696148514,ukd_base,-1.2325571775436401,0.12667249143123627,0.0,0.0,0.0,-0.9996681371455545,0.025760737100030892
1753093766.6887045,5471,1753108166,706146372,ukd_base,-1.2322397232055664,0.1324213445186615,0.0,0.0,0.0,-0.999539252034177,0.030352654627854997
