Time,header.seq,header.stamp.secs,header.stamp.nsecs,header.frame_id,pose.position.x,pose.position.y,pose.position.z,pose.orientation.x,pose.orientation.y,pose.orientation.z,pose.orientation.w
1753093699.7714078,2737,1753108099,676296400,ukd_base,-1.5612014532089233,0.5454036593437195,0.0,0.0,0.0,-0.9999999999999971,7.549789954891874e-08
1753093699.7812164,2738,1753108099,696182615,ukd_base,-1.5702747106552124,0.5054191946983337,0.0,0.0,0.0,-0.9999999999999971,7.549789954891874e-08
1753093699.8510792,2739,1753108099,740302565,ukd_base,-1.5676817893981934,0.5094932317733765,0.0,0.0,0.0,-0.9999999999999971,7.549789954891874e-08
1753093699.8523085,2740,1753108099,782318254,ukd_base,-1.5640283823013306,0.532459557056427,0.0,0.0,0.0,-0.9999999999999971,7.549789954891874e-08
1753093699.9255126,2741,1753108099,816026035,ukd_base,-1.5852175951004028,0.5430918335914612,0.0,0.0,0.0,-0.9999999999999971,7.549789954891874e-08
1753093699.939514,2742,1753108099,830290244,ukd_base,-1.5727483034133911,0.5905541777610779,0.0,0.0,0.0,-0.9999999999999971,7.549789954891874e-08
1753093700.01728,2743,1753108099,876055476,ukd_base,-1.5586352348327637,0.6259469985961914,0.0,0.0,0.0,-0.9999999999999971,7.549789954891874e-08
1753093700.0272565,2747,1753108099,966178598,ukd_base,-1.5786553621292114,0.5217296481132507,0.0,0.0,0.0,-0.9999999999999971,7.549789954891874e-08
1753093700.0813046,2748,1753108099,998250412,ukd_base,-1.5490574836730957,0.5600530505180359,0.0,0.0,0.0,-0.9999999999999971,7.549789954891874e-08
1753093700.0873134,2749,1753108100,26254409,ukd_base,-1.5351418256759644,0.5784957408905029,0.0,0.0,0.0,-0.9999999999999971,7.549789954891874e-08
1753093700.1411695,2750,1753108100,66304264,ukd_base,-1.535801887512207,0.5418039560317993,0.0,0.0,0.0,-0.9999999999999971,7.549789954891874e-08
1753093700.155142,2751,1753108100,84324292,ukd_base,-1.5330315828323364,0.5596729516983032,0.0,0.0,0.0,-0.9999999999999971,7.549789954891874e-08
1753093700.1952746,2752,1753108100,126146002,ukd_base,-1.5122590065002441,0.5528194308280945,0.0,0.0,0.0,-0.9999999999999971,7.549789954891874e-08
1753093700.211029,2753,1753108100,144138068,ukd_base,-1.4991958141326904,0.5620647668838501,0.0,0.0,0.0,-0.9999999999999971,7.549789954891874e-08
1753093700.277058,2754,1753108100,176100382,ukd_base,-1.5073347091674805,0.5246663093566895,0.0,0.0,0.0,-0.9999999999999971,7.549789954891874e-08
1753093700.2783,2756,1753108100,226308834,ukd_base,-1.4384543895721436,0.5704131722450256,0.0,0.0,0.0,-0.9999999999999971,7.549789954891874e-08
1753093700.3211522,2757,1753108100,250302440,ukd_base,-1.4607402086257935,0.5038570761680603,0.0,0.0,0.0,-0.9999999999999971,7.549789954891874e-08
1753093700.3672068,2758,1753108100,294182503,ukd_base,-1.4397680759429932,0.5075265169143677,0.0,0.0,0.0,-0.9999999999999971,7.549789954891874e-08
1753093700.3858626,2759,1753108100,320274646,ukd_base,-1.3933744430541992,0.5541782975196838,0.0,0.0,0.0,-0.9999999999999971,7.549789954891874e-08
1753093700.3897336,2760,1753108100,356211907,ukd_base,-1.3598212003707886,0.5886726379394531,0.0,0.0,0.0,-0.9999999999999971,7.549789954891874e-08
1753093700.3910637,2761,1753108100,382065682,ukd_base,-1.3227897882461548,0.5805214047431946,0.0,0.0,0.0,-0.9999999999999971,7.549789954891874e-08
1753093700.391104,2762,1753108100,405896197,ukd_base,-1.291439414024353,0.5557402968406677,0.0,0.0,0.0,-0.9999999999999971,7.549789954891874e-08
1753093700.4085653,2763,1753108100,425985429,ukd_base,-1.2569836378097534,0.5984089374542236,0.0,0.0,0.0,-0.9999999999999971,7.549789954891874e-08
1753093700.446291,2764,1753108100,436253210,ukd_base,-1.245016098022461,0.6079246997833252,0.0,0.0,0.0,-0.9999999999999971,7.549789954891874e-08
1753093700.4476404,2765,1753108100,464518353,ukd_base,-1.2114627361297607,0.6230722069740295,0.0,0.0,0.0,-0.9999999999999971,7.549789954891874e-08
1753093700.4685557,2766,1753108100,485978833,ukd_base,-1.1862889528274536,0.6244624257087708,0.0,0.0,0.0,-0.9999999999999971,7.549789954891874e-08
1753093700.4886806,2767,1753108100,505978048,ukd_base,-1.1701362133026123,0.6225252151489258,0.0,0.0,0.0,-0.9999999999999971,7.549789954891874e-08
1753093700.5130463,2768,1753108100,518308200,ukd_base,-1.1599785089492798,0.6125895977020264,0.0,0.0,0.0,-0.9999999999999971,7.549789954891874e-08
1753093700.5143847,2769,1753108100,531025756,ukd_base,-1.1508421897888184,0.5965316295623779,0.0,0.0,0.0,-0.9999999999999971,7.549789954891874e-08
1753093700.528565,2770,1753108100,545970700,ukd_base,-1.1370081901550293,0.5995146632194519,0.0,0.0,0.0,-0.9999999999999971,7.549789954891874e-08
1753093700.5385752,2771,1753108100,556124852,ukd_base,-1.1080262660980225,0.6119182109832764,0.0,0.0,0.0,-0.9999999999999971,7.549789954891874e-08
1753093700.6252537,2772,1753108100,576221418,ukd_base,-1.0991634130477905,0.5932393074035645,0.0,0.0,0.0,-0.9999964932294784,0.002648306769597775
1753093700.631086,2774,1753108100,620197831,ukd_base,-1.0282468795776367,0.6506757140159607,0.0,0.0,0.0,-0.9999459624943994,0.010395772753830806
1753093700.6615489,2775,1753108100,640216305,ukd_base,-0.999557614326477,0.6581535935401917,0.0,0.0,0.0,-0.9999176128570142,0.012836179273064558
1753093700.6750727,2776,1753108100,656312906,ukd_base,-0.9763036370277405,0.656933605670929,0.0,0.0,0.0,-0.9998786061711801,0.015581172009133613
1753093700.711287,2777,1753108100,684237163,ukd_base,-0.9671711325645447,0.6241984367370605,0.0,0.0,0.0,-0.9997565014896322,0.0220666655662104
1753093700.725297,2778,1753108100,702160951,ukd_base,-0.9462607502937317,0.6335585117340088,0.0,0.0,0.0,-0.9996650251860868,0.025881217508077377
1753093700.7652967,2779,1753108100,720252368,ukd_base,-0.9411600232124329,0.6310529708862305,0.0,0.0,0.0,-0.9995217352190998,0.030924113966283032
1753093700.7770762,2780,1753108100,750195866,ukd_base,-0.8910362720489502,0.6379014849662781,0.0,0.0,0.0,-0.9990781287285087,0.042928926102820314
1753093700.8272502,2781,1753108100,780255031,ukd_base,-0.8728907108306885,0.6445306539535522,0.0,0.0,0.0,-0.9984868312757186,0.05499134267295872
1753093700.8371904,2782,1753108100,816083978,ukd_base,-0.8420631289482117,0.6364304423332214,0.0,0.0,0.0,-0.9981488196323546,0.06081886110851886
1753093700.9012938,2783,1753108100,844191363,ukd_base,-0.7799729108810425,0.6605576872825623,0.0,0.0,0.0,-0.9977850198610934,0.06652108042415945
1753093700.9152904,2785,1753108100,894221576,ukd_base,-0.7094107270240784,0.6463903784751892,0.0,0.0,0.0,-0.9964706268991849,0.08394218085769291
1753093700.9512322,2786,1753108100,916242069,ukd_base,-0.6912733316421509,0.6115649342536926,0.0,0.0,0.0,-0.9965234237270316,0.08331305998074301
1753093700.9669292,2787,1753108100,944190937,ukd_base,-0.6701846122741699,0.6068024635314941,0.0,0.0,0.0,-0.9964120270825378,0.08463493537108528
1753093701.0011287,2788,1753108100,976289176,ukd_base,-0.6194769740104675,0.6051462888717651,0.0,0.0,0.0,-0.996575567081273,0.08268699472492098
1753093701.0024176,2789,1753108101,54469,ukd_base,-0.6199079751968384,0.5847712159156799,0.0,0.0,0.0,-0.9971689441858987,0.07519372813725865
1753093701.0572329,2790,1753108101,26199927,ukd_base,-0.5983688235282898,0.5929204821586609,0.0,0.0,0.0,-0.9986165512383731,0.05258311128849006
1753093701.067262,2791,1753108101,44161808,ukd_base,-0.6004447937011719,0.5898006558418274,0.0,0.0,0.0,-0.9991345198185302,0.04159580876717165
1753093701.1271915,2792,1753108101,74173546,ukd_base,-0.5318225622177124,0.5855512619018555,0.0,0.0,0.0,-0.9995381550316622,0.030388758380373103
1753093701.1285627,2793,1753108101,100166172,ukd_base,-0.5613248348236084,0.583544909954071,0.0,0.0,0.0,-0.9996301725218195,0.02719408362121034
1753093701.1770139,2794,1753108101,124195315,ukd_base,-0.5145332217216492,0.6136102080345154,0.0,0.0,0.0,-0.999613660118634,0.027794432971876695
1753093701.1783097,2795,1753108101,160212946,ukd_base,-0.46441492438316345,0.6112833619117737,0.0,0.0,0.0,-0.9998725287754159,0.01596640849581289
1753093701.2231233,2796,1753108101,192091298,ukd_base,-0.4621545970439911,0.6043025255203247,0.0,0.0,0.0,-0.9999858334572105,0.0053228643499605224
1753093701.2311606,2797,1753108101,210315676,ukd_base,-0.4487576484680176,0.614031195640564,0.0,0.0,0.0,-0.999998974663138,0.001432016994550062
1753093701.2652743,2798,1753108101,240195360,ukd_base,-0.3960284888744354,0.6274323463439941,0.0,0.0,0.0,0.9999896007277551,0.004560530270156523
1753093701.2910187,2799,1753108101,274245027,ukd_base,-0.3780191242694855,0.6292445659637451,0.0,0.0,0.0,0.999921592596329,0.012522326446040767
1753093701.3390884,2800,1753108101,300213653,ukd_base,-0.33718380331993103,0.6371735334396362,0.0,0.0,0.0,0.9998065079063254,0.019670962054734255
1753093701.3510509,2801,1753108101,324298943,ukd_base,-0.29626888036727905,0.6282868385314941,0.0,0.0,0.0,0.9997446791083261,0.022595941993862806
1753093701.397124,2802,1753108101,356262795,ukd_base,-0.2564948797225952,0.6562253832817078,0.0,0.0,0.0,0.9998316551184007,0.018348335706532288
1753093701.4130397,2803,1753108101,386061757,ukd_base,-0.23039713501930237,0.6493793725967407,0.0,0.0,0.0,0.9997629659945819,0.021771812641958124
1753093701.4712572,2804,1753108101,404214340,ukd_base,-0.201455220580101,0.6560961008071899,0.0,0.0,0.0,0.9995174160634621,0.03106340267613997
1753093701.4770205,2805,1753108101,430324483,ukd_base,-0.15640027821063995,0.6597151160240173,0.0,0.0,0.0,0.998713850702409,0.050701522809145506
1753093701.5192266,2806,1753108101,460041243,ukd_base,-0.11121218651533127,0.6604220271110535,0.0,0.0,0.0,0.9981275084470377,0.06116761300973577
1753093701.531262,2808,1753108101,510218769,ukd_base,-0.0724208652973175,0.6903558969497681,0.0,0.0,0.0,0.9979514734026046,0.0639754385180021
1753093701.593112,2809,1753108101,539923733,ukd_base,-0.05815792828798294,0.6965067386627197,0.0,0.0,0.0,0.9989871169578215,0.04499711271070463
1753093701.6012788,2810,1753108101,570162673,ukd_base,0.0006492439424619079,0.6862757205963135,0.0,0.0,0.0,0.9998258311537976,0.018662994336863473
1753093701.6549883,2811,1753108101,600158560,ukd_base,0.08188480883836746,0.6793581247329712,0.0,0.0,0.0,0.9999965660900795,0.0026206503103978866
1753093701.656201,2813,1753108101,646231937,ukd_base,0.151870459318161,0.6726345419883728,0.0,0.0,0.0,0.9999895708050949,0.004567086712800803
1753093701.6950488,2814,1753108101,670229617,ukd_base,0.2179279625415802,0.6916677951812744,0.0,0.0,0.0,0.9999797835416154,0.00635865615235588
1753093701.7411516,2815,1753108101,700305115,ukd_base,0.2472919076681137,0.6894329786300659,0.0,0.0,0.0,0.9999999697116185,0.00024612346904746753
1753093701.74254,2816,1753108101,732168226,ukd_base,0.3086949586868286,0.6796796917915344,0.0,0.0,0.0,-0.9999067586025853,0.01365555201635218
1753093701.7872574,2817,1753108101,764255299,ukd_base,0.3741965591907501,0.6642327904701233,0.0,0.0,0.0,-0.9999999999999971,7.549789954891874e-08
1753093701.841084,2818,1753108101,794276204,ukd_base,0.4308830499649048,0.6249189972877502,0.0,0.0,0.0,-0.9999999999999971,7.549789954891874e-08
1753093701.8423972,2819,1753108101,832177856,ukd_base,0.4445699453353882,0.6343454122543335,0.0,0.0,0.0,-0.9999999999999971,7.549789954891874e-08
1753093701.8792608,2820,1753108101,850245161,ukd_base,0.4629150927066803,0.6453816890716553,0.0,0.0,0.0,-0.9999999999999971,7.549789954891874e-08
1753093701.8970006,2821,1753108101,882168069,ukd_base,0.46769383549690247,0.6392533779144287,0.0,0.0,0.0,-0.9999999999999971,7.549789954891874e-08
1753093701.93703,2822,1753108101,912165604,ukd_base,0.5042107701301575,0.6422389149665833,0.0,0.0,0.0,-0.9999999999999971,7.549789954891874e-08
1753093701.9382825,2823,1753108101,930314798,ukd_base,0.49397772550582886,0.6701827049255371,0.0,0.0,0.0,-0.9999999999999971,7.549789954891874e-08
1753093701.9612365,2824,1753108101,960285796,ukd_base,0.5487076044082642,0.639126181602478,0.0,0.0,0.0,-0.9999999999999971,7.549789954891874e-08
1753093702.0111494,2825,1753108101,996017541,ukd_base,0.579239547252655,0.6416383385658264,0.0,0.0,0.0,-0.9999999999999971,7.549789954891874e-08
1753093702.0411637,2826,1753108102,14283104,ukd_base,0.55013507604599,0.6650413870811462,0.0,0.0,0.0,-0.9999999999999971,7.549789954891874e-08
1753093702.0510962,2827,1753108102,46129382,ukd_base,0.5772055387496948,0.6452106237411499,0.0,0.0,0.0,-0.9999999999999971,7.549789954891874e-08
1753093702.1071255,2828,1753108102,66294373,ukd_base,0.5892775654792786,0.6359577178955078,0.0,0.0,0.0,-0.9999999999999971,7.549789954891874e-08
1753093702.1510997,2829,1753108102,100050172,ukd_base,0.6067127585411072,0.6468135118484497,0.0,0.0,0.0,-0.9999999999999971,7.549789954891874e-08
1753093702.1524696,2830,1753108102,120290607,ukd_base,0.6151801943778992,0.6636883020401001,0.0,0.0,0.0,-0.9999999999999971,7.549789954891874e-08
1753093702.1952608,2831,1753108102,150277124,ukd_base,0.6374844908714294,0.6812834739685059,0.0,0.0,0.0,-0.9999999999999971,7.549789954891874e-08
1753093702.2169979,2832,1753108102,176087658,ukd_base,0.6502336859703064,0.7405203580856323,0.0,0.0,0.0,-0.9999999999999971,7.549789954891874e-08
1753093702.267215,2833,1753108102,198275150,ukd_base,0.6846890449523926,0.7354581952095032,0.0,0.0,0.0,-0.9999999999999971,7.549789954891874e-08
1753093702.2850835,2834,1753108102,240309081,ukd_base,0.723673939704895,0.7455022931098938,0.0,0.0,0.0,-0.9999999999999971,7.549789954891874e-08
1753093702.3430393,2835,1753108102,260265814,ukd_base,0.7403644323348999,0.7378902435302734,0.0,0.0,0.0,-0.9999999999999971,7.549789954891874e-08
1753093702.3475857,2836,1753108102,296250427,ukd_base,0.715447723865509,0.7704157829284668,0.0,0.0,0.0,-0.9999999999999971,7.549789954891874e-08
1753093702.391112,2837,1753108102,332117393,ukd_base,0.7111293077468872,0.7856282591819763,0.0,0.0,0.0,-0.9999999999999971,7.549789954891874e-08
1753093702.3924956,2839,1753108102,378323787,ukd_base,0.7017615437507629,0.772621214389801,0.0,0.0,0.0,0.9999975228366581,0.0022258303051852853
