Time,header.seq,header.stamp.secs,header.stamp.nsecs,header.frame_id,pose.position.x,pose.position.y,pose.position.z,pose.orientation.x,pose.orientation.y,pose.orientation.z,pose.orientation.w
1753093778.1244466,5926,1753108178,62012337,ukd_base,-0.4330291152000427,0.5389581918716431,0.0,0.0,0.0,-0.9999999999999971,7.549789954891874e-08
1753093778.1565423,5927,1753108178,84274662,ukd_base,-0.4243510067462921,0.5414906740188599,0.0,0.0,0.0,-0.9999999999999971,7.549789954891874e-08
1753093778.1577978,5928,1753108178,114220901,ukd_base,-0.45164600014686584,0.5310022234916687,0.0,0.0,0.0,-0.9999999999999971,7.549789954891874e-08
1753093778.2222543,5929,1753108178,146244456,ukd_base,-0.41990625858306885,0.5567905902862549,0.0,0.0,0.0,-0.9999999999999971,7.549789954891874e-08
1753093778.2265334,5930,1753108178,174299323,ukd_base,-0.41022175550460815,0.554459810256958,0.0,0.0,0.0,-0.9999999999999971,7.549789954891874e-08
1753093778.266538,5931,1753108178,202159932,ukd_base,-0.3975365161895752,0.5564441084861755,0.0,0.0,0.0,-0.9999999999999971,7.549789954891874e-08
1753093778.2765124,5932,1753108178,234284134,ukd_base,-0.40102624893188477,0.5515018105506897,0.0,0.0,0.0,-0.9999999999999971,7.549789954891874e-08
1753093778.3244824,5933,1753108178,262140317,ukd_base,-0.39080309867858887,0.5649261474609375,0.0,0.0,0.0,-0.9999997667380801,0.000683025464628026
1753093778.3284595,5934,1753108178,292155408,ukd_base,-0.3822561800479889,0.5417024493217468,0.0,0.0,0.0,-0.9999935540178566,0.0035905323750237794
1753093778.3609147,5935,1753108178,310301435,ukd_base,-0.3711160123348236,0.5519288778305054,0.0,0.0,0.0,-0.9999843591170768,0.0055929885758112825
1753093778.376816,5936,1753108178,334285560,ukd_base,-0.33553391695022583,0.5593821406364441,0.0,0.0,0.0,-0.999945947622104,0.010397203187993507
1753093778.430431,5937,1753108178,360289908,ukd_base,-0.32272690534591675,0.5591573119163513,0.0,0.0,0.0,-0.9999169689231594,0.012886243033614768
1753093778.4316585,5938,1753108178,394188538,ukd_base,-0.2684125006198883,0.5791803598403931,0.0,0.0,0.0,-0.9998279294591118,0.01855024187188093
1753093778.4848194,5939,1753108178,410278491,ukd_base,-0.2547832727432251,0.5825697183609009,0.0,0.0,0.0,-0.9998171649223881,0.01912162980915086
1753093778.4864936,5940,1753108178,444262528,ukd_base,-0.25611814856529236,0.5842971205711365,0.0,0.0,0.0,-0.9999055386201794,0.013744592998301306
1753093778.5290082,5941,1753108178,486296496,ukd_base,-0.23964157700538635,0.5865675806999207,0.0,0.0,0.0,0.9999992389028853,0.001233772122453688
1753093778.572394,5942,1753108178,510279435,ukd_base,-0.25603920221328735,0.5685500502586365,0.0,0.0,0.0,-0.9999999999999971,7.549789954891874e-08
1753093778.5828338,5943,1753108178,534260523,ukd_base,-0.21031787991523743,0.5914546847343445,0.0,0.0,0.0,-0.9999999999999971,7.549789954891874e-08
1753093778.6248384,5944,1753108178,560305759,ukd_base,-0.22041325271129608,0.5890002846717834,0.0,0.0,0.0,-0.9999999999999971,7.549789954891874e-08
1753093778.6369166,5945,1753108178,594276537,ukd_base,-0.2066260278224945,0.5955290198326111,0.0,0.0,0.0,-0.9999999999999971,7.549789954891874e-08
1753093778.6907547,5946,1753108178,630173818,ukd_base,-0.16357508301734924,0.6129227876663208,0.0,0.0,0.0,-0.9999999999999971,7.549789954891874e-08
1753093778.6963842,5947,1753108178,650296476,ukd_base,-0.115779347717762,0.6171776652336121,0.0,0.0,0.0,-0.9999999999999971,7.549789954891874e-08
1753093778.7584703,5948,1753108178,676226009,ukd_base,-0.10411769896745682,0.6306554675102234,0.0,0.0,0.0,-0.9999999999999971,7.549789954891874e-08
1753093778.7703812,5949,1753108178,706278785,ukd_base,-0.07211404293775558,0.6358278393745422,0.0,0.0,0.0,-0.9999999999999971,7.549789954891874e-08
1753093778.8223345,5950,1753108178,744142270,ukd_base,-0.046387359499931335,0.6418790817260742,0.0,0.0,0.0,-0.9999999999999971,7.549789954891874e-08
1753093778.8404105,5951,1753108178,786003887,ukd_base,0.006992286071181297,0.6579515337944031,0.0,0.0,0.0,-0.9999999999999971,7.549789954891874e-08
1753093778.9007313,5952,1753108178,806119249,ukd_base,0.029380906373262405,0.6489273309707642,0.0,0.0,0.0,-0.9999999999999971,7.549789954891874e-08
1753093778.9064775,5954,1753108178,858315295,ukd_base,0.05132829397916794,0.6501741409301758,0.0,0.0,0.0,-0.9999999999999971,7.549789954891874e-08
1753093778.9491463,5955,1753108178,878316213,ukd_base,0.059434276074171066,0.6458088159561157,0.0,0.0,0.0,-0.9999999999999971,7.549789954891874e-08
1753093778.9605358,5956,1753108178,910193399,ukd_base,0.09083785861730576,0.6665220856666565,0.0,0.0,0.0,-0.9999999999999971,7.549789954891874e-08
1753093779.0264325,5957,1753108178,940148175,ukd_base,0.11404240131378174,0.6454169750213623,0.0,0.0,0.0,-0.9999999999999971,7.549789954891874e-08
1753093779.0277576,5959,1753108178,984244402,ukd_base,0.13699232041835785,0.6316219568252563,0.0,0.0,0.0,-0.9999999999999971,7.549789954891874e-08
1753093779.0763924,5960,1753108179,6306506,ukd_base,0.13915406167507172,0.62921142578125,0.0,0.0,0.0,-0.9999999999999971,7.549789954891874e-08
1753093779.077927,5961,1753108179,40307303,ukd_base,0.15562842786312103,0.6106550097465515,0.0,0.0,0.0,-0.9999999999999971,7.549789954891874e-08
1753093779.1365237,5962,1753108179,70204895,ukd_base,0.17456792294979095,0.6129100918769836,0.0,0.0,0.0,-0.9999999999999971,7.549789954891874e-08
1753093779.1443872,5963,1753108179,94227889,ukd_base,0.19434854388237,0.6014805436134338,0.0,0.0,0.0,-0.9999999999999971,7.549789954891874e-08
1753093779.196329,5964,1753108179,126174222,ukd_base,0.22752860188484192,0.58905428647995,0.0,0.0,0.0,-0.9999999999999971,7.549789954891874e-08
1753093779.197643,5965,1753108179,150270327,ukd_base,0.2470613718032837,0.5871682167053223,0.0,0.0,0.0,-0.9999999999999971,7.549789954891874e-08
1753093779.2605155,5966,1753108179,180106790,ukd_base,0.3115789294242859,0.5563350319862366,0.0,0.0,0.0,-0.9999999999999971,7.549789954891874e-08
1753093779.2645314,5967,1753108179,206205692,ukd_base,0.3285529911518097,0.5438048243522644,0.0,0.0,0.0,-0.9999999999999971,7.549789954891874e-08
1753093779.3245232,5968,1753108179,226286462,ukd_base,0.3526661694049835,0.5313340425491333,0.0,0.0,0.0,-0.9999999999999971,7.549789954891874e-08
1753093779.325881,5970,1753108179,270281857,ukd_base,0.3660936951637268,0.547978937625885,0.0,0.0,0.0,-0.9999999999999971,7.549789954891874e-08
1753093779.3867273,5971,1753108179,302163320,ukd_base,0.3727225363254547,0.5265516042709351,0.0,0.0,0.0,-0.9999999999999971,7.549789954891874e-08
1753093779.3925862,5972,1753108179,346063438,ukd_base,0.358336478471756,0.5256201028823853,0.0,0.0,0.0,-0.9999999999999971,7.549789954891874e-08
1753093779.4505262,5973,1753108179,366153893,ukd_base,0.31482794880867004,0.5502064228057861,0.0,0.0,0.0,-0.9999999999999971,7.549789954891874e-08
1753093779.4586413,5974,1753108179,404180136,ukd_base,0.30635592341423035,0.5550884008407593,0.0,0.0,0.0,-0.9999999999999971,7.549789954891874e-08
1753093779.534471,5975,1753108179,424309460,ukd_base,0.3124444782733917,0.5502989888191223,0.0,0.0,0.0,-0.9999999999999971,7.549789954891874e-08
1753093779.5463963,5976,1753108179,464197039,ukd_base,0.3175544738769531,0.5420678853988647,0.0,0.0,0.0,-0.9999999999999971,7.549789954891874e-08
1753093779.6123898,5977,1753108179,494101353,ukd_base,0.3346146047115326,0.5352480411529541,0.0,0.0,0.0,-0.9999999999999971,7.549789954891874e-08
1753093779.6205316,5979,1753108179,560297647,ukd_base,0.33300867676734924,0.5422793030738831,0.0,0.0,0.0,-0.9999999999999971,7.549789954891874e-08
1753093779.6844184,5980,1753108179,586316476,ukd_base,0.3403877019882202,0.538968026638031,0.0,0.0,0.0,-0.9999999999999971,7.549789954891874e-08
1753093779.6857526,5982,1753108179,652084718,ukd_base,0.31339284777641296,0.5576645731925964,0.0,0.0,0.0,-0.9999999999999971,7.549789954891874e-08
1753093779.7349958,5983,1753108179,676236138,ukd_base,0.3469824492931366,0.5339446663856506,0.0,0.0,0.0,-0.9999999999999971,7.549789954891874e-08
1753093779.770803,5984,1753108179,714291529,ukd_base,0.37002280354499817,0.5146432518959045,0.0,0.0,0.0,-0.9999999999999971,7.549789954891874e-08
1753093779.7726486,5985,1753108179,746115622,ukd_base,0.3749101459980011,0.5149742364883423,0.0,0.0,0.0,-0.9999999999999971,7.549789954891874e-08
1753093779.8324523,5986,1753108179,764293557,ukd_base,0.36923468112945557,0.5201663970947266,0.0,0.0,0.0,-0.9999999999999971,7.549789954891874e-08
1753093779.848645,5987,1753108179,789226136,ukd_base,0.36787980794906616,0.5028693675994873,0.0,0.0,0.0,-0.9999999999999971,7.549789954891874e-08
1753093779.8810136,5988,1753108179,826306998,ukd_base,0.36079806089401245,0.5108363628387451,0.0,0.0,0.0,-0.9999999999999971,7.549789954891874e-08
1753093779.8824623,5989,1753108179,870288856,ukd_base,0.4160926640033722,0.503645658493042,0.0,0.0,0.0,-0.9999999999999971,7.549789954891874e-08
1753093779.8841891,5990,1753108179,886231088,ukd_base,0.4125154912471771,0.5014262795448303,0.0,0.0,0.0,-0.9999999999999971,7.549789954891874e-08
1753093779.8855622,5991,1753108179,899481139,ukd_base,0.4152413308620453,0.49553465843200684,0.0,0.0,0.0,-0.9999999999999971,7.549789954891874e-08
1753093779.891921,5992,1753108179,910368118,ukd_base,0.41992130875587463,0.4850410223007202,0.0,0.0,0.0,-0.9999999999999971,7.549789954891874e-08
1753093779.9246168,5993,1753108179,930289315,ukd_base,0.4428281784057617,0.4594172537326813,0.0,0.0,0.0,-0.9999999999999971,7.549789954891874e-08
1753093779.9260395,5994,1753108179,943183407,ukd_base,0.45951786637306213,0.4435485005378723,0.0,0.0,0.0,-0.9999999999999971,7.549789954891874e-08
1753093780.000514,5995,1753108179,953273949,ukd_base,0.46764737367630005,0.4355570375919342,0.0,0.0,0.0,-0.9999999999999971,7.549789954891874e-08
1753093780.0503964,5996,1753108179,966299669,ukd_base,0.4466831684112549,0.4699212610721588,0.0,0.0,0.0,-0.9999999999999971,7.549789954891874e-08
1753093780.051754,5997,1753108180,18325253,ukd_base,0.5397118926048279,0.3459862768650055,0.0,0.0,0.0,-0.9999999999999971,7.549789954891874e-08
1753093780.088579,5998,1753108180,62150723,ukd_base,0.5885144472122192,0.2694697082042694,0.0,0.0,0.0,-0.9999999999999971,7.549789954891874e-08
1753093780.104276,5999,1753108180,82137827,ukd_base,0.6084229946136475,0.24011912941932678,0.0,0.0,0.0,-0.9999985592530403,0.0016974957565920365
1753093780.140546,6000,1753108180,100078708,ukd_base,0.6161683797836304,0.19690020382404327,0.0,0.0,0.0,-0.9999972136485525,0.0023606556570429068
1753093780.15642,6002,1753108180,140293710,ukd_base,0.6663134694099426,-0.003817027434706688,0.0,0.0,0.0,-0.9999830770725735,0.005817694428861091
1753093780.2105267,6003,1753108180,170279597,ukd_base,0.6210205554962158,-0.2730542719364166,0.0,0.0,0.0,-0.9999924627070259,0.003882593094502316
1753093780.2205083,6004,1753108180,198320093,ukd_base,0.5159175992012024,-0.46674302220344543,0.0,0.0,0.0,0.9999806984800513,0.0062131044855680325
1753093780.280414,6005,1753108180,232055263,ukd_base,0.44783106446266174,-0.5531411170959473,0.0,0.0,0.0,0.999976768008259,0.0068164098876632795
1753093780.2818105,6006,1753108180,256295237,ukd_base,0.42963162064552307,-0.5876253247261047,0.0,0.0,0.0,0.9999820686631345,0.005988518364179605
1753093780.3422713,6007,1753108180,296205408,ukd_base,0.3942914605140686,-0.6246116757392883,0.0,0.0,0.0,0.9999903190934263,0.004400195385159974
1753093780.3435674,6008,1753108180,316328288,ukd_base,0.40325888991355896,-0.6157600283622742,0.0,0.0,0.0,0.9999823112723968,0.00594786872042155
1753093780.3823757,6009,1753108180,346267046,ukd_base,0.41293013095855713,-0.5910013318061829,0.0,0.0,0.0,0.999945104013537,0.010478022683537171
1753093780.3963816,6010,1753108180,366290353,ukd_base,0.41244077682495117,-0.5799801349639893,0.0,0.0,0.0,0.9999249577349606,0.012250669317930958
1753093780.4504871,6011,1753108180,400277428,ukd_base,0.4183514714241028,-0.5794905424118042,0.0,0.0,0.0,0.9999530742368876,0.00968758608723235
1753093780.458524,6012,1753108180,436202523,ukd_base,0.36504867672920227,-0.6313499808311462,0.0,0.0,0.0,-0.9999859569213315,0.005299618866374845
1753093780.5263703,6013,1753108180,466255317,ukd_base,0.3355790674686432,-0.654990017414093,0.0,0.0,0.0,-0.9998277812660237,0.0185582275193578
1753093780.5279534,6014,1753108180,512322508,ukd_base,0.3314502239227295,-0.654758095741272,0.0,0.0,0.0,-0.9994757267390377,0.032377023635170615
1753093780.5544648,6015,1753108180,530282278,ukd_base,0.32087036967277527,-0.6520350575447083,0.0,0.0,0.0,-0.9995692112541403,0.02934947891830063
1753093780.6144876,6016,1753108180,574515633,ukd_base,0.31765443086624146,-0.6463636159896851,0.0,0.0,0.0,-0.9998312940217974,0.018368001924492332
1753093780.6157727,6017,1753108180,602009468,ukd_base,0.31473228335380554,-0.6599963903427124,0.0,0.0,0.0,-0.999935154489127,0.01138801197777209
1753093780.6565793,6018,1753108180,626291961,ukd_base,0.30810803174972534,-0.6544912457466125,0.0,0.0,0.0,-0.9999855503230093,0.005375792517220557
1753093780.674789,6019,1753108180,650195290,ukd_base,0.31764426827430725,-0.6720883846282959,0.0,0.0,0.0,-0.9999925402637995,0.0038625660840310716
1753093780.7227755,6020,1753108180,686248513,ukd_base,0.32810336351394653,-0.6668500304222107,0.0,0.0,0.0,-0.999985017442874,0.005474019526347946
1753093780.7384849,6021,1753108180,710209063,ukd_base,0.32810336351394653,-0.6668500304222107,0.0,0.0,0.0,-0.999985017442874,0.005474019526347946
1753093780.7766395,6022,1753108180,740046211,ukd_base,0.34310489892959595,-0.6851268410682678,0.0,0.0,0.0,-0.9999999999999971,7.549789954891874e-08
1753093780.7944658,6023,1753108180,770304003,ukd_base,0.34310489892959595,-0.6851268410682678,0.0,0.0,0.0,-0.9999999999999971,7.549789954891874e-08
1753093780.8405333,6024,1753108180,808314895,ukd_base,0.34310489892959595,-0.6851268410682678,0.0,0.0,0.0,-0.9999999999999971,7.549789954891874e-08
1753093780.8419244,6025,1753108180,834195484,ukd_base,0.34310489892959595,-0.6851268410682678,0.0,0.0,0.0,-0.9999999999999971,7.549789954891874e-08
1753093780.9004686,6026,1753108180,856261681,ukd_base,0.4298459589481354,-0.6608734130859375,0.0,0.0,0.0,-0.9999999999999971,7.549789954891874e-08
1753093780.9018037,6027,1753108180,890153812,ukd_base,0.4858736991882324,-0.6460931897163391,0.0,0.0,0.0,-0.9999999999999971,7.549789954891874e-08
1753093780.9623818,6028,1753108180,916256677,ukd_base,0.4781953692436218,-0.6419926881790161,0.0,0.0,0.0,-0.9999999999999971,7.549789954891874e-08
1753093780.970663,6029,1753108180,944311748,ukd_base,0.4443213641643524,-0.6475881338119507,0.0,0.0,0.0,-0.9999999999999971,7.549789954891874e-08
1753093781.0265255,6030,1753108180,970289874,ukd_base,0.4443213641643524,-0.6475881338119507,0.0,0.0,0.0,-0.9999999999999971,7.549789954891874e-08
1753093781.0279078,6031,1753108180,994278628,ukd_base,0.4443213641643524,-0.6475881338119507,0.0,0.0,0.0,-0.9999999999999971,7.549789954891874e-08
1753093781.0663786,6032,1753108181,26294571,ukd_base,0.4339670240879059,-0.6848303079605103,0.0,0.0,0.0,-0.9999999999999971,7.549789954891874e-08
1753093781.116377,6033,1753108181,70276114,ukd_base,0.4339670240879059,-0.6848303079605103,0.0,0.0,0.0,-0.9999999999999971,7.549789954891874e-08
1753093781.1177597,6034,1753108181,96304591,ukd_base,0.2137226164340973,-0.8486713767051697,0.0,0.0,0.0,-0.9999999999999971,7.549789954891874e-08
1753093781.1465266,6035,1753108181,124281774,ukd_base,-0.25113645195961,-0.8999489545822144,0.0,0.0,0.0,-0.9999999999999971,7.549789954891874e-08
1753093781.1866114,6036,1753108181,156186663,ukd_base,-0.1029953882098198,-0.942421555519104,0.0,0.0,0.0,-0.9999999999999971,7.549789954891874e-08
1753093781.1984882,6037,1753108181,182114345,ukd_base,-0.3471566438674927,-0.8964649438858032,0.0,0.0,0.0,-0.9999999999999971,7.549789954891874e-08
1753093781.246598,6038,1753108181,212074065,ukd_base,-0.821862518787384,-0.601152777671814,0.0,0.0,0.0,-0.9999999999999971,7.549789954891874e-08
1753093781.262365,6039,1753108181,236278336,ukd_base,-0.821862518787384,-0.601152777671814,0.0,0.0,0.0,-0.9999999999999971,7.549789954891874e-08
1753093781.3223696,6040,1753108181,278205193,ukd_base,-0.9441407322883606,-0.44972267746925354,0.0,0.0,0.0,-0.9999999999999971,7.549789954891874e-08
1753093781.332318,6041,1753108181,310159878,ukd_base,-0.9807695150375366,-0.3490922749042511,0.0,0.0,0.0,-0.9999999999999971,7.549789954891874e-08
1753093781.376446,6042,1753108181,336300836,ukd_base,-0.7898138165473938,-0.6544608473777771,0.0,0.0,0.0,-0.9999999999999971,7.549789954891874e-08
1753093781.386487,6043,1753108181,360328275,ukd_base,-0.5560024976730347,-0.9514681100845337,0.0,0.0,0.0,-0.9999999999999971,7.549789954891874e-08
1753093781.4365087,6044,1753108181,380260268,ukd_base,-0.21204735338687897,-1.1729997396469116,0.0,0.0,0.0,-0.9999999999999971,7.549789954891874e-08
1753093781.4443958,6045,1753108181,414318175,ukd_base,-0.21204735338687897,-1.1729997396469116,0.0,0.0,0.0,-0.9999999999999971,7.549789954891874e-08
1753093781.4692142,6046,1753108181,444209248,ukd_base,-0.846854031085968,-1.0794697999954224,0.0,0.0,0.0,-0.9999999999999971,7.549789954891874e-08
1753093781.4705968,6047,1753108181,474311171,ukd_base,-0.4396262466907501,-1.4884454011917114,0.0,0.0,0.0,-0.9999999999999971,7.549789954891874e-08
1753093781.4730082,6048,1753108181,489515391,ukd_base,-0.05575152859091759,-1.641065239906311,0.0,0.0,0.0,-0.9999999999999971,7.549789954891874e-08
1753093781.4859507,6049,1753108181,504502372,ukd_base,0.3466249406337738,-1.6969727277755737,0.0,0.0,0.0,-0.9999999999999971,7.549789954891874e-08
1753093781.4959733,6050,1753108181,514398397,ukd_base,0.8201956748962402,-1.626962423324585,0.0,0.0,0.0,-0.9999999999999971,7.549789954891874e-08
1753093781.5731153,6051,1753108181,526324274,ukd_base,0.8201956748962402,-1.626962423324585,0.0,0.0,0.0,-0.9999999999999971,7.549789954891874e-08
1753093781.5744917,6052,1753108181,546318434,ukd_base,0.5095931887626648,-1.842852234840393,0.0,0.0,0.0,-0.9999999999999971,7.549789954891874e-08
1753093781.5745318,6054,1753108181,591344616,ukd_base,0.3858869969844818,-1.7806793451309204,0.0,0.0,0.0,-0.9999999999999971,7.549789954891874e-08
1753093781.5919673,6055,1753108181,610421190,ukd_base,0.25742107629776,-1.712775468826294,0.0,0.0,0.0,-0.9999999999999971,7.549789954891874e-08
1753093781.6022375,6056,1753108181,620422214,ukd_base,-0.3275398910045624,-1.6090123653411865,0.0,0.0,0.0,-0.9999999999999971,7.549789954891874e-08
1753093781.6118426,6057,1753108181,630413905,ukd_base,-0.3275398910045624,-1.6090123653411865,0.0,0.0,0.0,-0.9999999999999971,7.549789954891874e-08
1753093781.6319764,6058,1753108181,650419490,ukd_base,-0.05396297201514244,-1.5714820623397827,0.0,0.0,0.0,-0.9999999999999971,7.549789954891874e-08
1753093781.6518648,6059,1753108181,670421909,ukd_base,-0.30561524629592896,-1.4804706573486328,0.0,0.0,0.0,-0.999984946884168,0.0054868939362709215
1753093781.7603352,6060,1753108181,682154918,ukd_base,-0.5806804299354553,-1.3462891578674316,0.0,0.0,0.0,-0.9999336663107895,0.011517941580975563
1753093781.7617037,6064,1753108181,744327469,ukd_base,-1.3747695684432983,-0.19563613831996918,0.0,0.0,0.0,-0.999602877163438,0.02817956647247812
1753093781.7984912,6065,1753108181,776288098,ukd_base,-1.3618443012237549,0.2883374094963074,0.0,0.0,0.0,-0.9995274248121302,0.030739665717627835
1753093781.8604705,6066,1753108181,804254855,ukd_base,-1.430325984954834,-0.6522713303565979,0.0,0.0,0.0,-0.9992025440637201,0.03992838509869222
1753093781.878494,6067,1753108181,830320647,ukd_base,-0.9092250466346741,-1.4976422786712646,0.0,0.0,0.0,-0.9990526437832836,0.043517984209191826
1753093781.9444604,6068,1753108181,864154259,ukd_base,-0.13537181913852692,-1.9272854328155518,0.0,0.0,0.0,-0.9988103676783391,0.04876319737528624
1753093781.9605103,6070,1753108181,930208240,ukd_base,0.2960542142391205,-1.7268394231796265,0.0,0.0,0.0,-0.9978844004469398,0.0650132551457895
1753093782.0085804,6071,1753108181,966321852,ukd_base,1.439302682876587,-1.2147808074951172,0.0,0.0,0.0,-0.9962622673582446,0.08637994349505858
1753093782.0225654,6072,1753108181,998213815,ukd_base,1.439302682876587,-1.2147808074951172,0.0,0.0,0.0,-0.9962622673582446,0.08637994349505858
1753093782.0764892,6073,1753108182,30196962,ukd_base,1.1881113052368164,-1.5756880044937134,0.0,0.0,0.0,-0.995066843279057,0.09920674073193109
1753093782.0778337,6074,1753108182,58320366,ukd_base,1.1307045221328735,-1.7533001899719238,0.0,0.0,0.0,-0.9940548787574613,0.10888020030514663
1753093782.1403193,6075,1753108182,90144052,ukd_base,0.5545771718025208,-2.1973752975463867,0.0,0.0,0.0,-0.9935416831310164,0.11346772175904031
1753093782.14171,6076,1753108182,116226213,ukd_base,-0.2318614274263382,-2.435264825820923,0.0,0.0,0.0,-0.9927605537069606,0.12011029516011106
1753093782.166492,6077,1753108182,144224507,ukd_base,-1.599157691001892,-2.0832736492156982,0.0,0.0,0.0,-0.9912919264533236,0.1316826357135149
1753093782.1923237,6078,1753108182,170283335,ukd_base,-2.081125259399414,-1.745589256286621,0.0,0.0,0.0,-0.9901469988346402,0.14003185601410534
1753093782.2666514,6079,1753108182,208296134,ukd_base,-1.0941359996795654,-2.5723717212677,0.0,0.0,0.0,-0.9873479346249918,0.15856877369697642
1753093782.2764087,6080,1753108182,240299596,ukd_base,-0.6993624567985535,-2.5201547145843506,0.0,0.0,0.0,-0.9854413972089611,0.17001544831823556
1753093782.3465664,6081,1753108182,280325341,ukd_base,-0.33139193058013916,-2.321864366531372,0.0,0.0,0.0,-0.9817997759722962,0.18991892981150915
1753093782.3563461,6082,1753108182,310215766,ukd_base,-0.20809835195541382,-2.155371904373169,0.0,0.0,0.0,-0.9807392445432753,0.19532161737167125
1753093782.4064896,6083,1753108182,346302025,ukd_base,-0.17339769005775452,-1.977807879447937,0.0,0.0,0.0,-0.9804476434595132,0.1967801271335277
1753093782.4143898,6084,1753108182,390236513,ukd_base,-0.08825874328613281,-1.7131223678588867,0.0,0.0,0.0,-0.9794212122608397,0.20182687871913182
1753093782.4845052,6085,1753108182,420233845,ukd_base,-0.11415115743875504,-1.535538911819458,0.0,0.0,0.0,-0.9786615254166323,0.2054789981219257
1753093782.4905066,6086,1753108182,460243145,ukd_base,-0.01771574281156063,-1.3617279529571533,0.0,0.0,0.0,-0.979923918016777,0.19937180066059704
1753093782.5465164,6087,1753108182,496185887,ukd_base,-0.1386195570230484,-1.3085815906524658,0.0,0.0,0.0,-0.9817423158123995,0.1902157336902153
1753093782.5663927,6089,1753108182,546312544,ukd_base,-0.296737939119339,-1.282216191291809,0.0,0.0,0.0,-0.9861173065684193,0.16605016617349755
1753093782.5805857,6090,1753108182,580241897,ukd_base,-0.44569236040115356,-1.3227213621139526,0.0,0.0,0.0,-0.9999999999999971,7.549789954891874e-08
1753093782.624453,6091,1753108182,612135230,ukd_base,-0.42964592576026917,-1.3009257316589355,0.0,0.0,0.0,-0.9999999999999971,7.549789954891874e-08
1753093782.660424,6092,1753108182,646225322,ukd_base,-0.4854816794395447,-1.2306181192398071,0.0,0.0,0.0,-0.9999999999999971,7.549789954891874e-08
1753093782.7163684,6093,1753108182,676279394,ukd_base,-0.5065455436706543,-1.1889190673828125,0.0,0.0,0.0,-0.9999999999999971,7.549789954891874e-08
1753093782.784352,6094,1753108182,704199188,ukd_base,-0.5178244113922119,-1.152889370918274,0.0,0.0,0.0,-0.9999999999999971,7.549789954891874e-08
1753093782.7857056,6095,1753108182,730188517,ukd_base,-0.5298333168029785,-1.1001449823379517,0.0,0.0,0.0,-0.9999999999999971,7.549789954891874e-08
1753093782.8204985,6096,1753108182,778254654,ukd_base,-0.5050112009048462,-1.0745564699172974,0.0,0.0,0.0,-0.9999999999999971,7.549789954891874e-08
1753093782.8218632,6097,1753108182,806241818,ukd_base,-0.4554387032985687,-1.0888720750808716,0.0,0.0,0.0,-0.9999999999999971,7.549789954891874e-08
1753093782.870584,6098,1753108182,836080207,ukd_base,-0.4960622191429138,-1.0774259567260742,0.0,0.0,0.0,-0.9999999999999971,7.549789954891874e-08
1753093782.8784552,6099,1753108182,850285416,ukd_base,-0.41621074080467224,-1.1055455207824707,0.0,0.0,0.0,-0.9999999999999971,7.549789954891874e-08
1753093782.9323492,6100,1753108182,884272732,ukd_base,-0.3863883316516876,-1.1102195978164673,0.0,0.0,0.0,-0.9999999999999971,7.549789954891874e-08
1753093782.9363062,6101,1753108182,918325991,ukd_base,-0.41921907663345337,-1.0623916387557983,0.0,0.0,0.0,-0.9999999999999971,7.549789954891874e-08
1753093782.9393718,6102,1753108182,946222544,ukd_base,-0.45731431245803833,-1.0128816366195679,0.0,0.0,0.0,-0.9999999999999971,7.549789954891874e-08
1753093782.9407713,6103,1753108182,956761434,ukd_base,-0.4614804983139038,-1.0105500221252441,0.0,0.0,0.0,-0.9999999999999971,7.549789954891874e-08
1753093782.948612,6104,1753108182,966314388,ukd_base,-0.46041256189346313,-1.0008307695388794,0.0,0.0,0.0,-0.9999999999999971,7.549789954891874e-08
1753093782.9689174,6105,1753108182,986308269,ukd_base,-0.4569792151451111,-0.9886531233787537,0.0,0.0,0.0,-0.9999999999999971,7.549789954891874e-08
1753093782.9789612,6106,1753108182,996474996,ukd_base,-0.4740457534790039,-0.980864942073822,0.0,0.0,0.0,-0.9999999999999971,7.549789954891874e-08
1753093782.998288,6107,1753108183,16310119,ukd_base,-0.49433836340904236,-0.9608843326568604,0.0,0.0,0.0,-0.9999999999999971,7.549789954891874e-08
1753093783.0192428,6108,1753108183,36305556,ukd_base,-0.5049397349357605,-0.9517619013786316,0.0,0.0,0.0,-0.9999999999999971,7.549789954891874e-08
1753093783.0280213,6109,1753108183,46307321,ukd_base,-0.5016916394233704,-0.9407773017883301,0.0,0.0,0.0,-0.9999999999999971,7.549789954891874e-08
1753093783.0382009,6110,1753108183,56313197,ukd_base,-0.5431599617004395,-0.9222726225852966,0.0,0.0,0.0,-0.9999996805007935,0.0007993736992044387
1753093783.0578587,6111,1753108183,76305893,ukd_base,-0.5283494591712952,-0.927270770072937,0.0,0.0,0.0,-0.999998298724362,0.0018445997890605143
1753093783.0687325,6112,1753108183,86309362,ukd_base,-0.5121839642524719,-0.9508956074714661,0.0,0.0,0.0,-0.9999938221105151,0.003515073370997725
1753093783.0882537,6113,1753108183,106305114,ukd_base,-0.49696171283721924,-0.9690434336662292,0.0,0.0,0.0,-0.9999857603917316,0.005336573223548145
1753093783.098118,6114,1753108183,116427933,ukd_base,-0.48831847310066223,-0.9838064312934875,0.0,0.0,0.0,-0.9999746089693571,0.007126108094977245
1753093783.1175995,6115,1753108183,136305371,ukd_base,-0.4827408790588379,-0.9937875270843506,0.0,0.0,0.0,-0.999974715893338,0.007111088105073232
1753093783.1285377,6116,1753108183,146307747,ukd_base,-0.4992380440235138,-0.9806130528450012,0.0,0.0,0.0,-0.9999876837658126,0.0049630954741181265
1753093783.1486096,6117,1753108183,166309110,ukd_base,-0.5471635460853577,-0.9614778161048889,0.0,0.0,0.0,-0.999998681983221,0.001623586098986689
1753093783.1585886,6118,1753108183,176313838,ukd_base,-0.5713474154472351,-0.9521144032478333,0.0,0.0,0.0,0.999995786470002,0.0029029368305399455
1753093783.1779861,6119,1753108183,196308367,ukd_base,-0.5376620888710022,-0.9748291373252869,0.0,0.0,0.0,0.9999717282489564,0.0075194882003495585
1753093783.1885836,6120,1753108183,206311447,ukd_base,-0.4812350869178772,-1.009447693824768,0.0,0.0,0.0,0.9999400658265577,0.010948276338280967
1753093783.2084737,6121,1753108183,226307476,ukd_base,-0.4848540723323822,-1.024902582168579,0.0,0.0,0.0,0.9999339899538412,0.01148981005027884
1753093783.218692,6122,1753108183,236309538,ukd_base,-0.4589356482028961,-1.055178165435791,0.0,0.0,0.0,0.999918856762729,0.012738912446405327
1753093783.238117,6123,1753108183,256309937,ukd_base,-0.4483197033405304,-1.0497372150421143,0.0,0.0,0.0,0.9999043832552803,0.013828389164238565
1753093783.2487142,6124,1753108183,266312258,ukd_base,-0.4445282816886902,-1.0443538427352905,0.0,0.0,0.0,0.9999098803261851,0.013425022386357557
1753093783.2683067,6125,1753108183,286307510,ukd_base,-0.42506757378578186,-1.0540344715118408,0.0,0.0,0.0,0.9999389249802518,0.011051982145225426
1753093783.278116,6126,1753108183,296310960,ukd_base,-0.4417785108089447,-1.0677804946899414,0.0,0.0,0.0,0.9999894605384572,0.004591166736825702
1753093783.2978468,6127,1753108183,316304304,ukd_base,-0.4800821542739868,-1.0492812395095825,0.0,0.0,0.0,-0.9999933286528013,0.003652759216061706
1753093783.3190496,6128,1753108183,336306686,ukd_base,-0.4645962715148926,-1.0713229179382324,0.0,0.0,0.0,-0.9999110623121292,0.01333669621117697
1753093783.3285797,6129,1753108183,346310006,ukd_base,-0.47625043988227844,-1.0702250003814697,0.0,0.0,0.0,-0.9998092301445632,0.0195321099151079
1753093783.3384569,6130,1753108183,356307289,ukd_base,-0.4898330271244049,-1.0669139623641968,0.0,0.0,0.0,-0.9996925396428828,0.024795688785816915
1753093783.3578649,6131,1753108183,376307411,ukd_base,-0.494058758020401,-1.0702576637268066,0.0,0.0,0.0,-0.9995386511976168,0.03037243424635352
1753093783.3689148,6132,1753108183,386310787,ukd_base,-0.5008918046951294,-1.0508849620819092,0.0,0.0,0.0,-0.9993451102872221,0.03618494915044128
1753093783.388333,6133,1753108183,406305687,ukd_base,-0.531768262386322,-1.0274513959884644,0.0,0.0,0.0,-0.9992374851066063,0.03904418468638805
1753093783.398477,6134,1753108183,416305267,ukd_base,-0.5187521576881409,-1.0384767055511475,0.0,0.0,0.0,-0.9992037097969898,0.039899202096444965
1753093783.4184513,6135,1753108183,436309278,ukd_base,-0.5240010619163513,-1.0456340312957764,0.0,0.0,0.0,-0.9992995122540246,0.03742305183798531
1753093783.4287326,6136,1753108183,446305728,ukd_base,-0.5660442113876343,-1.0270543098449707,0.0,0.0,0.0,-0.9994781554948206,0.03230196106540938
1753093783.4481194,6137,1753108183,466304128,ukd_base,-0.6005542278289795,-1.0098098516464233,0.0,0.0,0.0,-0.9996588698011718,0.026117887124418437
1753093783.4584525,6138,1753108183,476314782,ukd_base,-0.6112638115882874,-1.0156745910644531,0.0,0.0,0.0,-0.9998312020445342,0.018373007869747788
1753093783.661726,6139,1753108183,496308034,ukd_base,-0.6466668248176575,-1.002293348312378,0.0,0.0,0.0,-0.9999252466143503,0.012227067646445084
1753093783.6630528,6150,1753108183,675423789,ukd_base,-0.7130274176597595,-0.9660472273826599,0.0,0.0,0.0,-0.9998702729369155,0.016107057368063893
1753093783.6772828,6151,1753108183,695502374,ukd_base,-0.7075629830360413,-0.9436811208724976,0.0,0.0,0.0,-0.9998105062998995,0.019466676458466475
1753093783.6921015,6152,1753108183,710366226,ukd_base,-0.725959062576294,-0.9600664377212524,0.0,0.0,0.0,-0.9997079630465923,0.024165856517684034
1753093783.6974602,6153,1753108183,715513514,ukd_base,-0.734754204750061,-0.9670881628990173,0.0,0.0,0.0,-0.9995049049022136,0.031463392639971936
1753093783.7172282,6154,1753108183,735499303,ukd_base,-0.7370889782905579,-0.9635931253433228,0.0,0.0,0.0,-0.9992536103518859,0.03862929197799816
1753093783.7273667,6155,1753108183,745504309,ukd_base,-0.7376548051834106,-0.9619572162628174,0.0,0.0,0.0,-0.998935215189036,0.04613497431704404
1753093783.7478223,6156,1753108183,765505413,ukd_base,-0.7629210352897644,-0.9411842823028564,0.0,0.0,0.0,-0.9987153431603221,0.05067211596292503
1753093783.7671573,6157,1753108183,785502961,ukd_base,-0.8298050761222839,-0.8944535255432129,0.0,0.0,0.0,-0.9985511570350339,0.05381065678836272
1753093783.777159,6158,1753108183,795503911,ukd_base,-0.833478569984436,-0.907356321811676,0.0,0.0,0.0,-0.9985027387587837,0.05470174303628756
1753093783.787314,6159,1753108183,805506268,ukd_base,-0.8451445698738098,-0.9079836010932922,0.0,0.0,0.0,-0.9985575198659254,0.05369245309363301
1753093783.8071647,6160,1753108183,825504520,ukd_base,-0.9028400778770447,-0.8591693639755249,0.0,0.0,0.0,-0.9987196223692855,0.0505877049741529
1753093783.8172133,6161,1753108183,835506377,ukd_base,-0.8911572098731995,-0.8771453499794006,0.0,0.0,0.0,-0.9989963648821458,0.044791326752603604
1753093783.836968,6162,1753108183,855509370,ukd_base,-0.9075435996055603,-0.8556304574012756,0.0,0.0,0.0,-0.9992728623429711,0.038128028861790425
1753093783.8573582,6163,1753108183,875509955,ukd_base,-0.9526997208595276,-0.810941755771637,0.0,0.0,0.0,-0.9995970206885042,0.028386550171977287
1753093783.8674967,6164,1753108183,885504572,ukd_base,-0.9732071161270142,-0.8093516230583191,0.0,0.0,0.0,-0.999819851600225,0.018980630814176558
1753093783.8772295,6165,1753108183,895507540,ukd_base,-1.015234351158142,-0.7680712938308716,0.0,0.0,0.0,-0.9999471946620373,0.010276569832468599
1753093783.8972342,6166,1753108183,915505459,ukd_base,-1.0219565629959106,-0.7625999450683594,0.0,0.0,0.0,-0.9999956275430553,0.0029571768244459093
1753093783.9173353,6167,1753108183,935505544,ukd_base,-0.9914621710777283,-0.7849785685539246,0.0,0.0,0.0,0.9999822658646563,0.005955497979825339
1753093783.9282095,6168,1753108183,945506975,ukd_base,-1.0134832859039307,-0.7690110206604004,0.0,0.0,0.0,0.9999394980591584,0.01100001005446606
1753093783.9373753,6169,1753108183,955512296,ukd_base,-1.0220797061920166,-0.7714656591415405,0.0,0.0,0.0,0.9998850598773381,0.015161366498178397
1753093783.9702284,6170,1753108183,985514849,ukd_base,-1.0302371978759766,-0.7803005576133728,0.0,0.0,0.0,0.9998570328399775,0.01690898815529861
1753093784.424709,6171,1753108183,996210349,ukd_base,-1.0374517440795898,-0.7944042086601257,0.0,0.0,0.0,0.9998408312966114,0.017841302421658864
1753093784.4259672,6173,1753108184,26067015,ukd_base,-1.0261904001235962,-0.7598189115524292,0.0,0.0,0.0,0.9998280245345058,0.018545116754220055
1753093784.5138144,6174,1753108184,56104494,ukd_base,-1.0188745260238647,-0.7622745633125305,0.0,0.0,0.0,0.9998005558708417,0.01997119126031311
1753093784.5151207,6193,1753108184,458398603,ukd_base,-1.2255548238754272,-0.5350832939147949,0.0,0.0,0.0,0.9988948683109925,0.04700044746558104
1753093784.515145,6194,1753108184,506268668,ukd_base,-1.2599347829818726,-0.510595977306366,0.0,0.0,0.0,0.9985204103037554,0.054378214450457915
1753093784.5151548,6195,1753108184,530121701,ukd_base,-1.2662278413772583,-0.5437414646148682,0.0,0.0,0.0,0.9980829714781696,0.06189008034658899
1753093784.6204534,6196,1753108184,544287689,ukd_base,-1.2635895013809204,-0.5587779879570007,0.0,0.0,0.0,0.9978565717168196,0.065438996642336
1753093784.6217456,6200,1753108184,620097307,ukd_base,-1.286899209022522,-0.5557252168655396,0.0,0.0,0.0,0.9969822645797893,0.07762966001055878
1753093784.6765728,6201,1753108184,634318646,ukd_base,-1.2908730506896973,-0.5825514197349548,0.0,0.0,0.0,0.9970760658930083,0.07641543576608936
1753093784.6905534,6202,1753108184,666186924,ukd_base,-1.272337555885315,-0.5908966064453125,0.0,0.0,0.0,0.9973998593935486,0.07206608412928789
1753093784.7544322,6203,1753108184,700208647,ukd_base,-1.274477243423462,-0.5652416348457336,0.0,0.0,0.0,0.9977393966532658,0.06720190745787728
1753093784.7557251,6204,1753108184,720262176,ukd_base,-1.2826488018035889,-0.5276479125022888,0.0,0.0,0.0,0.9979869192350579,0.06342009961926842
1753093784.8144755,6205,1753108184,740311149,ukd_base,-1.2540732622146606,-0.5445519685745239,0.0,0.0,0.0,0.9985886999787047,0.05310939911955831
1753093784.8302858,6207,1753108184,794329050,ukd_base,-1.2737056016921997,-0.5497443675994873,0.0,0.0,0.0,0.9993028452405059,0.037333945602219115
1753093784.8767385,6208,1753108184,820134677,ukd_base,-1.26724112033844,-0.534026563167572,0.0,0.0,0.0,0.9995913974054907,0.028583880648685417
1753093784.8964233,6209,1753108184,846230876,ukd_base,-1.2653298377990723,-0.4909365177154541,0.0,0.0,0.0,0.9997087460971853,0.024133441047505026
1753093784.9824035,6210,1753108184,882102545,ukd_base,-1.2751599550247192,-0.468913197517395,0.0,0.0,0.0,0.9996649573064548,0.025883839233852072
1753093784.9923253,6211,1753108184,920329786,ukd_base,-1.264032244682312,-0.48166951537132263,0.0,0.0,0.0,0.9994298785630616,0.03376266925797998
1753093785.0665753,6212,1753108184,966111184,ukd_base,-1.2696183919906616,-0.42782896757125854,0.0,0.0,0.0,0.9991105096983727,0.04216858321378581
1753093785.0843198,6214,1753108185,26286697,ukd_base,-1.2719058990478516,-0.3975682854652405,0.0,0.0,0.0,0.9991244146164998,0.041837831172714175
1753093785.1104822,6215,1753108185,64234996,ukd_base,-1.2514618635177612,-0.3587627410888672,0.0,0.0,0.0,0.999168483694208,0.04077181860326087
1753093785.120494,6216,1753108185,102128648,ukd_base,-1.2567474842071533,-0.34242165088653564,0.0,0.0,0.0,0.9985530487629786,0.05377554096576312
1753093785.1746674,6217,1753108185,132303496,ukd_base,-1.2475336790084839,-0.37318629026412964,0.0,0.0,0.0,0.9978948889280136,0.06485206744081014
1753093785.1865442,6218,1753108185,150089008,ukd_base,-1.2447519302368164,-0.38015419244766235,0.0,0.0,0.0,0.9975373650507074,0.07013704675627229
1753093785.2405286,6219,1753108185,178324096,ukd_base,-1.2521135807037354,-0.35891497135162354,0.0,0.0,0.0,0.996718076800178,0.08095106781108298
1753093785.256443,6221,1753108185,220327730,ukd_base,-1.2502272129058838,-0.3218931555747986,0.0,0.0,0.0,0.9972716979396443,0.07381842919338492
1753093785.310503,6222,1753108185,250321340,ukd_base,-1.2470207214355469,-0.32860761880874634,0.0,0.0,0.0,0.9977896247576457,0.06645197307828116
1753093785.3322825,6223,1753108185,280214339,ukd_base,-1.2357059717178345,-0.32878950238227844,0.0,0.0,0.0,0.9980704974224646,0.06209091861837818
1753093785.3808084,6224,1753108185,314186117,ukd_base,-1.2332626581192017,-0.33580178022384644,0.0,0.0,0.0,0.9980124745530539,0.06301666951283694
1753093785.3922539,6225,1753108185,346295967,ukd_base,-1.2473481893539429,-0.3424381613731384,0.0,0.0,0.0,0.9978583421640084,0.0654119941119115
1753093785.456406,6226,1753108185,384155304,ukd_base,-1.2461211681365967,-0.2527249753475189,0.0,0.0,0.0,0.9979045569866828,0.0647031308764288
1753093785.4577487,6228,1753108185,436046797,ukd_base,-1.2372393608093262,-0.2436450868844986,0.0,0.0,0.0,0.9986823090711189,0.05131905638628072
1753093785.5064168,6229,1753108185,466140239,ukd_base,-1.239781141281128,-0.24977004528045654,0.0,0.0,0.0,0.9990624026258588,0.04329336738400453
1753093785.5077894,6230,1753108185,492301437,ukd_base,-1.2401014566421509,-0.23568086326122284,0.0,0.0,0.0,0.9991087997361886,0.042209078285512895
1753093785.5623043,6231,1753108185,520151880,ukd_base,-1.2404118776321411,-0.16184775531291962,0.0,0.0,0.0,0.9991933598606502,0.04015755981611886
1753093785.5804067,6232,1753108185,542019004,ukd_base,-1.23870849609375,-0.19296479225158691,0.0,0.0,0.0,0.9992286769166876,0.03926896009987978
1753093785.616531,6233,1753108185,566327385,ukd_base,-1.22091805934906,-0.1898317039012909,0.0,0.0,0.0,0.9992591857341231,0.038484798635009886
1753093785.630545,6234,1753108185,596128922,ukd_base,-1.239713191986084,-0.1439099758863449,0.0,0.0,0.0,0.9992496355916582,0.03873197348364959
1753093785.7003193,6235,1753108185,614257653,ukd_base,-1.2506128549575806,-0.1326351910829544,0.0,0.0,0.0,0.9992137613614146,0.0396466783725205
1753093785.701681,6237,1753108185,670229518,ukd_base,-1.213744044303894,-0.21027638018131256,0.0,0.0,0.0,0.9988538571801746,0.04786409924241133
1753093785.7465298,6238,1753108185,702138258,ukd_base,-1.2146432399749756,-0.19371828436851501,0.0,0.0,0.0,0.9985654712810023,0.053544370062125285
1753093785.7602546,6239,1753108185,734168091,ukd_base,-1.2180662155151367,-0.17726296186447144,0.0,0.0,0.0,0.9982875149940307,0.05849818293796021
1753093785.7965002,6240,1753108185,750293562,ukd_base,-1.223293423652649,-0.13415710628032684,0.0,0.0,0.0,0.9981838807743414,0.06024068527395308
1753093785.8123405,6241,1753108185,778314299,ukd_base,-1.2257957458496094,-0.12748949229717255,0.0,0.0,0.0,0.9978994863442932,0.06478128706498468
1753093785.850402,6242,1753108185,810127985,ukd_base,-1.2176593542099,-0.1150210052728653,0.0,0.0,0.0,0.9974680147046282,0.0711165215769695
1753093785.870426,6243,1753108185,826285326,ukd_base,-1.2170140743255615,-0.11198904365301132,0.0,0.0,0.0,0.9971754571170895,0.07510730805536575
1753093785.910398,6244,1753108185,866123405,ukd_base,-1.1950629949569702,-0.11956767737865448,0.0,0.0,0.0,0.9965045976632978,0.08353793650736711
1753093785.932307,6245,1753108185,886235100,ukd_base,-1.194993495941162,-0.11713515222072601,0.0,0.0,0.0,0.9963554576720011,0.08529831163169198
1753093785.9864304,6246,1753108185,910287928,ukd_base,-1.16782808303833,-0.10736583918333054,0.0,0.0,0.0,0.9962044427948856,0.08704428847277369
1753093785.9965074,6248,1753108185,974113373,ukd_base,-1.1870454549789429,-0.0794156938791275,0.0,0.0,0.0,0.99559407064034,0.09376804629402126
1753093786.030533,6249,1753108185,994281253,ukd_base,-1.1884158849716187,-0.05715165287256241,0.0,0.0,0.0,0.995371759964951,0.09609921677243781
1753093786.0464635,6251,1753108186,42084373,ukd_base,-1.1880857944488525,0.038714874535799026,0.0,0.0,0.0,0.9927667665044188,0.12005893271373354
1753093786.0922816,6252,1753108186,64191922,ukd_base,-1.1940701007843018,0.04964042827486992,0.0,0.0,0.0,0.9918891677591606,0.1271057783188468
1753093786.1265671,6253,1753108186,80294856,ukd_base,-1.2016808986663818,0.046262338757514954,0.0,0.0,0.0,0.9919000888240656,0.1270205250768979
1753093786.1464145,6254,1753108186,114199023,ukd_base,-1.2014070749282837,0.050306808203458786,0.0,0.0,0.0,0.993062878738304,0.11758451799447263
1753093786.194489,6255,1753108186,150104174,ukd_base,-1.1909997463226318,0.06772599369287491,0.0,0.0,0.0,0.9948108852553601,0.10174135136436287
1753093786.2102609,6256,1753108186,170187851,ukd_base,-1.191508412361145,0.091892309486866,0.0,0.0,0.0,0.9953487738993356,0.09633700377886588
1753093786.2545073,6257,1753108186,204208351,ukd_base,-1.1910611391067505,0.11261142790317535,0.0,0.0,0.0,0.9966502374451137,0.08178205304709858
1753093786.266255,6258,1753108186,234155794,ukd_base,-1.1887850761413574,0.10164522379636765,0.0,0.0,0.0,0.9974296102696535,0.0716531405963978
1753093786.328904,6259,1753108186,258210103,ukd_base,-1.210735559463501,0.140236496925354,0.0,0.0,0.0,0.9977934730256346,0.0663941653117367
1753093786.3369315,6261,1753108186,310157892,ukd_base,-1.2051771879196167,0.15519605576992035,0.0,0.0,0.0,0.9984199776115532,0.05619206622064685
1753093786.3963099,6262,1753108186,334275904,ukd_base,-1.2078204154968262,0.1762562394142151,0.0,0.0,0.0,0.998796971866762,0.049036812598156496
1753093786.3977041,6263,1753108186,370166110,ukd_base,-1.2003580331802368,0.2310919612646103,0.0,0.0,0.0,0.9987863092878057,0.04925351133923264
1753093786.4443674,6264,1753108186,410256706,ukd_base,-1.196607232093811,0.21114687621593475,0.0,0.0,0.0,-0.9999999999999971,7.549789954891874e-08
1753093786.4803877,6265,1753108186,440318962,ukd_base,-1.1667062044143677,0.24472205340862274,0.0,0.0,0.0,-0.9999999999999971,7.549789954891874e-08
1753093786.4922855,6267,1753108186,486139304,ukd_base,-1.1483714580535889,0.25887566804885864,0.0,0.0,0.0,-0.9999999999999971,7.549789954891874e-08
1753093786.5264986,6268,1753108186,510208058,ukd_base,-1.1725019216537476,0.2870263159275055,0.0,0.0,0.0,-0.9999999999999971,7.549789954891874e-08
1753093786.5463688,6269,1753108186,530297809,ukd_base,-1.1680876016616821,0.2834451198577881,0.0,0.0,0.0,-0.9999999999999971,7.549789954891874e-08
1753093786.630353,6270,1753108186,560092920,ukd_base,-1.1521201133728027,0.33369871973991394,0.0,0.0,0.0,-0.9999999999999971,7.549789954891874e-08
1753093786.6321712,6271,1753108186,576237002,ukd_base,-1.157531499862671,0.3580094277858734,0.0,0.0,0.0,-0.9999999999999971,7.549789954891874e-08
1753093786.7103524,6272,1753108186,604259628,ukd_base,-1.1432830095291138,0.34220704436302185,0.0,0.0,0.0,-0.9999999999999971,7.549789954891874e-08
1753093786.711783,6274,1753108186,684181155,ukd_base,-1.1443060636520386,0.3118080496788025,0.0,0.0,0.0,-0.9999999999999971,7.549789954891874e-08
1753093786.7946446,6275,1753108186,726060253,ukd_base,-1.131961464881897,0.3486473262310028,0.0,0.0,0.0,-0.9999999999999971,7.549789954891874e-08
1753093786.7962506,6276,1753108186,750247450,ukd_base,-1.1198147535324097,0.3567698299884796,0.0,0.0,0.0,-0.9999999999999971,7.549789954891874e-08
1753093786.840372,6277,1753108186,780198578,ukd_base,-1.1129968166351318,0.36521169543266296,0.0,0.0,0.0,-0.9999999999999971,7.549789954891874e-08
1753093786.8416975,6278,1753108186,812090412,ukd_base,-1.0971194505691528,0.3313977122306824,0.0,0.0,0.0,-0.9999999999999971,7.549789954891874e-08
1753093786.9003778,6279,1753108186,834325199,ukd_base,-1.106893539428711,0.33423352241516113,0.0,0.0,0.0,-0.9999999999999971,7.549789954891874e-08
1753093786.901708,6280,1753108186,870233146,ukd_base,-1.0944174528121948,0.328220933675766,0.0,0.0,0.0,-0.9999999999999971,7.549789954891874e-08
1753093786.9444668,6281,1753108186,902139776,ukd_base,-1.0753940343856812,0.35718873143196106,0.0,0.0,0.0,-0.9999999999999971,7.549789954891874e-08
1753093786.9622655,6282,1753108186,924293990,ukd_base,-1.0752758979797363,0.3448253273963928,0.0,0.0,0.0,-0.9999999999999971,7.549789954891874e-08
1753093787.0322447,6283,1753108186,950317671,ukd_base,-1.0496902465820312,0.35940656065940857,0.0,0.0,0.0,-0.9999999999999971,7.549789954891874e-08
1753093787.038472,6284,1753108186,980269633,ukd_base,-1.0468227863311768,0.31629127264022827,0.0,0.0,0.0,-0.9999999999999971,7.549789954891874e-08
1753093787.1364303,6285,1753108187,10168706,ukd_base,-1.0129634141921997,0.369484007358551,0.0,0.0,0.0,-0.9999999999999971,7.549789954891874e-08
1753093787.1464975,6288,1753108187,100245237,ukd_base,-0.9309391379356384,0.4319128692150116,0.0,0.0,0.0,-0.9999999999999971,7.549789954891874e-08
1753093787.186495,6289,1753108187,144226187,ukd_base,-0.8975799679756165,0.48067742586135864,0.0,0.0,0.0,-0.9999999999999971,7.549789954891874e-08
1753093787.1985009,6290,1753108187,170276942,ukd_base,-0.8996554017066956,0.4895176887512207,0.0,0.0,0.0,-0.9999999999999971,7.549789954891874e-08
1753093787.2603524,6291,1753108187,202117350,ukd_base,-0.8656847476959229,0.48760414123535156,0.0,0.0,0.0,-0.9999999999999971,7.549789954891874e-08
1753093787.2763472,6292,1753108187,224286546,ukd_base,-0.8570010662078857,0.49461913108825684,0.0,0.0,0.0,-0.9999999999999971,7.549789954891874e-08
1753093787.3303752,6293,1753108187,262060476,ukd_base,-0.839428722858429,0.5045368075370789,0.0,0.0,0.0,-0.9999999999999971,7.549789954891874e-08
1753093787.3316438,6295,1753108187,318319542,ukd_base,-0.7976817488670349,0.535525918006897,0.0,0.0,0.0,-0.9999999999999971,7.549789954891874e-08
1753093787.3865032,6296,1753108187,344317816,ukd_base,-0.785526692867279,0.5475695133209229,0.0,0.0,0.0,-0.9999999999999971,7.549789954891874e-08
1753093787.3963554,6297,1753108187,370321293,ukd_base,-0.7761498093605042,0.5406559705734253,0.0,0.0,0.0,-0.9999999999999971,7.549789954891874e-08
1753093787.4405584,6298,1753108187,404229109,ukd_base,-0.7479744553565979,0.5616813898086548,0.0,0.0,0.0,-0.9999999999999971,7.549789954891874e-08
1753093787.4502664,6299,1753108187,430268790,ukd_base,-0.7068634033203125,0.5603757500648499,0.0,0.0,0.0,-0.9999999999999971,7.549789954891874e-08
1753093787.4804173,6300,1753108187,454225063,ukd_base,-0.6981068253517151,0.5813937783241272,0.0,0.0,0.0,-0.9999999999999971,7.549789954891874e-08
1753093787.4969354,6301,1753108187,484251394,ukd_base,-0.6686680912971497,0.6036891341209412,0.0,0.0,0.0,-0.9999999999999971,7.549789954891874e-08
1753093787.548495,6302,1753108187,510158631,ukd_base,-0.6703087091445923,0.596977174282074,0.0,0.0,0.0,-0.9999999999999971,7.549789954891874e-08
1753093787.556354,6303,1753108187,536187201,ukd_base,-0.6717379689216614,0.5785305500030518,0.0,0.0,0.0,-0.9999999999999971,7.549789954891874e-08
1753093787.6047773,6304,1753108187,560190622,ukd_base,-0.6513105034828186,0.5902814269065857,0.0,0.0,0.0,-0.9999999999999971,7.549789954891874e-08
1753093787.6063867,6305,1753108187,584078451,ukd_base,-0.6458616256713867,0.5652781128883362,0.0,0.0,0.0,-0.9999999999999971,7.549789954891874e-08
1753093787.6603508,6306,1753108187,596276826,ukd_base,-0.6371761560440063,0.575812041759491,0.0,0.0,0.0,-0.9999999999999971,7.549789954891874e-08
1753093787.6622806,6307,1753108187,656295341,ukd_base,-0.5837593674659729,0.557203471660614,0.0,0.0,0.0,0.9999590989307279,0.009044360986088178
1753093787.6667404,6308,1753108187,676129168,ukd_base,-0.5575172901153564,0.56257164478302,0.0,0.0,0.0,-0.9999999999999971,7.549789954891874e-08
1753093787.7243555,6309,1753108187,700057627,ukd_base,-0.5655497312545776,0.5579057335853577,0.0,0.0,0.0,-0.9999999999999971,7.549789954891874e-08
1753093787.7256553,6310,1753108187,714200189,ukd_base,-0.5629180669784546,0.5586795806884766,0.0,0.0,0.0,-0.9999999999999971,7.549789954891874e-08
1753093787.7563152,6311,1753108187,730319585,ukd_base,-0.5521522164344788,0.5638365149497986,0.0,0.0,0.0,-0.9999999999999971,7.549789954891874e-08
1753093787.8103306,6312,1753108187,766134625,ukd_base,-0.5455291867256165,0.5695895552635193,0.0,0.0,0.0,-0.9999999999999971,7.549789954891874e-08
1753093787.8117187,6313,1753108187,796325214,ukd_base,-0.5469743609428406,0.5536049604415894,0.0,0.0,0.0,-0.9999999999999971,7.549789954891874e-08
1753093787.8565934,6314,1753108187,826227343,ukd_base,-0.5612103939056396,0.5563445687294006,0.0,0.0,0.0,-0.9999999999999971,7.549789954891874e-08
1753093787.8622322,6315,1753108187,850210079,ukd_base,-0.5484054088592529,0.5393227338790894,0.0,0.0,0.0,0.9999939027185207,0.0034920661193232495
1753093787.900505,6316,1753108187,878275149,ukd_base,-0.5442281365394592,0.536901593208313,0.0,0.0,0.0,0.9999581817120864,0.00914520787396623
1753093787.9163296,6317,1753108187,908323740,ukd_base,-0.5418223738670349,0.5360772013664246,0.0,0.0,0.0,0.9998561425308718,0.01696155191263127
1753093787.9568896,6318,1753108187,930257549,ukd_base,-0.5615276098251343,0.5144228935241699,0.0,0.0,0.0,0.9997513794585222,0.022297517143886066
1753093787.974479,6319,1753108187,954201433,ukd_base,-0.5380728244781494,0.5128881335258484,0.0,0.0,0.0,0.9995424883457296,0.030245892144670463
1753093788.0149138,6320,1753108187,984137802,ukd_base,-0.5480825901031494,0.5076220035552979,0.0,0.0,0.0,0.9994021113306136,0.034574844437997396
1753093788.032677,6321,1753108188,177366,ukd_base,-0.5459588170051575,0.5155830979347229,0.0,0.0,0.0,0.9994417497356293,0.03340941312540069
1753093788.0708907,6322,1753108188,26224232,ukd_base,-0.5364497303962708,0.5148760080337524,0.0,0.0,0.0,0.9995182451894529,0.031036712670590345
1753093788.0846794,6323,1753108188,50163931,ukd_base,-0.5362730026245117,0.5221564769744873,0.0,0.0,0.0,0.9994866308425782,0.03203864489880836
1753093788.1444912,6324,1753108188,70233775,ukd_base,-0.5370073318481445,0.5134318470954895,0.0,0.0,0.0,0.9992490768051697,0.03874638698015605
1753093788.158371,6326,1753108188,120299913,ukd_base,-0.5305739641189575,0.51320481300354,0.0,0.0,0.0,0.9988083031596725,0.0488054662849941
1753093788.2046766,6327,1753108188,150324411,ukd_base,-0.522567868232727,0.512446939945221,0.0,0.0,0.0,0.9986511655949193,0.05192157023732153
1753093788.2165248,6328,1753108188,176273166,ukd_base,-0.5269629955291748,0.49739399552345276,0.0,0.0,0.0,0.9985687375100202,0.05348342236286348
1753093788.2743554,6329,1753108188,216115227,ukd_base,-0.5420570373535156,0.4929571747779846,0.0,0.0,0.0,0.9983266545160304,0.05782638569745182
1753093788.276125,6330,1753108188,234279921,ukd_base,-0.5184758901596069,0.512300431728363,0.0,0.0,0.0,0.9982370511013469,0.05935309434635191
1753093788.3164017,6331,1753108188,268263403,ukd_base,-0.5041727423667908,0.5317289233207703,0.0,0.0,0.0,0.9980495158173442,0.06242726949630909
1753093788.3177557,6332,1753108188,292157195,ukd_base,-0.5185683369636536,0.5254501700401306,0.0,0.0,0.0,0.99793997950947,0.06415447994207925
1753093788.3664613,6333,1753108188,314270187,ukd_base,-0.5491113662719727,0.5031550526618958,0.0,0.0,0.0,0.9979068471858693,0.06466779986637915
1753093788.3678412,6334,1753108188,346307334,ukd_base,-0.530538022518158,0.508013129234314,0.0,0.0,0.0,0.9978676425304297,0.06526996239283794
1753093788.4005682,6335,1753108188,382149319,ukd_base,-0.5033830404281616,0.545495867729187,0.0,0.0,0.0,0.9977275086449684,0.06737817519868385
1753093788.4145024,6336,1753108188,404265682,ukd_base,-0.49573153257369995,0.5434503555297852,0.0,0.0,0.0,0.9976378801095483,0.06869250447120509
1753093788.4465048,6337,1753108188,432115680,ukd_base,-0.5223702192306519,0.5316554307937622,0.0,0.0,0.0,0.9974708115903098,0.07107728206233475
1753093788.4667647,6338,1753108188,456319451,ukd_base,-0.5042783617973328,0.5548043251037598,0.0,0.0,0.0,0.9974141779423414,0.07186763972472779
1753093788.520884,6339,1753108188,480127818,ukd_base,-0.5093355178833008,0.5180126428604126,0.0,0.0,0.0,0.9973517359324103,0.07272905081607772
1753093788.5343225,6340,1753108188,510092390,ukd_base,-0.5374246835708618,0.5285308957099915,0.0,0.0,0.0,0.9972832926038351,0.0736616202187644
1753093788.566407,6341,1753108188,534157570,ukd_base,-0.5084925889968872,0.5398856401443481,0.0,0.0,0.0,0.9971958877656751,0.0748355625570294
1753093788.5685978,6342,1753108188,552085562,ukd_base,-0.48333829641342163,0.5539264678955078,0.0,0.0,0.0,0.9971509163254942,0.07543242055792179
1753093788.6145003,6343,1753108188,580269391,ukd_base,-0.5236672163009644,0.5250068306922913,0.0,0.0,0.0,0.997082611910544,0.07632997462103296
1753093788.620488,6344,1753108188,600323531,ukd_base,-0.4882648289203644,0.5494741797447205,0.0,0.0,0.0,0.9970570236555057,0.0766634957409597
1753093788.6602988,6345,1753108188,630111827,ukd_base,-0.5006401538848877,0.5607022047042847,0.0,0.0,0.0,0.997052571281861,0.07672137968147803
1753093788.6617174,6346,1753108188,646267557,ukd_base,-0.4869641959667206,0.5719567537307739,0.0,0.0,0.0,0.9970669311313435,0.07653453367156987
1753093788.6903832,6347,1753108188,676242092,ukd_base,-0.5084278583526611,0.5549992918968201,0.0,0.0,0.0,0.9971325697230317,0.07567455581332069
1753093788.7304857,6348,1753108188,706259405,ukd_base,-0.5430903434753418,0.5346657037734985,0.0,0.0,0.0,0.9971791805422789,0.07505785697066635
1753093788.7545457,6349,1753108188,734255939,ukd_base,-0.5016613006591797,0.5533964037895203,0.0,0.0,0.0,0.9971499720616274,0.07544490186550484
1753093788.80436,6350,1753108188,766185809,ukd_base,-0.4680183231830597,0.5787386894226074,0.0,0.0,0.0,0.9971107152549183,0.07596197419646987
1753093788.806048,6351,1753108188,796236399,ukd_base,-0.4993871748447418,0.5391654372215271,0.0,0.0,0.0,0.9971097734194985,0.07597433613606848
1753093788.8627753,6352,1753108188,814262317,ukd_base,-0.49652430415153503,0.539804995059967,0.0,0.0,0.0,0.9971429706487014,0.07553738204282037
1753093788.8763838,6353,1753108188,850244337,ukd_base,-0.4944719672203064,0.5534733533859253,0.0,0.0,0.0,0.9972850836634191,0.07363736756869549
1753093788.9105244,6354,1753108188,866292234,ukd_base,-0.4979007840156555,0.5464561581611633,0.0,0.0,0.0,0.9974715825811976,0.07106646144955422
1753093788.9224856,6355,1753108188,900100236,ukd_base,-0.4999665915966034,0.5270213484764099,0.0,0.0,0.0,0.9976767874442085,0.06812508932106863
1753093788.9670308,6356,1753108188,924180286,ukd_base,-0.4787980914115906,0.560624361038208,0.0,0.0,0.0,0.9979374779173976,0.06419338102844907
1753093788.9848638,6357,1753108188,946319871,ukd_base,-0.49069690704345703,0.5553517937660217,0.0,0.0,0.0,0.9980980883596703,0.06164581099127388
1753093789.0163817,6358,1753108188,966281086,ukd_base,-0.46431800723075867,0.5718663334846497,0.0,0.0,0.0,0.9984007008882776,0.05653353399351566
1753093789.0178668,6360,1753108189,24227896,ukd_base,-0.46928519010543823,0.5542968511581421,0.0,0.0,0.0,0.9988063533114544,0.048845353767518425
1753093789.056579,6361,1753108189,46185464,ukd_base,-0.49040931463241577,0.5667540431022644,0.0,0.0,0.0,0.999043877061523,0.04371877978489907
1753093789.100308,6362,1753108189,74248942,ukd_base,-0.48259809613227844,0.5496425628662109,0.0,0.0,0.0,0.999223021033138,0.03941261520641704
1753093789.1405354,6363,1753108189,112138613,ukd_base,-0.47983264923095703,0.5354729890823364,0.0,0.0,0.0,0.9993508390854929,0.036026385040984966
1753093789.1419892,6364,1753108189,136182607,ukd_base,-0.47933441400527954,0.5490058064460754,0.0,0.0,0.0,0.9994321623719128,0.03369499690759212
1753093789.1904807,6365,1753108189,156213599,ukd_base,-0.4727792739868164,0.5352733731269836,0.0,0.0,0.0,0.9994653279937138,0.03269645452366581
1753093789.1919494,6366,1753108189,184219041,ukd_base,-0.49531447887420654,0.5173659920692444,0.0,0.0,0.0,0.9995234221196274,0.030869542177835618
1753093789.2246144,6367,1753108189,206297460,ukd_base,-0.5115900039672852,0.5074259042739868,0.0,0.0,0.0,0.9995583004787599,0.029718747349327595
1753093789.2385967,6368,1753108189,232163086,ukd_base,-0.49535098671913147,0.5230593681335449,0.0,0.0,0.0,0.9995705292660977,0.02930455634698111
1753093789.2804656,6369,1753108189,246328982,ukd_base,-0.5113205313682556,0.5072926878929138,0.0,0.0,0.0,0.9995827035112143,0.028886308888676566
1753093789.2851243,6370,1753108189,274206443,ukd_base,-0.4910476505756378,0.5361445546150208,0.0,0.0,0.0,0.9996037031130769,0.028150252620955718
1753093789.3165898,6371,1753108189,296317991,ukd_base,-0.483109712600708,0.534056544303894,0.0,0.0,0.0,0.9996188445779368,0.027607346208403195
1753093789.3384888,6372,1753108189,330147622,ukd_base,-0.46655023097991943,0.5294371843338013,0.0,0.0,0.0,0.9996292415437887,0.027228284018456988
1753093789.3764787,6373,1753108189,350253947,ukd_base,-0.4776611626148224,0.5252596735954285,0.0,0.0,0.0,0.9996342652405831,0.027043220165496873
1753093789.4202595,6374,1753108189,384155578,ukd_base,-0.47963762283325195,0.5436466336250305,0.0,0.0,0.0,0.9996397667728717,0.026839088775119587
1753093789.4215662,6375,1753108189,410289443,ukd_base,-0.48485398292541504,0.5274533033370972,0.0,0.0,0.0,0.9996351351496138,0.027011045415040544
1753093789.4585173,6376,1753108189,430250455,ukd_base,-0.4685412347316742,0.5394383072853088,0.0,0.0,0.0,0.9996321667676491,0.027120677783104917
1753093789.4945078,6377,1753108189,462118270,ukd_base,-0.4424867630004883,0.5591434240341187,0.0,0.0,0.0,0.9996065035741561,0.02805063300980129
1753093789.5004725,6378,1753108189,484243096,ukd_base,-0.44291549921035767,0.5576370358467102,0.0,0.0,0.0,0.9995905450955569,0.02861367078106866
1753093789.5464978,6379,1753108189,516140651,ukd_base,-0.448947548866272,0.5552535653114319,0.0,0.0,0.0,0.999562287664764,0.02958433839692311
1753093789.552515,6380,1753108189,534243327,ukd_base,-0.48233264684677124,0.5289329290390015,0.0,0.0,0.0,0.9995490090977467,0.030029625567306577
1753093789.5964565,6381,1753108189,560229694,ukd_base,-0.44804608821868896,0.5671270489692688,0.0,0.0,0.0,0.9995203665717156,0.030968319430400876
1753093789.6062586,6382,1753108189,586182653,ukd_base,-0.4365168511867523,0.5787981152534485,0.0,0.0,0.0,0.9995038578960913,0.03149663554778644
1753093789.6623058,6383,1753108189,618322410,ukd_base,-0.4701114594936371,0.5374276041984558,0.0,0.0,0.0,0.9994873562539822,0.03201600675326832
1753093789.674365,6384,1753108189,646114779,ukd_base,-0.46240970492362976,0.5480608344078064,0.0,0.0,0.0,0.9994496709371775,0.03317160327098343
